{
  "locations": [
    {"city": "Toronto", "state": "Ontario", "state_abbr": "ON", "postcode_prefix": "M5", "lat_min": 43.58, "lat_max": 43.86, "lon_min": -79.64, "lon_max": -79.12},
    {"city": "Mississauga", "state": "Ontario", "state_abbr": "ON", "postcode_prefix": "L5", "lat_min": 43.52, "lat_max": 43.67, "lon_min": -79.77, "lon_max": -79.54},
    {"city": "Brampton", "state": "Ontario", "state_abbr": "ON", "postcode_prefix": "L6", "lat_min": 43.65, "lat_max": 43.80, "lon_min": -79.87, "lon_max": -79.70},
    {"city": "Hamilton", "state": "Ontario", "state_abbr": "ON", "postcode_prefix": "L8", "lat_min": 43.20, "lat_max": 43.30, "lon_min": -79.95, "lon_max": -79.75},
    {"city": "Ottawa", "state": "Ontario", "state_abbr": "ON", "postcode_prefix": "K1", "lat_min": 45.25, "lat_max": 45.50, "lon_min": -75.90, "lon_max": -75.55},
    {"city": "London", "state": "Ontario", "state_abbr": "ON", "postcode_prefix": "N6", "lat_min": 42.92, "lat_max": 43.05, "lon_min": -81.35, "lon_max": -81.15},
    {"city": "Markham", "state": "Ontario", "state_abbr": "ON", "postcode_prefix": "L3", "lat_min": 43.82, "lat_max": 43.95, "lon_min": -79.42, "lon_max": -79.22},
    {"city": "Vaughan", "state": "Ontario", "state_abbr": "ON", "postcode_prefix": "L4", "lat_min": 43.78, "lat_max": 43.92, "lon_min": -79.62, "lon_max": -79.45},
    {"city": "Kitchener", "state": "Ontario", "state_abbr": "ON", "postcode_prefix": "N2", "lat_min": 43.38, "lat_max": 43.48, "lon_min": -80.55, "lon_max": -80.40},
    {"city": "Windsor", "state": "Ontario", "state_abbr": "ON", "postcode_prefix": "N9", "lat_min": 42.25, "lat_max": 42.35, "lon_min": -83.10, "lon_max": -82.90},
    {"city": "Richmond Hill", "state": "Ontario", "state_abbr": "ON", "postcode_prefix": "L4", "lat_min": 43.84, "lat_max": 43.93, "lon_min": -79.48, "lon_max": -79.38},
    {"city": "Oakville", "state": "Ontario", "state_abbr": "ON", "postcode_prefix": "L6", "lat_min": 43.42, "lat_max": 43.52, "lon_min": -79.75, "lon_max": -79.60},
    {"city": "Burlington", "state": "Ontario", "state_abbr": "ON", "postcode_prefix": "L7", "lat_min": 43.30, "lat_max": 43.42, "lon_min": -79.85, "lon_max": -79.72},
    {"city": "Oshawa", "state": "Ontario", "state_abbr": "ON", "postcode_prefix": "L1", "lat_min": 43.85, "lat_max": 43.95, "lon_min": -78.92, "lon_max": -78.80},
    {"city": "Barrie", "state": "Ontario", "state_abbr": "ON", "postcode_prefix": "L4", "lat_min": 44.35, "lat_max": 44.42, "lon_min": -79.72, "lon_max": -79.62},
    {"city": "Montreal", "state": "Quebec", "state_abbr": "QC", "postcode_prefix": "H3", "lat_min": 45.40, "lat_max": 45.70, "lon_min": -73.98, "lon_max": -73.47},
    {"city": "Quebec City", "state": "Quebec", "state_abbr": "QC", "postcode_prefix": "G1", "lat_min": 46.75, "lat_max": 46.90, "lon_min": -71.35, "lon_max": -71.15},
    {"city": "Laval", "state": "Quebec", "state_abbr": "QC", "postcode_prefix": "H7", "lat_min": 45.52, "lat_max": 45.68, "lon_min": -73.87, "lon_max": -73.62},
    {"city": "Gatineau", "state": "Quebec", "state_abbr": "QC", "postcode_prefix": "J8", "lat_min": 45.42, "lat_max": 45.52, "lon_min": -75.80, "lon_max": -75.60},
    {"city": "Longueuil", "state": "Quebec", "state_abbr": "QC", "postcode_prefix": "J4", "lat_min": 45.50, "lat_max": 45.58, "lon_min": -73.55, "lon_max": -73.45},
    {"city": "Sherbrooke", "state": "Quebec", "state_abbr": "QC", "postcode_prefix": "J1", "lat_min": 45.35, "lat_max": 45.45, "lon_min": -71.95, "lon_max": -71.82},
    {"city": "Saguenay", "state": "Quebec", "state_abbr": "QC", "postcode_prefix": "G7", "lat_min": 48.38, "lat_max": 48.48, "lon_min": -71.15, "lon_max": -70.95},
    {"city": "Levis", "state": "Quebec", "state_abbr": "QC", "postcode_prefix": "G6", "lat_min": 46.70, "lat_max": 46.82, "lon_min": -71.25, "lon_max": -71.10},
    {"city": "Trois-Rivieres", "state": "Quebec", "state_abbr": "QC", "postcode_prefix": "G9", "lat_min": 46.32, "lat_max": 46.38, "lon_min": -72.60, "lon_max": -72.50},
    {"city": "Terrebonne", "state": "Quebec", "state_abbr": "QC", "postcode_prefix": "J6", "lat_min": 45.68, "lat_max": 45.75, "lon_min": -73.68, "lon_max": -73.58},
    {"city": "Calgary", "state": "Alberta", "state_abbr": "AB", "postcode_prefix": "T2", "lat_min": 50.88, "lat_max": 51.18, "lon_min": -114.32, "lon_max": -113.90},
    {"city": "Edmonton", "state": "Alberta", "state_abbr": "AB", "postcode_prefix": "T5", "lat_min": 53.42, "lat_max": 53.68, "lon_min": -113.72, "lon_max": -113.28},
    {"city": "Red Deer", "state": "Alberta", "state_abbr": "AB", "postcode_prefix": "T4", "lat_min": 52.22, "lat_max": 52.32, "lon_min": -113.85, "lon_max": -113.75},
    {"city": "Lethbridge", "state": "Alberta", "state_abbr": "AB", "postcode_prefix": "T1", "lat_min": 49.65, "lat_max": 49.75, "lon_min": -112.88, "lon_max": -112.78},
    {"city": "St. Albert", "state": "Alberta", "state_abbr": "AB", "postcode_prefix": "T8", "lat_min": 53.60, "lat_max": 53.68, "lon_min": -113.65, "lon_max": -113.55},
    {"city": "Medicine Hat", "state": "Alberta", "state_abbr": "AB", "postcode_prefix": "T1", "lat_min": 50.02, "lat_max": 50.08, "lon_min": -110.72, "lon_max": -110.62},
    {"city": "Grande Prairie", "state": "Alberta", "state_abbr": "AB", "postcode_prefix": "T8", "lat_min": 55.15, "lat_max": 55.22, "lon_min": -118.85, "lon_max": -118.75},
    {"city": "Airdrie", "state": "Alberta", "state_abbr": "AB", "postcode_prefix": "T4", "lat_min": 51.28, "lat_max": 51.32, "lon_min": -114.05, "lon_max": -113.95},
    {"city": "Vancouver", "state": "British Columbia", "state_abbr": "BC", "postcode_prefix": "V6", "lat_min": 49.20, "lat_max": 49.32, "lon_min": -123.25, "lon_max": -123.02},
    {"city": "Surrey", "state": "British Columbia", "state_abbr": "BC", "postcode_prefix": "V3", "lat_min": 49.05, "lat_max": 49.22, "lon_min": -122.95, "lon_max": -122.68},
    {"city": "Burnaby", "state": "British Columbia", "state_abbr": "BC", "postcode_prefix": "V5", "lat_min": 49.20, "lat_max": 49.30, "lon_min": -123.05, "lon_max": -122.88},
    {"city": "Richmond", "state": "British Columbia", "state_abbr": "BC", "postcode_prefix": "V6", "lat_min": 49.12, "lat_max": 49.20, "lon_min": -123.22, "lon_max": -123.05},
    {"city": "Abbotsford", "state": "British Columbia", "state_abbr": "BC", "postcode_prefix": "V2", "lat_min": 49.02, "lat_max": 49.12, "lon_min": -122.38, "lon_max": -122.22},
    {"city": "Coquitlam", "state": "British Columbia", "state_abbr": "BC", "postcode_prefix": "V3", "lat_min": 49.25, "lat_max": 49.35, "lon_min": -122.85, "lon_max": -122.72},
    {"city": "Kelowna", "state": "British Columbia", "state_abbr": "BC", "postcode_prefix": "V1", "lat_min": 49.82, "lat_max": 49.95, "lon_min": -119.55, "lon_max": -119.38},
    {"city": "Victoria", "state": "British Columbia", "state_abbr": "BC", "postcode_prefix": "V8", "lat_min": 48.40, "lat_max": 48.48, "lon_min": -123.42, "lon_max": -123.32},
    {"city": "Nanaimo", "state": "British Columbia", "state_abbr": "BC", "postcode_prefix": "V9", "lat_min": 49.12, "lat_max": 49.22, "lon_min": -124.00, "lon_max": -123.88},
    {"city": "Kamloops", "state": "British Columbia", "state_abbr": "BC", "postcode_prefix": "V2", "lat_min": 50.65, "lat_max": 50.75, "lon_min": -120.40, "lon_max": -120.28},
    {"city": "Winnipeg", "state": "Manitoba", "state_abbr": "MB", "postcode_prefix": "R3", "lat_min": 49.75, "lat_max": 49.98, "lon_min": -97.35, "lon_max": -97.02},
    {"city": "Brandon", "state": "Manitoba", "state_abbr": "MB", "postcode_prefix": "R7", "lat_min": 49.82, "lat_max": 49.88, "lon_min": -100.00, "lon_max": -99.90},
    {"city": "Steinbach", "state": "Manitoba", "state_abbr": "MB", "postcode_prefix": "R5", "lat_min": 49.52, "lat_max": 49.55, "lon_min": -96.70, "lon_max": -96.65},
    {"city": "Saskatoon", "state": "Saskatchewan", "state_abbr": "SK", "postcode_prefix": "S7", "lat_min": 52.08, "lat_max": 52.22, "lon_min": -106.75, "lon_max": -106.55},
    {"city": "Regina", "state": "Saskatchewan", "state_abbr": "SK", "postcode_prefix": "S4", "lat_min": 50.38, "lat_max": 50.52, "lon_min": -104.70, "lon_max": -104.52},
    {"city": "Prince Albert", "state": "Saskatchewan", "state_abbr": "SK", "postcode_prefix": "S6", "lat_min": 53.18, "lat_max": 53.25, "lon_min": -105.78, "lon_max": -105.68},
    {"city": "Moose Jaw", "state": "Saskatchewan", "state_abbr": "SK", "postcode_prefix": "S6", "lat_min": 50.38, "lat_max": 50.42, "lon_min": -105.58, "lon_max": -105.50},
    {"city": "Halifax", "state": "Nova Scotia", "state_abbr": "NS", "postcode_prefix": "B3", "lat_min": 44.58, "lat_max": 44.72, "lon_min": -63.70, "lon_max": -63.50},
    {"city": "Dartmouth", "state": "Nova Scotia", "state_abbr": "NS", "postcode_prefix": "B2", "lat_min": 44.65, "lat_max": 44.72, "lon_min": -63.58, "lon_max": -63.50},
    {"city": "Sydney", "state": "Nova Scotia", "state_abbr": "NS", "postcode_prefix": "B1", "lat_min": 46.12, "lat_max": 46.18, "lon_min": -60.22, "lon_max": -60.12},
    {"city": "Saint John", "state": "New Brunswick", "state_abbr": "NB", "postcode_prefix": "E2", "lat_min": 45.25, "lat_max": 45.32, "lon_min": -66.12, "lon_max": -66.00},
    {"city": "Moncton", "state": "New Brunswick", "state_abbr": "NB", "postcode_prefix": "E1", "lat_min": 46.08, "lat_max": 46.15, "lon_min": -64.85, "lon_max": -64.75},
    {"city": "Fredericton", "state": "New Brunswick", "state_abbr": "NB", "postcode_prefix": "E3", "lat_min": 45.92, "lat_max": 46.00, "lon_min": -66.70, "lon_max": -66.60},
    {"city": "St. John's", "state": "Newfoundland and Labrador", "state_abbr": "NL", "postcode_prefix": "A1", "lat_min": 47.52, "lat_max": 47.62, "lon_min": -52.78, "lon_max": -52.65},
    {"city": "Mount Pearl", "state": "Newfoundland and Labrador", "state_abbr": "NL", "postcode_prefix": "A1", "lat_min": 47.50, "lat_max": 47.55, "lon_min": -52.82, "lon_max": -52.75},
    {"city": "Charlottetown", "state": "Prince Edward Island", "state_abbr": "PE", "postcode_prefix": "C1", "lat_min": 46.22, "lat_max": 46.28, "lon_min": -63.18, "lon_max": -63.10},
    {"city": "Whitehorse", "state": "Yukon", "state_abbr": "YT", "postcode_prefix": "Y1", "lat_min": 60.70, "lat_max": 60.78, "lon_min": -135.10, "lon_max": -134.95},
    {"city": "Yellowknife", "state": "Northwest Territories", "state_abbr": "NT", "postcode_prefix": "X1", "lat_min": 62.45, "lat_max": 62.50, "lon_min": -114.42, "lon_max": -114.32},
    {"city": "Iqaluit", "state": "Nunavut", "state_abbr": "NU", "postcode_prefix": "X0", "lat_min": 63.73, "lat_max": 63.78, "lon_min": -68.55, "lon_max": -68.48}
  ],
  "streets_by_city": {
    "Toronto": [
      "Yonge Street", "Bloor Street West", "Bloor Street East", "Queen Street West", "Queen Street East",
      "King Street West", "King Street East", "Dundas Street West", "Dundas Street East", "College Street",
      "Bathurst Street", "Spadina Avenue", "Bay Street", "University Avenue", "Front Street West",
      "Front Street East", "Jarvis Street", "Church Street", "Wellesley Street East", "Wellesley Street West",
      "Sherbourne Street", "Parliament Street", "Carlton Street", "Gerrard Street East", "Gerrard Street West",
      "Harbord Street", "Dupont Street", "Davenport Road", "St. Clair Avenue West", "St. Clair Avenue East",
      "Eglinton Avenue West", "Eglinton Avenue East", "Lawrence Avenue West", "Lawrence Avenue East",
      "Sheppard Avenue West", "Sheppard Avenue East", "Finch Avenue West", "Finch Avenue East",
      "Steeles Avenue West", "Steeles Avenue East", "Danforth Avenue", "Queen's Quay West", "Queen's Quay East",
      "Lakeshore Boulevard West", "Lakeshore Boulevard East", "The Queensway", "Roncesvalles Avenue",
      "Ossington Avenue", "Dufferin Street", "Lansdowne Avenue", "Dovercourt Road", "Christie Street",
      "Shaw Street", "Palmerston Boulevard", "Euclid Avenue", "Manning Avenue", "Clinton Street",
      "Grace Street", "Beatrice Street", "Montrose Avenue", "Crawford Street", "Bellwoods Avenue",
      "Strachan Avenue", "Niagara Street", "Tecumseth Street", "Portland Street", "Spadina Road",
      "Avenue Road", "Bedford Road", "Poplar Plains Road", "Warren Road", "Russell Hill Road",
      "Lyndhurst Avenue", "Nina Street", "Walmer Road", "Kendal Avenue", "Admiral Road",
      "Lowther Avenue", "Prince Arthur Avenue", "St. George Street", "Huron Street", "Robert Street",
      "Major Street", "Brunswick Avenue", "Borden Street", "Lippincott Street", "Markham Street",
      "Madison Avenue", "Howland Avenue", "Albany Avenue", "Wells Street", "Oakwood Avenue",
      "Vaughan Road", "Rogers Road", "Caledonia Road", "Silverthorn Avenue", "Jane Street",
      "Keele Street", "Weston Road", "Islington Avenue", "Kipling Avenue", "Martin Grove Road",
      "Rexdale Boulevard", "Albion Road", "McCowan Road", "Kennedy Road", "Midland Avenue",
      "Brimley Road", "Warden Avenue", "Victoria Park Avenue", "Pharmacy Avenue", "Birchmount Road",
      "Don Mills Road", "Leslie Street", "Bayview Avenue", "Mount Pleasant Road", "Willowdale Avenue",
      "Empress Avenue", "Doris Avenue", "Park Home Avenue", "Poyntz Avenue", "Churchill Avenue",
      "Hollywood Avenue", "Bishop Avenue", "Patricia Avenue", "Elmhurst Avenue", "Drewry Avenue",
      "Cummer Avenue", "Clark Avenue", "Elgin Mills Road", "Major Mackenzie Drive", "Rutherford Road",
      "Highway 7", "Langstaff Road", "Centre Street", "Thornhill Woods Drive", "New Westminster Drive",
      "Royal Orchard Boulevard", "Woodbine Avenue", "Morningside Avenue", "Meadowvale Road",
      "Neilson Road", "Sewells Road", "Conlins Road", "Port Union Road", "Manse Road",
      "Beechgrove Drive", "Kingston Road", "Main Street", "Jones Avenue", "Pape Avenue",
      "Donlands Avenue", "Greenwood Avenue", "Coxwell Avenue", "Ashdale Avenue", "Rhodes Avenue",
      "Monarch Park Avenue", "Glebeholme Boulevard", "Cosburn Avenue", "Mortimer Avenue",
      "Plains Road", "Cedarvale Avenue", "Sammon Avenue", "Durant Avenue", "Gamble Avenue",
      "Memorial Park Avenue", "Westlake Avenue", "Eastdale Avenue", "Strathmore Boulevard",
      "Fulton Avenue", "Westwood Avenue", "Glebemount Avenue", "Holborne Avenue", "Torrens Avenue",
      "Lumsden Avenue", "Parkmount Road", "Golfview Avenue", "Chisholm Avenue", "Queensdale Avenue",
      "Riverdale Avenue", "Broadview Avenue", "Logan Avenue", "Carlaw Avenue", "Booth Avenue",
      "Degrassi Street", "Saulter Street", "Boulton Avenue", "Morse Street"
    ],
    "Montreal": [
      "Rue Sainte-Catherine Ouest", "Rue Sainte-Catherine Est", "Boulevard Saint-Laurent", "Rue Sherbrooke Ouest",
      "Rue Sherbrooke Est", "Avenue du Parc", "Rue Jean-Talon Ouest", "Rue Jean-Talon Est", "Boulevard Rosemont",
      "Rue Rachel Est", "Rue Rachel Ouest", "Avenue Laurier Ouest", "Avenue Laurier Est", "Rue Mont-Royal Est",
      "Rue Mont-Royal Ouest", "Boulevard de Maisonneuve Ouest", "Boulevard de Maisonneuve Est", "Rue Berri",
      "Rue Saint-Denis", "Rue Saint-Hubert", "Rue Papineau", "Avenue De Lorimier", "Rue Frontenac",
      "Rue Ontario Est", "Rue Ontario Ouest", "Rue Notre-Dame Ouest", "Rue Notre-Dame Est", "Rue Wellington",
      "Rue Centre", "Rue Charlevoix", "Avenue Atwater", "Rue Guy", "Rue Lambert-Closse",
      "Rue Mackay", "Rue Bishop", "Rue Crescent", "Rue de la Montagne", "Rue Drummond", "Rue Stanley",
      "Rue Peel", "Rue Metcalfe", "Rue McGill College", "Rue University", "Rue Victoria", "Avenue du Musée",
      "Avenue des Pins Ouest", "Avenue des Pins Est", "Chemin de la Côte-des-Neiges", "Chemin Queen-Mary",
      "Avenue Victoria", "Avenue Monkland", "Boulevard Décarie", "Chemin de la Côte-Saint-Luc",
      "Avenue Somerled", "Avenue Fielding", "Avenue Coronation", "Avenue Madison", "Avenue de Hampton",
      "Avenue Girouard", "Avenue Grey", "Avenue Old Orchard", "Avenue Grosvenor", "Avenue Prince-of-Wales",
      "Avenue de Vendôme", "Avenue Westbury", "Avenue Claremont", "Avenue Northcliffe",
      "Avenue Harvard", "Avenue Earnscliffe", "Avenue Addington", "Avenue Terrebonne", "Avenue de l'Esplanade",
      "Avenue de Gaspé", "Rue Saint-Urbain", "Rue Clark", "Rue Saint-Dominique", "Avenue Coloniale",
      "Avenue de l'Hôtel-de-Ville", "Rue Laval", "Avenue Henri-Julien", "Rue Drolet", "Rue Saint-André",
      "Rue Christophe-Colomb", "Avenue De La Roche", "Rue Garnier", "Rue Fabre", "Rue Marquette",
      "Rue Bordeaux", "Rue Chambord", "Rue De Lanaudière", "Rue Boyer", "Rue Saint-Zotique Est",
      "Rue Beaubien Est", "Rue Beaubien Ouest", "Rue Bélanger", "Rue Saint-Zotique Ouest",
      "Rue Villeray", "Rue Jarry Est", "Rue Jarry Ouest", "Rue Crémazie Est", "Rue Crémazie Ouest",
      "Rue Sauvé Est", "Rue Sauvé Ouest", "Boulevard Henri-Bourassa Est", "Boulevard Henri-Bourassa Ouest",
      "Rue Fleury Est", "Rue Fleury Ouest", "Rue Prieur Est", "Rue Prieur Ouest", "Boulevard Gouin Est",
      "Boulevard Gouin Ouest", "Rue Lajeunesse", "Rue de Castelnau", "Rue Bellechasse",
      "Rue Saint-Vallier", "Boulevard Pie-IX", "Rue Viau", "Avenue Pierre-De Coubertin", "Rue Hochelaga",
      "Rue de Rouen", "Rue Adam", "Rue La Fontaine", "Rue Fullum", "Rue Parthenais",
      "Rue de la Visitation", "Rue Panet", "Rue Plessis", "Rue Alexandre-DeSève", "Rue Wolfe",
      "Rue Montcalm", "Rue Amherst", "Rue Saint-Timothée", "Rue de Bullion", "Rue Jeanne-Mance",
      "Rue Hutchison", "Avenue Durocher", "Avenue de l'Épée", "Avenue Querbes", "Avenue Outremont",
      "Avenue Bloomfield", "Avenue Bernard", "Avenue Van Horne", "Avenue Saint-Viateur",
      "Avenue Fairmount", "Rue Villeneuve", "Rue Saint-Joseph", "Rue Masson", "Rue Dandurand",
      "Rue des Carrières", "Rue de Marseille", "Rue de Bienville", "Rue Joliette",
      "Boulevard de l'Assomption", "Boulevard Langelier"
    ],
    "Vancouver": [
      "Granville Street", "Robson Street", "Davie Street", "Denman Street", "Georgia Street West",
      "Georgia Street East", "Hastings Street West", "Hastings Street East", "Pender Street West",
      "Pender Street East", "Cordova Street West", "Cordova Street East", "Water Street", "Powell Street",
      "Main Street", "Commercial Drive", "Broadway West", "Broadway East", "Kingsway", "Knight Street",
      "Fraser Street", "Victoria Drive", "Nanaimo Street", "Renfrew Street", "Rupert Street",
      "Boundary Road", "Cambie Street", "Oak Street", "Arbutus Street", "Macdonald Street",
      "Alma Street", "Dunbar Street", "Blanca Street", "Tolmie Street", "Crown Street",
      "Wallace Street", "4th Avenue West", "4th Avenue East", "6th Avenue West", "10th Avenue West",
      "10th Avenue East", "12th Avenue West", "12th Avenue East", "16th Avenue West", "16th Avenue East",
      "King Edward Avenue West", "King Edward Avenue East", "25th Avenue West", "25th Avenue East",
      "29th Avenue West", "29th Avenue East", "33rd Avenue West", "33rd Avenue East", "37th Avenue West",
      "37th Avenue East", "41st Avenue West", "41st Avenue East", "45th Avenue West", "45th Avenue East",
      "49th Avenue West", "49th Avenue East", "54th Avenue West", "54th Avenue East", "57th Avenue West",
      "57th Avenue East", "Marine Drive SW", "Marine Drive SE", "Marine Way", "Burrard Street",
      "Thurlow Street", "Bute Street", "Jervis Street", "Broughton Street", "Nicola Street",
      "Cardero Street", "Bidwell Street", "Chilco Street", "Gilford Street", "Comox Street",
      "Nelson Street", "Helmcken Street", "Drake Street", "Pacific Boulevard", "Beach Avenue",
      "Stanley Park Drive", "Coal Harbour Quay", "Waterfront Road", "Terminal Avenue",
      "1st Avenue East", "2nd Avenue West", "2nd Avenue East", "3rd Avenue West", "3rd Avenue East",
      "5th Avenue West", "5th Avenue East", "7th Avenue West", "7th Avenue East", "8th Avenue West",
      "8th Avenue East", "9th Avenue West", "9th Avenue East", "11th Avenue West", "11th Avenue East",
      "13th Avenue West", "13th Avenue East", "14th Avenue West", "14th Avenue East", "15th Avenue West",
      "15th Avenue East", "17th Avenue West", "17th Avenue East", "18th Avenue West", "18th Avenue East",
      "19th Avenue West", "19th Avenue East", "20th Avenue West", "20th Avenue East", "21st Avenue West",
      "21st Avenue East", "22nd Avenue West", "22nd Avenue East", "23rd Avenue West", "23rd Avenue East",
      "24th Avenue West", "24th Avenue East", "26th Avenue West", "26th Avenue East", "27th Avenue West",
      "27th Avenue East", "28th Avenue West", "28th Avenue East", "30th Avenue West", "30th Avenue East",
      "31st Avenue West", "31st Avenue East", "32nd Avenue West", "32nd Avenue East", "34th Avenue West",
      "34th Avenue East", "35th Avenue West", "35th Avenue East", "36th Avenue West", "36th Avenue East",
      "38th Avenue West", "38th Avenue East", "39th Avenue West", "39th Avenue East", "40th Avenue West",
      "40th Avenue East", "42nd Avenue West", "42nd Avenue East", "43rd Avenue West", "43rd Avenue East",
      "44th Avenue West", "44th Avenue East", "46th Avenue West", "46th Avenue East", "47th Avenue West",
      "47th Avenue East", "48th Avenue West", "48th Avenue East", "50th Avenue West", "50th Avenue East",
      "McGill Street", "Venables Street"
    ],
    "Calgary": [
      "17th Avenue SW", "17th Avenue SE", "Stephen Avenue Walk", "1st Street SW", "1st Street SE",
      "Centre Street South", "Centre Street North", "4th Street SW", "4th Street NW", "8th Street SW",
      "9th Avenue SE", "9th Avenue SW", "10th Avenue SW", "11th Avenue SW", "12th Avenue SW",
      "14th Street SW", "14th Street NW", "16th Avenue NW", "16th Avenue NE", "Memorial Drive NW",
      "Memorial Drive NE", "Bow Trail SW", "Crowchild Trail NW", "Crowchild Trail SW", "Deerfoot Trail NE",
      "Deerfoot Trail SE", "Macleod Trail South", "Macleod Trail SE", "Barlow Trail NE", "Barlow Trail SE",
      "McKnight Boulevard NE", "McKnight Boulevard NW", "32nd Avenue NE", "32nd Avenue NW", "64th Avenue NE",
      "64th Avenue NW", "Country Hills Boulevard NE", "Country Hills Boulevard NW", "Stoney Trail NE",
      "Stoney Trail NW", "Stoney Trail SE", "Stoney Trail SW", "Anderson Road SW", "Anderson Road SE",
      "Southland Drive SW", "Southland Drive SE", "Heritage Drive SW", "Heritage Drive SE", "Glenmore Trail SW",
      "Glenmore Trail SE", "Elbow Drive SW", "Elbow Drive SE", "Sarcee Trail SW", "Sarcee Trail NW",
      "Shaganappi Trail NW", "Shaganappi Trail SW", "Edmonton Trail NE", "Edmonton Trail NW", "Centre Street NE",
      "Centre Street NW", "19th Street NW", "19th Street NE", "36th Street NE", "36th Street NW",
      "52nd Street NE", "52nd Street SE", "68th Street NE", "68th Street SE", "Bowness Road NW",
      "Kensington Road NW", "10th Street NW", "4th Avenue NW", "1st Avenue NE", "6th Avenue SE",
      "7th Avenue SW", "8th Avenue SW", "5th Avenue SW", "6th Avenue SW", "3rd Avenue SW",
      "2nd Avenue SW", "Riverfront Avenue SE", "1st Avenue SE", "Olympic Way SE", "12th Avenue SE",
      "Blackfoot Trail SE", "11th Street SE", "Inglewood Drive SE", "26th Avenue SE", "34th Avenue SE",
      "42nd Avenue SE", "50th Avenue SE", "58th Avenue SE", "66th Avenue SE", "Ogden Road SE",
      "Lynnwood Drive SE", "Millrise Boulevard SW", "Canyon Meadows Drive SW", "Fish Creek Boulevard SW",
      "Bow Bottom Trail SE", "Shawnessy Boulevard SW", "162nd Avenue SW", "Spruce Meadows Trail SW",
      "Marquis of Lorne Trail SW", "James McKevitt Road SW", "Sheriff King Street SW",
      "194th Avenue SW", "210th Avenue SE", "Cranston Boulevard SE", "Seton Boulevard SE",
      "Mahogany Boulevard SE", "Auburn Bay Boulevard SE", "New Brighton Boulevard SE",
      "Copperfield Boulevard SE", "McKenzie Towne Boulevard SE", "McKenzie Towne Drive SE", "130th Avenue SE",
      "Douglasdale Boulevard SE", "Quarry Park Boulevard SE", "Quarry Park Way SE",
      "84th Street NE", "Falconridge Boulevard NE", "Castleridge Boulevard NE",
      "Martindale Boulevard NE", "Taradale Drive NE", "Saddletowne Circle NE", "80th Avenue NE",
      "Falconridge Drive NE", "Whitehorn Drive NE", "Rundle Drive NE",
      "Pineridge Drive NE", "Marlborough Drive NE", "Marlborough Way NE", "96th Avenue NE",
      "Coventry Hills Way NE", "Country Hills Way NE", "Harvest Hills Boulevard NE",
      "Beddington Trail NE", "Nose Hill Drive NW", "John Laurie Boulevard NW",
      "Northland Drive NW", "40th Avenue NW", "Trans-Canada Highway NW", "University Drive NW",
      "24th Avenue NW", "University Gate NW", "Campus Drive NW", "Collegiate Drive NW", "Research Road NW",
      "Charleswood Drive NW", "Varsity Drive NW", "53rd Street NW", "Northmount Drive NW", "Brisebois Drive NW"
    ],
    "Ottawa": [
      "Rideau Street", "Bank Street", "Somerset Street West", "Somerset Street East", "Elgin Street",
      "Sparks Street", "Wellington Street", "Laurier Avenue West", "Laurier Avenue East", "Slater Street",
      "Albert Street", "Queen Street", "Lisgar Street", "Cooper Street", "Gloucester Street",
      "Nepean Street", "Lewis Street", "Waverley Street", "Frank Street", "Gilmour Street",
      "MacLaren Street", "Cartier Street", "Metcalfe Street", "O'Connor Street", "Lyon Street",
      "Bay Street", "Percy Street", "Bronson Avenue", "Cambridge Street", "Kent Street",
      "Preston Street", "Booth Street", "Rochester Street", "LeBreton Street", "Primrose Street",
      "Beech Street", "Elm Street", "Spruce Street", "Maple Street", "Poplar Street",
      "Gladstone Avenue", "Flora Street", "Arlington Avenue", "McLeod Street", "Catherine Street",
      "Isabella Street", "Jane Street", "Powell Avenue", "Chamberlain Avenue", "Fifth Avenue",
      "Third Avenue", "First Avenue", "Sunnyside Avenue", "Aylmer Avenue", "Holmwood Avenue",
      "Brighton Avenue", "Belmont Avenue", "Leonard Avenue", "Grove Avenue", "Strathcona Avenue",
      "Clemow Avenue", "Patterson Avenue", "Ossington Avenue", "Rosebery Avenue", "Monkland Avenue",
      "Colonel By Drive", "Sussex Drive", "King Edward Avenue", "Charlotte Street", "Dalhousie Street",
      "Cumberland Street", "Waller Street", "Stewart Street", "Wilbrod Street",
      "Nicholas Street", "George Street", "York Street", "Murray Street",
      "St. Patrick Street", "Clarence Street", "Guigues Avenue", "Cathcart Street", "Water Street",
      "Bolton Street", "Friel Street", "Chapel Street", "Cobourg Street", "Augusta Street",
      "Anglesea Square", "St. Andrew Street", "Heney Street", "Beausoleil Drive", "Mann Avenue",
      "Range Road", "Henderson Avenue", "Temple Drive", "Springfield Road", "Beechwood Avenue"
    ],
    "Edmonton": [
      "Jasper Avenue NW", "Whyte Avenue", "109th Street NW", "104th Street NW", "97th Street NW",
      "118th Avenue NW", "137th Avenue NW", "153rd Avenue NW", "167th Avenue NW", "184th Avenue NW",
      "87th Avenue NW", "82nd Avenue NW", "63rd Avenue NW", "51st Avenue NW", "34th Avenue NW",
      "23rd Avenue NW", "Ellerslie Road SW", "Parsons Road SW", "91st Street NW", "75th Street NW",
      "50th Street NW", "34th Street NW", "17th Street NW", "170th Street NW", "178th Street NW",
      "156th Street NW", "142nd Street NW", "127th Street NW", "111th Street NW", "124th Street NW",
      "149th Street NW", "100th Avenue NW", "107th Avenue NW", "111th Avenue NW",
      "127th Avenue NW", "144th Avenue NW", "162nd Avenue NW",
      "Stony Plain Road NW", "Kingsway Avenue NW", "Fort Road NW", "Wayne Gretzky Drive NW",
      "Yellowhead Trail NW", "Yellowhead Trail NE", "Anthony Henday Drive NW", "Anthony Henday Drive NE",
      "Anthony Henday Drive SW", "Anthony Henday Drive SE", "Whitemud Drive NW", "Whitemud Drive NE",
      "Gateway Boulevard NW", "Calgary Trail NW", "Calgary Trail SW", "99th Street NW", "101st Street NW",
      "102nd Avenue NW", "103rd Street NW", "105th Street NW", "106th Street NW", "108th Street NW",
      "109A Avenue NW", "112th Avenue NW", "114th Street NW", "115th Street NW", "116th Street NW",
      "117th Street NW", "118th Street NW", "119th Street NW", "120th Street NW", "121st Street NW",
      "122nd Street NW", "123rd Street NW", "125th Street NW", "126th Street NW",
      "128th Street NW", "129th Street NW", "130th Avenue NW", "131st Avenue NW", "132nd Avenue NW",
      "133rd Avenue NW", "134th Avenue NW", "135th Avenue NW", "136th Avenue NW", "Griesbach Road NW",
      "Ada Boulevard NW", "Victoria Trail NW", "84th Street NW", "66th Street NW", "Manning Drive NE",
      "50th Street NE", "34th Street NE", "Rabbit Hill Road NW", "Terwillegar Drive NW"
    ],
    "Winnipeg": [
      "Portage Avenue", "Main Street", "Broadway", "Pembina Highway", "Henderson Highway",
      "Regent Avenue West", "Regent Avenue East", "Nairn Avenue", "McPhillips Street", "Salter Street",
      "Arlington Street", "Isabel Street", "Sherbrook Street", "Maryland Street", "Wolseley Avenue",
      "Westminster Avenue", "Ellice Avenue", "Sargent Avenue", "Notre Dame Avenue", "Logan Avenue",
      "Higgins Avenue", "Alexander Avenue", "Henry Avenue", "Pacific Avenue", "Ross Avenue",
      "William Avenue", "Bannatyne Avenue", "McDermot Avenue", "Lombard Avenue", "Portage Avenue East",
      "Pioneer Avenue", "Corydon Avenue", "Grant Avenue", "Academy Road", "Wellington Crescent",
      "River Avenue", "Osborne Street", "Donald Street", "Hargrave Street", "Carlton Street",
      "Edmonton Street", "Kennedy Street", "Vaughan Street", "Colony Street", "Balmoral Street",
      "Spence Street", "Young Street", "Langside Street", "Furby Street",
      "Dominion Street", "Home Street", "Victor Street", "Toronto Street",
      "Beverley Street", "Simcoe Street", "Burnell Street", "Sprague Street", "Ingersoll Street",
      "Canora Street", "Clifton Street", "Lipton Street", "Ruby Street", "Grosvenor Avenue",
      "Dorchester Avenue", "Fleet Avenue", "Rathgar Avenue", "Garwood Avenue", "Mulvey Avenue",
      "McMillan Avenue", "Jessie Avenue", "Warsaw Avenue", "Dudley Avenue",
      "Jubilee Avenue", "Kylemore Avenue", "Weatherdon Avenue", "Campbell Street", "Brandon Avenue",
      "Lorette Avenue", "Hugo Street", "Waverley Street", "Montrose Street",
      "Lindsay Street", "Wentworth Street", "Cambridge Street", "Oxford Street", "Rockwood Street",
      "Park Boulevard", "Lanark Street", "Nassau Street", "Harrow Street", "Guelph Street",
      "Stafford Street", "Wilton Street", "Scotland Avenue", "Carter Avenue", "Beresford Avenue",
      "Rosedale Avenue", "Ash Street", "Elm Street", "Oak Street", "Birch Street"
    ],
    "Quebec City": [
      "Rue Saint-Jean", "Rue Saint-Louis", "Boulevard René-Lévesque Ouest", "Boulevard René-Lévesque Est",
      "Avenue Cartier", "Rue Grande Allée Ouest", "Rue Grande Allée Est", "Boulevard Champlain",
      "Avenue Honoré-Mercier", "Rue Saint-Paul", "Rue du Petit-Champlain", "Rue du Trésor",
      "Rue de Buade", "Côte de la Fabrique", "Rue Sainte-Anne", "Rue des Jardins", "Rue Donnacona",
      "Rue d'Auteuil", "Rue Saint-Ursule", "Rue Sainte-Ursule", "Rue Couillard", "Rue Hébert",
      "Rue Laval", "Rue Cook", "Rue Ferland", "Rue Christie", "Rue Collins", "Rue Scott",
      "Rue Aberdeen", "Rue Fraser", "Rue De Salaberry", "Rue Turnbull", "Avenue Murray",
      "Avenue George-VI", "Avenue Brown", "Avenue Maguire", "Chemin Saint-Louis", "Avenue des Érables",
      "Avenue des Braves", "Avenue Wilfrid-Laurier", "Avenue Belvédère", "Avenue des Gouverneurs",
      "Avenue Sainte-Geneviève", "Rue Crémazie Ouest", "Rue Crémazie Est", "Avenue de Vimy",
      "Avenue Joffre", "Avenue Bourlamaque", "Avenue De Léry", "Boulevard Langelier", "Boulevard Charest Ouest",
      "Boulevard Charest Est", "Rue Saint-Joseph Ouest", "Rue Saint-Joseph Est", "Rue Saint-Vallier Ouest",
      "Rue Saint-Vallier Est", "Rue de la Couronne", "Rue Dorchester", "Rue du Pont", "Rue Caron",
      "Boulevard des Capucins", "Rue Marie-de-l'Incarnation", "Avenue du Colisée", "Boulevard Wilfrid-Hamel",
      "Rue Soumande", "Avenue Chauveau", "Avenue du Zoo", "Boulevard Bastien", "Boulevard Lebourgneuf",
      "Boulevard Pierre-Bertrand", "Rue Bouvier", "Avenue Le Gendre",
      "Boulevard de l'Ormière", "Boulevard Louis-XIV", "Boulevard des Gradins", "Avenue de la Rotonde",
      "Rue des Cèdres", "Rue des Pins", "Rue des Bouleaux", "Rue des Chênes",
      "Boulevard Père-Lelièvre", "Avenue Royale", "Chemin Royal", "Côte de Beaupré", "Boulevard Sainte-Anne"
    ],
    "Hamilton": [
      "King Street West", "King Street East", "Main Street West", "Main Street East", "James Street North",
      "James Street South", "John Street North", "John Street South", "York Boulevard", "Barton Street East",
      "Barton Street West", "Cannon Street East", "Cannon Street West", "Wilson Street", "Hunter Street",
      "Jackson Street", "Bold Street", "Duke Street", "Robinson Street", "Charlton Avenue",
      "Aberdeen Avenue", "Locke Street South", "Locke Street North", "Dundurn Street South", "Dundurn Street North",
      "Queen Street South", "Queen Street North", "Bay Street South", "Bay Street North", "Wellington Street",
      "Victoria Avenue North", "Victoria Avenue South", "Wentworth Street North", "Wentworth Street South",
      "Sherman Avenue North", "Sherman Avenue South", "Gage Avenue North", "Gage Avenue South",
      "Ottawa Street North", "Ottawa Street South", "Kenilworth Avenue North", "Kenilworth Avenue South",
      "Parkdale Avenue North", "Parkdale Avenue South", "Hess Street South", "Hess Street North",
      "Pearl Street North", "Pearl Street South", "Ray Street North", "Ray Street South",
      "Park Street North", "Park Street South", "Caroline Street North", "Caroline Street South",
      "McNab Street North", "McNab Street South", "Hughson Street North", "Hughson Street South",
      "Ferguson Avenue North", "Ferguson Avenue South", "Catharine Street North", "Catharine Street South",
      "Mary Street", "Walnut Street", "Emerald Street North", "Emerald Street South",
      "East Avenue North", "East Avenue South", "West Avenue North", "West Avenue South",
      "Stinson Street", "Young Street", "Forest Avenue", "Homewood Avenue", "Stanley Avenue",
      "Cline Avenue", "Paradise Road", "Longwood Road"
    ],
    "Mississauga": [
      "Dundas Street West", "Dundas Street East", "Hurontario Street", "Mississauga Road",
      "Lakeshore Road West", "Lakeshore Road East", "Queensway West", "Queensway East",
      "Burnhamthorpe Road West", "Burnhamthorpe Road East", "Eglinton Avenue West", "Eglinton Avenue East",
      "Britannia Road West", "Britannia Road East", "Matheson Boulevard West", "Matheson Boulevard East",
      "Derry Road West", "Derry Road East", "Steeles Avenue West", "Steeles Avenue East",
      "Mavis Road", "Creditview Road", "Erin Mills Parkway", "Winston Churchill Boulevard",
      "Cawthra Road", "Dixie Road", "Tomken Road", "Central Parkway West", "Central Parkway East",
      "Square One Drive", "City Centre Drive", "Duke of York Boulevard", "Confederation Parkway",
      "Robert Speck Parkway", "Shipp Drive", "Webb Drive", "Kariya Drive",
      "Mississauga Valley Boulevard", "Bloor Street",
      "The Collegeway", "North Sheridan Way", "South Sheridan Way", "Sheridan Park Drive",
      "Clarkson Road North", "Clarkson Road South", "Lorne Park Road",
      "Indian Road", "Bexhill Road", "Orr Road", "Truscott Drive", "Bromsgrove Road",
      "Fairview Road West", "Fairview Road East", "Paisley Boulevard West", "Paisley Boulevard East",
      "Camilla Road", "Kirwin Avenue",
      "Glen Erin Drive", "Bristol Road West", "Bristol Road East",
      "Courtneypark Drive West", "Courtneypark Drive East", "Airport Road", "Drew Road",
      "American Drive", "Millcreek Drive", "Argentia Road", "Meadowpine Boulevard",
      "Terry Fox Way", "Financial Drive", "Creekbank Road", "Gateway Boulevard",
      "Spectrum Way", "Explorer Drive", "Orbitor Drive", "Century Avenue",
      "Rathburn Road West", "Rathburn Road East", "Skymark Avenue", "Enfield Place"
    ],
    "Surrey": [
      "King George Boulevard", "104th Avenue", "Fraser Highway", "64th Avenue", "72nd Avenue",
      "88th Avenue", "96th Avenue", "152nd Street", "160th Street", "168th Street", "176th Street",
      "140th Street", "128th Street", "120th Street", "108th Avenue", "100th Avenue",
      "80th Avenue", "56th Avenue", "48th Avenue", "40th Avenue", "32nd Avenue", "24th Avenue",
      "16th Avenue", "8th Avenue", "0 Avenue", "Guildford Drive", "University Drive",
      "City Parkway", "Old Yale Road", "Scott Road", "84th Avenue", "132nd Street",
      "124th Street", "116th Street", "Nordel Way", "River Road", "Annacis Highway",
      "Highway 10", "Highway 15", "Highway 17", "Cloverdale Bypass",
      "188th Street", "192nd Street", "196th Street", "200th Street", "184th Street",
      "164th Street", "156th Street", "148th Street", "144th Street", "136th Street",
      "Panorama Drive", "Sullivan Heights Drive", "Bear Creek Drive", "Green Timbers Way",
      "Greenway", "Fleetwood Way", "Johnston Road", "Crescent Road", "Martin Drive"
    ],
    "Brampton": [
      "Queen Street West", "Queen Street East", "Main Street North", "Main Street South",
      "Bovaird Drive West", "Bovaird Drive East", "Steeles Avenue West", "Steeles Avenue East",
      "Williams Parkway", "Sandalwood Parkway West", "Sandalwood Parkway East", "Mayfield Road",
      "Countryside Drive", "Castlemore Road", "Father Tobin Drive", "Chinguacousy Road",
      "McLaughlin Road", "Kennedy Road North", "Kennedy Road South", "Airport Road",
      "Torbram Road", "Bramalea Road", "Dixie Road", "Highway 410", "Heart Lake Road",
      "Creditview Road", "Mississauga Road", "Heritage Road", "Hurontario Street",
      "Central Park Drive", "Howden Boulevard", "Avondale Boulevard", "Vodden Street",
      "Clarence Street", "George Street", "Church Street", "Nelson Street",
      "Elizabeth Street", "Wellington Street", "Frederick Street", "Chapel Street",
      "McMurchy Avenue North", "McMurchy Avenue South", "Centre Street North", "Centre Street South",
      "Mill Street North", "Mill Street South", "David Street", "John Street",
      "Scott Street", "Mary Street", "Ellen Street", "Victoria Street", "Ann Street",
      "Grove Street", "Park Street", "School Street", "Alexander Street", "Lynch Street"
    ],
    "Halifax": [
      "Barrington Street", "Spring Garden Road", "Quinpool Road", "Robie Street", "Gottingen Street",
      "Brunswick Street", "Argyle Street", "Granville Street", "Hollis Street", "Lower Water Street",
      "Upper Water Street", "Sackville Street", "Blowers Street", "Duke Street", "Prince Street",
      "George Street", "Market Street", "Carmichael Street", "Morris Street", "South Street",
      "South Park Street", "Tower Road", "Victoria Road", "Inglis Street", "Coburg Road",
      "Oxford Street", "Jubilee Road", "Vernon Street", "University Avenue", "Carlton Street",
      "LeMarchant Street", "Shirley Street", "Windsor Street", "Agricola Street", "North Street",
      "Almon Street", "Young Street", "Kempt Road", "Joseph Howe Drive", "Bayers Road",
      "Chebucto Road", "Mumford Road", "Dutch Village Road", "Connaught Avenue", "Quingate Place",
      "Lacewood Drive", "Dunbrack Street", "Main Avenue", "Clayton Park Drive", "Parkland Drive"
    ],
    "London": [
      "Dundas Street", "Richmond Street", "Oxford Street West", "Oxford Street East", "Wharncliffe Road North",
      "Wharncliffe Road South", "Wellington Road", "Adelaide Street North", "Adelaide Street South",
      "Highbury Avenue North", "Highbury Avenue South", "Commissioners Road West", "Commissioners Road East",
      "Southdale Road West", "Southdale Road East", "Fanshawe Park Road West", "Fanshawe Park Road East",
      "Huron Street", "Western Road", "Talbot Street", "York Street", "King Street",
      "Queens Avenue", "Dufferin Avenue", "Central Avenue", "Grey Street", "Maitland Street",
      "Waterloo Street", "Colborne Street", "Piccadilly Street", "Albert Street", "Pall Mall Street",
      "Horton Street West", "Horton Street East", "Hamilton Road", "Trafalgar Street", "Clarke Road",
      "Wonderland Road North", "Wonderland Road South", "Hyde Park Road", "Colonel Talbot Road",
      "Exeter Road", "Wellington Road South", "Pond Mills Road", "Thompson Road", "Bradley Avenue",
      "Baseline Road West", "Baseline Road East", "Springbank Drive", "Riverside Drive", "Proudfoot Lane"
    ],
    "Markham": [
      "Highway 7", "Steeles Avenue East", "16th Avenue", "Major Mackenzie Drive East", "Elgin Mills Road East",
      "Warden Avenue", "Kennedy Road", "McCowan Road", "Markham Road", "Woodbine Avenue",
      "Yonge Street", "Bayview Avenue", "Leslie Street", "Main Street Markham", "Main Street Unionville",
      "Carlton Road", "Bur Oak Avenue", "Enterprise Boulevard", "Commerce Valley Drive East",
      "Commerce Valley Drive West", "Copper Creek Drive", "Rivis Road", "Esna Park Drive",
      "Denison Street", "7th Avenue", "John Street", "Church Street", "Robinson Street",
      "Water Street", "Bullock Drive", "Fred Varley Drive", "Town Centre Boulevard",
      "Clegg Road", "Ninth Line", "Tenth Line", "York Regional Road 68", "Castlemore Avenue"
    ],
    "Vaughan": [
      "Highway 7", "Rutherford Road", "Major Mackenzie Drive West", "Langstaff Road", "Steeles Avenue West",
      "Jane Street", "Keele Street", "Weston Road", "Islington Avenue", "Martin Grove Road",
      "Kipling Avenue", "Highway 27", "Highway 400", "Highway 407", "Yonge Street",
      "Bathurst Street", "Dufferin Street", "Centre Street", "New Westminster Drive",
      "Clark Avenue West", "Thornhill Woods Drive", "Promenade Circle", "Disera Drive",
      "Millway Avenue", "Bass Pro Mills Drive", "Interchange Way", "Colossus Drive",
      "Edgeley Boulevard", "Applewood Crescent", "Creditstone Road", "Portage Parkway",
      "Vellore Woods Boulevard", "Pine Valley Drive", "Teston Road",
      "Kirby Road", "Nashville Road", "King-Vaughan Road", "Kleinburg-Nashville Road"
    ],
    "Kitchener": [
      "King Street West", "King Street East", "Queen Street North", "Queen Street South",
      "Victoria Street North", "Victoria Street South", "Weber Street West", "Weber Street East",
      "Frederick Street", "Duke Street West", "Duke Street East", "Scott Street",
      "Water Street North", "Water Street South", "Cedar Street North", "Cedar Street South",
      "Benton Street", "Charles Street West", "Charles Street East", "Joseph Street",
      "Madison Avenue North", "Madison Avenue South", "Pandora Avenue North", "Pandora Avenue South",
      "Union Street West", "Union Street East", "Courtland Avenue West", "Courtland Avenue East",
      "Highland Road West", "Highland Road East", "Fischer-Hallman Road", "Westmount Road West",
      "Westmount Road East", "Fairway Road North", "Fairway Road South", "Ottawa Street North",
      "Ottawa Street South", "River Road West", "River Road East", "Manitou Drive",
      "Homer Watson Boulevard", "Conestoga Parkway", "Wabanaki Drive", "Strasburg Road"
    ],
    "Windsor": [
      "Ouellette Avenue", "Wyandotte Street West", "Wyandotte Street East", "Tecumseh Road West",
      "Tecumseh Road East", "Riverside Drive West", "Riverside Drive East", "University Avenue West",
      "University Avenue East", "Erie Street West", "Erie Street East", "Giles Boulevard West",
      "Giles Boulevard East", "Ottawa Street", "Howard Avenue", "Walker Road",
      "Dougall Avenue", "Huron Church Road", "Sandwich Street West", "Sandwich Street East",
      "Pitt Street West", "Pitt Street East", "Chatham Street West", "Chatham Street East",
      "London Street West", "London Street East", "Park Street West", "Park Street East",
      "Pelissier Street", "Victoria Avenue", "Goyeau Street", "McDougall Street",
      "Mercer Street", "Langlois Avenue", "Pierre Avenue", "Hall Avenue",
      "Gladstone Avenue", "Lincoln Road", "Pillette Road", "Lauzon Road",
      "Jefferson Boulevard", "Seminole Street", "Central Avenue", "Little River Road"
    ],
    "Saskatoon": [
      "8th Street East", "22nd Street West", "Idylwyld Drive North", "Idylwyld Drive South",
      "Circle Drive North", "Circle Drive West", "Circle Drive East", "Circle Drive South",
      "College Drive", "Preston Avenue North", "Preston Avenue South", "Broadway Avenue",
      "Victoria Avenue", "Albert Avenue", "Clarence Avenue North", "Clarence Avenue South",
      "Louise Avenue", "Ruth Street East", "Ruth Street West", "Taylor Street East",
      "Taylor Street West", "Main Street", "29th Street West", "33rd Street West",
      "33rd Street East", "Confederation Drive", "Attridge Drive", "Central Avenue",
      "McKercher Drive", "Acadia Drive", "Primrose Drive", "Kenderdine Road",
      "Berini Drive", "Millar Avenue", "Marquis Drive West", "Marquis Drive East",
      "51st Street East", "51st Street West", "Warman Road", "McOrmond Drive",
      "Boychuk Drive", "Stonebridge Boulevard", "Rosewood Boulevard", "Lowe Road"
    ],
    "Regina": [
      "Albert Street North", "Albert Street South", "Victoria Avenue East", "Victoria Avenue West",
      "Saskatchewan Drive", "Broad Street North", "Broad Street South", "Dewdney Avenue West",
      "Dewdney Avenue East", "11th Avenue", "12th Avenue", "13th Avenue", "14th Avenue",
      "College Avenue West", "College Avenue East", "Wascana Parkway", "Lewvan Drive South",
      "Ring Road", "Arcola Avenue East", "Arcola Avenue West", "Park Street",
      "Hamilton Street", "Lorne Street", "Smith Street", "McIntyre Street",
      "Rose Street North", "Rose Street South", "Cornwall Street North", "Cornwall Street South",
      "Scarth Street", "Osler Street", "Rae Street", "Retallack Street",
      "Robinson Street", "Cameron Street", "Angus Street", "Elphinstone Street",
      "Argyle Street North", "Argyle Street South", "Montague Street North", "Montague Street South",
      "Winnipeg Street North", "Winnipeg Street South", "Ottawa Street North", "Ottawa Street South"
    ],
    "Burnaby": [
      "Kingsway", "Canada Way", "Hastings Street", "Lougheed Highway", "Marine Drive",
      "Boundary Road", "Willingdon Avenue", "Royal Oak Avenue", "Sperling Avenue", "Gilmore Avenue",
      "Holdom Avenue", "Madison Avenue", "Springer Avenue", "Delta Avenue", "Ingleton Avenue",
      "Moscrop Street", "Sussex Avenue", "McKay Avenue", "Beresford Street", "Imperial Street",
      "Rumble Street", "Nelson Avenue", "Royal Oak Way", "Station Hill Drive", "Southpoint Drive",
      "Wayburne Drive", "Deer Lake Avenue", "Sprott Street", "Buchanan Street", "Griffiths Drive",
      "McKercher Avenue", "Stanley Street", "Irmin Street", "Mckinnon Street", "Burlington Avenue",
      "Bonsor Avenue", "Patterson Avenue", "Suncrest Drive", "Inman Avenue", "Burnwood Drive",
      "Cariboo Road", "North Road", "Austin Road", "Blue Mountain Street"
    ],
    "Richmond": [
      "No. 3 Road", "Westminster Highway", "Granville Avenue", "Blundell Road", "Steveston Highway",
      "Railway Avenue", "Gilbert Road", "Garden City Road", "Minoru Boulevard", "Alderbridge Way",
      "Cambie Road", "Bridgeport Road", "Sea Island Way", "Russ Baker Way", "Miller Road",
      "Dyke Road", "Sidaway Road", "Shell Road", "No. 5 Road", "No. 4 Road",
      "No. 2 Road", "No. 1 Road", "Knight Street", "Williams Road",
      "Francis Road", "Moncton Street", "Chatham Street", "Bennett Road", "Cooney Road",
      "Ash Street", "Ackroyd Road", "Cook Road", "Saunders Road", "Jacombs Road"
    ],
    "Laval": [
      "Boulevard des Laurentides", "Boulevard Curé-Labelle", "Boulevard de la Concorde Ouest",
      "Boulevard de la Concorde Est", "Boulevard Cartier Ouest", "Boulevard Cartier Est",
      "Boulevard Sainte-Rose", "Boulevard Le Corbusier", "Boulevard de l'Avenir",
      "Rue Notre-Dame", "Boulevard Saint-Martin Ouest", "Boulevard Saint-Martin Est",
      "Boulevard Lévesque Ouest", "Boulevard Lévesque Est", "Boulevard Samson",
      "Boulevard Dagenais Ouest", "Boulevard Dagenais Est", "Boulevard Notre-Dame",
      "Boulevard des Prairies", "Avenue des Bois", "Rue Principale", "Boulevard du Souvenir",
      "Boulevard de la Renaissance", "Boulevard du Havre", "Boulevard Industriel",
      "Avenue du Crochet", "Rue Jean-Talon", "Boulevard Saint-Elzéar Ouest",
      "Boulevard Saint-Elzéar Est", "Montée Saint-François"
    ],
    "Gatineau": [
      "Boulevard de la Gappe", "Boulevard Gréber", "Boulevard Maloney Ouest",
      "Boulevard Maloney Est", "Boulevard Saint-Joseph", "Boulevard La Vérendrye Ouest",
      "Boulevard La Vérendrye Est", "Boulevard des Allumettières", "Rue Principale",
      "Chemin d'Aylmer", "Boulevard du Plateau", "Boulevard de l'Hôpital",
      "Rue Saint-Louis", "Boulevard Saint-René", "Rue Notre-Dame",
      "Boulevard Fournier", "Boulevard Alexandre-Taché", "Rue Eddy",
      "Rue Montcalm", "Rue Laurier", "Rue Wellington", "Boulevard Maisonneuve",
      "Rue Saint-Jacques", "Boulevard du Mont-Bleu", "Chemin de la Savane"
    ],
    "Longueuil": [
      "Boulevard Taschereau", "Chemin de Chambly", "Boulevard Roland-Therrien",
      "Boulevard Curé-Poirier Ouest", "Boulevard Curé-Poirier Est", "Boulevard Marie-Victorin",
      "Rue Saint-Charles Ouest", "Rue Saint-Charles Est", "Boulevard Quinn",
      "Boulevard Fernand-Lafontaine", "Rue Saint-Laurent Ouest", "Rue Saint-Laurent Est",
      "Boulevard Grande Allée", "Boulevard Cousineau", "Boulevard Jacques-Cartier",
      "Rue Gareau", "Boulevard De Montarville", "Rue Guillaume", "Rue Joliette",
      "Boulevard Jean-Paul-Vincent", "Chemin du Coteau-Rouge", "Boulevard Gaétan-Boucher"
    ],
    "Barrie": [
      "Dunlop Street West", "Dunlop Street East", "Bayfield Street", "Essa Road",
      "Mapleview Drive West", "Mapleview Drive East", "Big Bay Point Road", "Huronia Road",
      "Yonge Street", "Anne Street North", "Anne Street South", "Bradford Street",
      "Collier Street", "Toronto Street", "Mulcaster Street", "Ross Street",
      "Clapperton Street", "Owen Street", "Wellington Street West", "Wellington Street East",
      "Simcoe Street", "High Street", "Grove Street West", "Grove Street East",
      "Blake Street", "Codrington Street", "Penetang Street", "St. Vincent Street"
    ],
    "Abbotsford": [
      "Sumas Way", "South Fraser Way", "McCallum Road", "Clearbrook Road", "Huntingdon Road",
      "Marshall Road", "Trethewey Street", "Gladwin Road", "Bourquin Crescent West",
      "Bourquin Crescent East", "George Ferguson Way", "Old Clayburn Road", "Townline Road",
      "Mt. Lehman Road", "Bradner Road", "Whatcom Road", "Riverside Road",
      "Harris Road", "Vye Road", "King Road", "McDougall Avenue", "Montrose Avenue"
    ],
    "Coquitlam": [
      "Lougheed Highway", "Barnet Highway", "Como Lake Avenue", "Austin Avenue",
      "North Road", "Pinetree Way", "David Avenue", "Guildford Way", "Glen Drive",
      "Blue Mountain Street", "Mariner Way", "Pipeline Road", "Lincoln Avenue",
      "Westwood Street", "Rochester Avenue", "Schoolhouse Street", "Brunette Avenue",
      "King Edward Street", "Coquitlam Avenue", "Nelson Street", "Smith Avenue"
    ],
    "Kelowna": [
      "Harvey Avenue", "Bernard Avenue", "Pandosy Street", "Richter Street", "Ellis Street",
      "Water Street", "Lakeshore Road", "KLO Road", "Gordon Drive", "Benvoulin Road",
      "Springfield Road", "Highway 97", "McCurdy Road", "Rutland Road North", "Rutland Road South",
      "Hollywood Road North", "Hollywood Road South", "Glenmore Road", "Dilworth Drive",
      "Spall Road", "Enterprise Way", "Banks Road", "Sexsmith Road"
    ],
    "Victoria": [
      "Douglas Street", "Government Street", "Fort Street", "Yates Street", "Johnson Street",
      "Pandora Avenue", "Blanshard Street", "Quadra Street", "Cook Street", "Vancouver Street",
      "Fisgard Street", "Herald Street", "Chatham Street", "Discovery Street", "Bay Street",
      "Hillside Avenue", "Oak Bay Avenue", "Fairfield Road", "Dallas Road", "Superior Street",
      "Simcoe Street", "Menzies Street", "Oswego Street", "Michigan Street"
    ],
    "Nanaimo": [
      "Terminal Avenue North", "Terminal Avenue South", "Island Highway North", "Island Highway South",
      "Comox Road", "Bowen Road", "Townsite Road", "Jingle Pot Road", "Departure Bay Road",
      "Hammond Bay Road", "Rutherford Road", "Northfield Road", "Metral Drive", "Aulds Road",
      "Wallace Street", "Commercial Street", "Front Street", "Bastion Street", "Fitzwilliam Street",
      "Milton Street", "Franklyn Street", "Selby Street"
    ],
    "Kamloops": [
      "Victoria Street West", "Victoria Street East", "Tranquille Road", "Columbia Street West",
      "Columbia Street East", "Battle Street", "Seymour Street", "Lansdowne Street",
      "8th Street", "6th Avenue", "Summit Drive", "McGill Road", "Notre Dame Drive",
      "Pacific Way", "Highland Road", "Westsyde Road", "Fortune Drive", "Dallas Drive"
    ],
    "Brandon": [
      "18th Street North", "18th Street South", "Victoria Avenue East", "Victoria Avenue West",
      "Rosser Avenue", "Princess Avenue", "Richmond Avenue", "Park Avenue",
      "1st Street", "10th Street", "Pacific Avenue", "Lorne Avenue",
      "Kirkcaldy Drive", "Maryland Avenue"
    ],
    "Steinbach": [
      "Main Street", "Reimer Avenue", "Highway 12", "Brandt Street", "Lumber Avenue",
      "Hanover Street", "Kroeker Avenue", "McKenzie Avenue", "Loewen Boulevard",
      "Penfeld Drive", "Park Road West", "Park Road East"
    ],
    "Prince Albert": [
      "Central Avenue", "2nd Avenue West", "2nd Avenue East", "15th Street West", "15th Street East",
      "River Street West", "River Street East", "6th Avenue West", "6th Avenue East",
      "Marquis Road", "28th Street West", "28th Street East"
    ],
    "Moose Jaw": [
      "Main Street North", "Main Street South", "High Street West", "High Street East",
      "Caribou Street West", "Caribou Street East", "Athabasca Street West", "Athabasca Street East",
      "Fairford Street West", "Fairford Street East", "Manitoba Street West", "Manitoba Street East",
      "9th Avenue NW", "Thatcher Drive"
    ],
    "Dartmouth": [
      "Portland Street", "Wyse Road", "Windmill Road", "Main Street", "Ochterloney Street",
      "Prince Albert Road", "Alderney Drive", "King Street", "Queen Street", "Victoria Road",
      "Woodland Avenue", "Tacoma Drive", "Baker Drive", "Lakecrest Drive"
    ],
    "Sydney": [
      "George Street", "Charlotte Street", "Dorchester Street", "Prince Street", "Townsend Street",
      "Bentinck Street", "Esplanade", "Kings Road", "Grand Lake Road", "Welton Street",
      "Alexandra Street", "Whitney Avenue", "Victoria Road"
    ],
    "Saint John": [
      "King Street", "Prince William Street", "Charlotte Street", "Princess Street", "Duke Street",
      "Union Street", "Germain Street", "Canterbury Street", "Sydney Street", "Waterloo Street",
      "Main Street", "Douglas Avenue", "Rothesay Avenue", "Westmorland Road"
    ],
    "Moncton": [
      "Main Street", "St. George Street", "Mountain Road", "Salisbury Road", "Champlain Street",
      "Vaughan Harvey Boulevard", "Wheeler Boulevard", "Elmwood Drive", "Mapleton Road",
      "Edinburgh Drive", "Plaza Boulevard", "Trinity Drive"
    ],
    "Fredericton": [
      "Queen Street", "King Street", "York Street", "Brunswick Street", "Regent Street",
      "Westmorland Street", "Carleton Street", "George Street", "Church Street", "Charlotte Street",
      "Smythe Street", "Prospect Street", "Northumberland Street", "University Avenue"
    ],
    "St. John's": [
      "Water Street", "Duckworth Street", "New Gower Street", "LeMarchant Road", "Military Road",
      "Torbay Road", "Kenmount Road", "Freshwater Road", "Elizabeth Avenue", "Empire Avenue",
      "Portugal Cove Road", "Thorburn Road", "Conception Bay Highway"
    ],
    "Mount Pearl": [
      "Park Avenue", "Commonwealth Avenue", "Ruth Avenue", "Smallwood Drive", "Topsail Road",
      "Old Placentia Road", "Olympic Drive", "Centennial Drive", "Sunrise Avenue"
    ],
    "Charlottetown": [
      "University Avenue", "Queen Street", "Kent Street", "Prince Street", "Grafton Street",
      "Great George Street", "Richmond Street", "Water Street", "Euston Street", "Fitzroy Street",
      "Pownal Street", "Weymouth Street", "Allen Street"
    ],
    "Whitehorse": [
      "Main Street", "2nd Avenue", "4th Avenue", "Black Street", "Steele Street",
      "Wood Street", "Jarvis Street", "Hawkins Street", "Ogilvie Street", "Elliott Street",
      "Hanson Street", "Lambert Street", "Alaska Highway", "Hamilton Boulevard"
    ],
    "Yellowknife": [
      "Franklin Avenue", "50th Street", "50th Avenue", "49th Street", "48th Street",
      "51st Avenue", "52nd Street", "53rd Street", "Old Airport Road", "Ingraham Drive",
      "School Draw Avenue", "Range Lake Road"
    ],
    "Iqaluit": [
      "Queen Elizabeth Way", "Federal Road", "Niaqunngusiariaq Street", "Mivvik Street",
      "Sinaa Street", "Nipisa Street", "Paunna Street", "Ikaluktuutiak Drive"
    ],
    "Richmond Hill": [
      "Yonge Street", "Highway 7", "Major Mackenzie Drive West", "Major Mackenzie Drive East",
      "Leslie Street", "Bayview Avenue", "Bathurst Street", "Elgin Mills Road West",
      "Elgin Mills Road East", "16th Avenue", "19th Avenue", "Gamble Road"
    ],
    "Oakville": [
      "Lakeshore Road West", "Lakeshore Road East", "Trafalgar Road", "Dorval Drive",
      "Third Line", "Dundas Street West", "Dundas Street East", "Upper Middle Road West",
      "Upper Middle Road East", "Speers Road", "Cornwall Road", "Navy Street"
    ],
    "Burlington": [
      "Brant Street", "Lakeshore Road", "Plains Road West", "Plains Road East", "Fairview Street",
      "New Street", "Guelph Line", "Walkers Line", "Appleby Line", "Harvester Road",
      "Upper Middle Road", "Dundas Street"
    ],
    "Oshawa": [
      "King Street West", "King Street East", "Simcoe Street North", "Simcoe Street South",
      "Bloor Street West", "Bloor Street East", "Taunton Road West", "Taunton Road East",
      "Ritson Road North", "Ritson Road South", "Stevenson Road North", "Stevenson Road South",
      "Harmony Road North", "Harmony Road South"
    ],
    "St. Albert": [
      "St. Albert Trail", "Sturgeon Road", "Bellerose Drive", "Boudreau Road",
      "Campbell Road", "Giroux Road", "Gervais Road", "Mission Avenue",
      "McKenney Avenue", "Perron Street", "Sir Winston Churchill Avenue"
    ],
    "Red Deer": [
      "Gaetz Avenue", "Ross Street", "50th Avenue", "67th Street", "Taylor Drive",
      "Parkland Drive", "30th Avenue", "39th Street", "Highway 2", "Johnstone Drive"
    ],
    "Lethbridge": [
      "Mayor Magrath Drive", "Whoop-Up Drive", "University Drive West", "3rd Avenue South",
      "5th Avenue South", "13th Street North", "Scenic Drive South", "McMaster Boulevard"
    ],
    "Medicine Hat": [
      "Dunmore Road SE", "Trans-Canada Highway", "13th Avenue SE", "Kingsway Avenue SE",
      "1st Street SE", "South Railway Street SE", "Allowance Avenue SE", "Bomford Crescent SW"
    ],
    "Grande Prairie": [
      "100th Avenue", "100th Street", "Resources Road", "Gateway Drive",
      "Westgate Drive", "68th Avenue", "Highway 2"
    ],
    "Airdrie": [
      "Main Street", "1st Avenue NW", "East Lake Boulevard NE", "Veterans Boulevard",
      "Yankee Valley Boulevard", "8th Street SW", "Centre Avenue"
    ],
    "Sherbrooke": [
      "Rue King Ouest", "Rue King Est", "Rue Wellington Nord", "Rue Wellington Sud",
      "Boulevard de Portland", "Rue Belvédère Nord", "Rue Belvédère Sud",
      "Boulevard Jacques-Cartier Nord", "Boulevard Jacques-Cartier Sud",
      "Rue Prospect", "Boulevard de l'Université", "Rue Galt Ouest", "Rue Galt Est"
    ],
    "Saguenay": [
      "Boulevard Talbot", "Rue Racine Est", "Rue Racine Ouest", "Boulevard du Royaume",
      "Boulevard Saint-Paul", "Rue Price Ouest", "Rue Price Est", "Boulevard de la Grande-Baie Nord",
      "Boulevard de la Grande-Baie Sud", "Rue Albert", "Boulevard Mellon"
    ],
    "Levis": [
      "Route du Président-Kennedy", "Boulevard de la Rive-Sud", "Chemin des Îles",
      "Route Monseigneur-Bourget", "Boulevard Guillaume-Couture", "Boulevard Alphonse-Desjardins",
      "Rue Saint-Georges", "Rue Saint-Louis", "Rue Commerciale"
    ],
    "Trois-Rivieres": [
      "Boulevard des Forges", "Rue Notre-Dame Centre", "Rue Saint-Maurice",
      "Boulevard Gene-H.-Kruger", "Boulevard des Récollets", "Rue Royale",
      "Boulevard Saint-Jean", "Rue Laviolette", "Rue Hart"
    ],
    "Terrebonne": [
      "Boulevard des Seigneurs", "Montée Gagnon", "Boulevard Moody", "Chemin Gascon",
      "Côte de Terrebonne", "Rue Saint-Jean-Baptiste", "Boulevard des Entreprises",
      "Rue Saint-Louis", "Avenue de la Gare"
    ]
  },
  "postcode_format": "?#? #?#",
  "address_formats": [
    "{building_number} {street}",
    "{building_number} {street}, Unit {unit}",
    "{building_number} {street}, Apt {unit}"
  ],
  "country": "Canada",
  "country_code": "CA",
  "phone_area_codes": {
    "Ontario": ["416", "647", "437", "905", "289", "365", "613", "343", "519", "226", "548", "705", "249", "807"],
    "Quebec": ["514", "438", "450", "579", "819", "873", "418", "581", "367"],
    "British Columbia": ["604", "778", "236", "672", "250"],
    "Alberta": ["403", "587", "825", "780", "368"],
    "Manitoba": ["204", "431"],
    "Saskatchewan": ["306", "639"],
    "Nova Scotia": ["902", "782"],
    "New Brunswick": ["506"],
    "Newfoundland and Labrador": ["709"],
    "Prince Edward Island": ["902", "782"],
    "Yukon": ["867"],
    "Northwest Territories": ["867"],
    "Nunavut": ["867"]
  }
}
