{
  "locations": [
    {"city": "Toronto", "state": "Ontario", "state_abbr": "ON", "postcode_prefix": "M5", "lat_min": 43.58, "lat_max": 43.86, "lon_min": -79.64, "lon_max": -79.12},
    {"city": "Mississauga", "state": "Ontario", "state_abbr": "ON", "postcode_prefix": "L5", "lat_min": 43.52, "lat_max": 43.67, "lon_min": -79.77, "lon_max": -79.54},
    {"city": "Brampton", "state": "Ontario", "state_abbr": "ON", "postcode_prefix": "L6", "lat_min": 43.65, "lat_max": 43.80, "lon_min": -79.87, "lon_max": -79.70},
    {"city": "Hamilton", "state": "Ontario", "state_abbr": "ON", "postcode_prefix": "L8", "lat_min": 43.20, "lat_max": 43.30, "lon_min": -79.95, "lon_max": -79.75},
    {"city": "Ottawa", "state": "Ontario", "state_abbr": "ON", "postcode_prefix": "K1", "lat_min": 45.25, "lat_max": 45.50, "lon_min": -75.90, "lon_max": -75.55},
    {"city": "London", "state": "Ontario", "state_abbr": "ON", "postcode_prefix": "N6", "lat_min": 42.92, "lat_max": 43.05, "lon_min": -81.35, "lon_max": -81.15},
    {"city": "Markham", "state": "Ontario", "state_abbr": "ON", "postcode_prefix": "L3", "lat_min": 43.82, "lat_max": 43.95, "lon_min": -79.42, "lon_max": -79.22},
    {"city": "Vaughan", "state": "Ontario", "state_abbr": "ON", "postcode_prefix": "L4", "lat_min": 43.78, "lat_max": 43.92, "lon_min": -79.62, "lon_max": -79.45},
    {"city": "Kitchener", "state": "Ontario", "state_abbr": "ON", "postcode_prefix": "N2", "lat_min": 43.38, "lat_max": 43.48, "lon_min": -80.55, "lon_max": -80.40},
    {"city": "Windsor", "state": "Ontario", "state_abbr": "ON", "postcode_prefix": "N9", "lat_min": 42.25, "lat_max": 42.35, "lon_min": -83.10, "lon_max": -82.90},
    {"city": "Richmond Hill", "state": "Ontario", "state_abbr": "ON", "postcode_prefix": "L4", "lat_min": 43.84, "lat_max": 43.93, "lon_min": -79.48, "lon_max": -79.38},
    {"city": "Oakville", "state": "Ontario", "state_abbr": "ON", "postcode_prefix": "L6", "lat_min": 43.42, "lat_max": 43.52, "lon_min": -79.75, "lon_max": -79.60},
    {"city": "Burlington", "state": "Ontario", "state_abbr": "ON", "postcode_prefix": "L7", "lat_min": 43.30, "lat_max": 43.42, "lon_min": -79.85, "lon_max": -79.72},
    {"city": "Oshawa", "state": "Ontario", "state_abbr": "ON", "postcode_prefix": "L1", "lat_min": 43.85, "lat_max": 43.95, "lon_min": -78.92, "lon_max": -78.80},
    {"city": "Barrie", "state": "Ontario", "state_abbr": "ON", "postcode_prefix": "L4", "lat_min": 44.35, "lat_max": 44.42, "lon_min": -79.72, "lon_max": -79.62},
    {"city": "Montreal", "state": "Quebec", "state_abbr": "QC", "postcode_prefix": "H3", "lat_min": 45.40, "lat_max": 45.70, "lon_min": -73.98, "lon_max": -73.47},
    {"city": "Quebec City", "state": "Quebec", "state_abbr": "QC", "postcode_prefix": "G1", "lat_min": 46.75, "lat_max": 46.90, "lon_min": -71.35, "lon_max": -71.15},
    {"city": "Laval", "state": "Quebec", "state_abbr": "QC", "postcode_prefix": "H7", "lat_min": 45.52, "lat_max": 45.68, "lon_min": -73.87, "lon_max": -73.62},
    {"city": "Gatineau", "state": "Quebec", "state_abbr": "QC", "postcode_prefix": "J8", "lat_min": 45.42, "lat_max": 45.52, "lon_min": -75.80, "lon_max": -75.60},
    {"city": "Longueuil", "state": "Quebec", "state_abbr": "QC", "postcode_prefix": "J4", "lat_min": 45.50, "lat_max": 45.58, "lon_min": -73.55, "lon_max": -73.45},
    {"city": "Sherbrooke", "state": "Quebec", "state_abbr": "QC", "postcode_prefix": "J1", "lat_min": 45.35, "lat_max": 45.45, "lon_min": -71.95, "lon_max": -71.82},
    {"city": "Saguenay", "state": "Quebec", "state_abbr": "QC", "postcode_prefix": "G7", "lat_min": 48.38, "lat_max": 48.48, "lon_min": -71.15, "lon_max": -70.95},
    {"city": "Levis", "state": "Quebec", "state_abbr": "QC", "postcode_prefix": "G6", "lat_min": 46.70, "lat_max": 46.82, "lon_min": -71.25, "lon_max": -71.10},
    {"city": "Trois-Rivieres", "state": "Quebec", "state_abbr": "QC", "postcode_prefix": "G9", "lat_min": 46.32, "lat_max": 46.38, "lon_min": -72.60, "lon_max": -72.50},
    {"city": "Terrebonne", "state": "Quebec", "state_abbr": "QC", "postcode_prefix": "J6", "lat_min": 45.68, "lat_max": 45.75, "lon_min": -73.68, "lon_max": -73.58},
    {"city": "Calgary", "state": "Alberta", "state_abbr": "AB", "postcode_prefix": "T2", "lat_min": 50.88, "lat_max": 51.18, "lon_min": -114.32, "lon_max": -113.90},
    {"city": "Edmonton", "state": "Alberta", "state_abbr": "AB", "postcode_prefix": "T5", "lat_min": 53.42, "lat_max": 53.68, "lon_min": -113.72, "lon_max": -113.28},
    {"city": "Red Deer", "state": "Alberta", "state_abbr": "AB", "postcode_prefix": "T4", "lat_min": 52.22, "lat_max": 52.32, "lon_min": -113.85, "lon_max": -113.75},
    {"city": "Lethbridge", "state": "Alberta", "state_abbr": "AB", "postcode_prefix": "T1", "lat_min": 49.65, "lat_max": 49.75, "lon_min": -112.88, "lon_max": -112.78},
    {"city": "St. Albert", "state": "Alberta", "state_abbr": "AB", "postcode_prefix": "T8", "lat_min": 53.60, "lat_max": 53.68, "lon_min": -113.65, "lon_max": -113.55},
    {"city": "Medicine Hat", "state": "Alberta", "state_abbr": "AB", "postcode_prefix": "T1", "lat_min": 50.02, "lat_max": 50.08, "lon_min": -110.72, "lon_max": -110.62},
    {"city": "Grande Prairie", "state": "Alberta", "state_abbr": "AB", "postcode_prefix": "T8", "lat_min": 55.15, "lat_max": 55.22, "lon_min": -118.85, "lon_max": -118.75},
    {"city": "Airdrie", "state": "Alberta", "state_abbr": "AB", "postcode_prefix": "T4", "lat_min": 51.28, "lat_max": 51.32, "lon_min": -114.05, "lon_max": -113.95},
    {"city": "Vancouver", "state": "British Columbia", "state_abbr": "BC", "postcode_prefix": "V6", "lat_min": 49.20, "lat_max": 49.32, "lon_min": -123.25, "lon_max": -123.02},
    {"city": "Surrey", "state": "British Columbia", "state_abbr": "BC", "postcode_prefix": "V3", "lat_min": 49.05, "lat_max": 49.22, "lon_min": -122.95, "lon_max": -122.68},
    {"city": "Burnaby", "state": "British Columbia", "state_abbr": "BC", "postcode_prefix": "V5", "lat_min": 49.20, "lat_max": 49.30, "lon_min": -123.05, "lon_max": -122.88},
    {"city": "Richmond", "state": "British Columbia", "state_abbr": "BC", "postcode_prefix": "V6", "lat_min": 49.12, "lat_max": 49.20, "lon_min": -123.22, "lon_max": -123.05},
    {"city": "Abbotsford", "state": "British Columbia", "state_abbr": "BC", "postcode_prefix": "V2", "lat_min": 49.02, "lat_max": 49.12, "lon_min": -122.38, "lon_max": -122.22},
    {"city": "Coquitlam", "state": "British Columbia", "state_abbr": "BC", "postcode_prefix": "V3", "lat_min": 49.25, "lat_max": 49.35, "lon_min": -122.85, "lon_max": -122.72},
    {"city": "Kelowna", "state": "British Columbia", "state_abbr": "BC", "postcode_prefix": "V1", "lat_min": 49.82, "lat_max": 49.95, "lon_min": -119.55, "lon_max": -119.38},
    {"city": "Victoria", "state": "British Columbia", "state_abbr": "BC", "postcode_prefix": "V8", "lat_min": 48.40, "lat_max": 48.48, "lon_min": -123.42, "lon_max": -123.32},
    {"city": "Nanaimo", "state": "British Columbia", "state_abbr": "BC", "postcode_prefix": "V9", "lat_min": 49.12, "lat_max": 49.22, "lon_min": -124.00, "lon_max": -123.88},
    {"city": "Kamloops", "state": "British Columbia", "state_abbr": "BC", "postcode_prefix": "V2", "lat_min": 50.65, "lat_max": 50.75, "lon_min": -120.40, "lon_max": -120.28},
    {"city": "Winnipeg", "state": "Manitoba", "state_abbr": "MB", "postcode_prefix": "R3", "lat_min": 49.75, "lat_max": 49.98, "lon_min": -97.35, "lon_max": -97.02},
    {"city": "Brandon", "state": "Manitoba", "state_abbr": "MB", "postcode_prefix": "R7", "lat_min": 49.82, "lat_max": 49.88, "lon_min": -100.00, "lon_max": -99.90},
    {"city": "Steinbach", "state": "Manitoba", "state_abbr": "MB", "postcode_prefix": "R5", "lat_min": 49.52, "lat_max": 49.55, "lon_min": -96.70, "lon_max": -96.65},
    {"city": "Saskatoon", "state": "Saskatchewan", "state_abbr": "SK", "postcode_prefix": "S7", "lat_min": 52.08, "lat_max": 52.22, "lon_min": -106.75, "lon_max": -106.55},
    {"city": "Regina", "state": "Saskatchewan", "state_abbr": "SK", "postcode_prefix": "S4", "lat_min": 50.38, "lat_max": 50.52, "lon_min": -104.70, "lon_max": -104.52},
    {"city": "Prince Albert", "state": "Saskatchewan", "state_abbr": "SK", "postcode_prefix": "S6", "lat_min": 53.18, "lat_max": 53.25, "lon_min": -105.78, "lon_max": -105.68},
    {"city": "Moose Jaw", "state": "Saskatchewan", "state_abbr": "SK", "postcode_prefix": "S6", "lat_min": 50.38, "lat_max": 50.42, "lon_min": -105.58, "lon_max": -105.50},
    {"city": "Halifax", "state": "Nova Scotia", "state_abbr": "NS", "postcode_prefix": "B3", "lat_min": 44.58, "lat_max": 44.72, "lon_min": -63.70, "lon_max": -63.50},
    {"city": "Dartmouth", "state": "Nova Scotia", "state_abbr": "NS", "postcode_prefix": "B2", "lat_min": 44.65, "lat_max": 44.72, "lon_min": -63.58, "lon_max": -63.50},
    {"city": "Sydney", "state": "Nova Scotia", "state_abbr": "NS", "postcode_prefix": "B1", "lat_min": 46.12, "lat_max": 46.18, "lon_min": -60.22, "lon_max": -60.12},
    {"city": "Saint John", "state": "New Brunswick", "state_abbr": "NB", "postcode_prefix": "E2", "lat_min": 45.25, "lat_max": 45.32, "lon_min": -66.12, "lon_max": -66.00},
    {"city": "Moncton", "state": "New Brunswick", "state_abbr": "NB", "postcode_prefix": "E1", "lat_min": 46.08, "lat_max": 46.15, "lon_min": -64.85, "lon_max": -64.75},
    {"city": "Fredericton", "state": "New Brunswick", "state_abbr": "NB", "postcode_prefix": "E3", "lat_min": 45.92, "lat_max": 46.00, "lon_min": -66.70, "lon_max": -66.60},
    {"city": "St. John's", "state": "Newfoundland and Labrador", "state_abbr": "NL", "postcode_prefix": "A1", "lat_min": 47.52, "lat_max": 47.62, "lon_min": -52.78, "lon_max": -52.65},
    {"city": "Mount Pearl", "state": "Newfoundland and Labrador", "state_abbr": "NL", "postcode_prefix": "A1", "lat_min": 47.50, "lat_max": 47.55, "lon_min": -52.82, "lon_max": -52.75},
    {"city": "Charlottetown", "state": "Prince Edward Island", "state_abbr": "PE", "postcode_prefix": "C1", "lat_min": 46.22, "lat_max": 46.28, "lon_min": -63.18, "lon_max": -63.10},
    {"city": "Whitehorse", "state": "Yukon", "state_abbr": "YT", "postcode_prefix": "Y1", "lat_min": 60.70, "lat_max": 60.78, "lon_min": -135.10, "lon_max": -134.95},
    {"city": "Yellowknife", "state": "Northwest Territories", "state_abbr": "NT", "postcode_prefix": "X1", "lat_min": 62.45, "lat_max": 62.50, "lon_min": -114.42, "lon_max": -114.32},
    {"city": "Iqaluit", "state": "Nunavut", "state_abbr": "NU", "postcode_prefix": "X0", "lat_min": 63.73, "lat_max": 63.78, "lon_min": -68.55, "lon_max": -68.48}
  ],
  "street_names": [
    "Main", "King", "Queen", "Yonge", "Bloor", "Dundas", "College", "Bathurst",
    "Spadina", "Bay", "University", "Front", "Jarvis", "Church", "Wellesley",
    "Sherbourne", "Parliament", "Carlton", "Gerrard", "Harbord", "Dupont", "Davenport",
    "St. Clair", "Eglinton", "Lawrence", "Sheppard", "Finch", "Steeles", "Highway",
    "Maple", "Oak", "Pine", "Cedar", "Elm", "Birch", "Willow", "Spruce",
    "Lakeshore", "Riverside", "Parkside", "Hillside", "Meadow", "Valley", "Forest",
    "Mountain", "Prairie", "River", "Lake", "Creek", "Brook", "Spring",
    "Victoria", "Albert", "Edward", "George", "Elizabeth", "Charles", "William",
    "Rue Saint-Denis", "Rue Sainte-Catherine", "Boulevard Saint-Laurent", "Rue Sherbrooke",
    "Avenue du Parc", "Rue Jean-Talon", "Boulevard Rosemont", "Rue Rachel",
    "Avenue Laurier", "Rue Mont-Royal", "Boulevard de Maisonneuve", "Rue Berri"
  ],
  "street_suffixes": [
    "Street", "Avenue", "Boulevard", "Drive", "Road", "Lane", "Way", "Court",
    "Place", "Terrace", "Circle", "Crescent", "Trail", "Path", "Gardens",
    "Heights", "Park", "Square", "Close", "Grove", "Mews", "Row", "Gate"
  ],
  "postcode_format": "?#? #?#",
  "address_formats": [
    "{building_number} {street_name} {street_suffix}",
    "{building_number} {street_name} {street_suffix}, Unit {unit_number}",
    "{building_number} {street_name} {street_suffix}, Apt {unit_number}"
  ],
  "country": "Canada",
  "country_code": "CA",
  "phone_area_codes": {
    "Ontario": ["416", "647", "437", "905", "289", "365", "613", "343", "519", "226", "548", "705", "249", "807"],
    "Quebec": ["514", "438", "450", "579", "819", "873", "418", "581", "367"],
    "British Columbia": ["604", "778", "236", "672", "250"],
    "Alberta": ["403", "587", "825", "780", "368"],
    "Manitoba": ["204", "431"],
    "Saskatchewan": ["306", "639"],
    "Nova Scotia": ["902", "782"],
    "New Brunswick": ["506"],
    "Newfoundland and Labrador": ["709"],
    "Prince Edward Island": ["902", "782"],
    "Yukon": ["867"],
    "Northwest Territories": ["867"],
    "Nunavut": ["867"]
  }
}
