{
  "locations": {
    "very_common": [
      {
        "city": "Casablanca",
        "state": "Casablanca-Settat",
        "state_abbr": "CS",
        "postcode_prefix": "20",
        "lat_min": 33.53,
        "lat_max": 33.62,
        "lon_min": -7.65,
        "lon_max": -7.53
      },
      {
        "city": "Rabat",
        "state": "Rabat-Salé-Kénitra",
        "state_abbr": "RK",
        "postcode_prefix": "10",
        "lat_min": 33.95,
        "lat_max": 34.02,
        "lon_min": -6.87,
        "lon_max": -6.8
      },
      {
        "city": "Marrakech",
        "state": "Marrakech-Safi",
        "state_abbr": "MS",
        "postcode_prefix": "40",
        "lat_min": 31.6,
        "lat_max": 31.66,
        "lon_min": -8.03,
        "lon_max": -7.96
      }
    ],
    "common": [
      {
        "city": "Fès",
        "state": "Fès-Meknès",
        "state_abbr": "FM",
        "postcode_prefix": "30",
        "lat_min": 34.01,
        "lat_max": 34.07,
        "lon_min": -5.02,
        "lon_max": -4.95
      },
      {
        "city": "Tangier",
        "state": "Tanger-Tétouan-Al Hoceïma",
        "state_abbr": "TH",
        "postcode_prefix": "90",
        "lat_min": 35.75,
        "lat_max": 35.8,
        "lon_min": -5.84,
        "lon_max": -5.78
      },
      {
        "city": "Salé",
        "state": "Rabat-Salé-Kénitra",
        "state_abbr": "RK",
        "postcode_prefix": "11",
        "lat_min": 34.03,
        "lat_max": 34.07,
        "lon_min": -6.82,
        "lon_max": -6.78
      },
      {
        "city": "Meknès",
        "state": "Fès-Meknès",
        "state_abbr": "FM",
        "postcode_prefix": "50",
        "lat_min": 33.87,
        "lat_max": 33.91,
        "lon_min": -5.56,
        "lon_max": -5.52
      },
      {
        "city": "Agadir",
        "state": "Souss-Massa",
        "state_abbr": "SM",
        "postcode_prefix": "80",
        "lat_min": 30.4,
        "lat_max": 30.44,
        "lon_min": -9.62,
        "lon_max": -9.57
      },
      {
        "city": "Oujda",
        "state": "Oriental",
        "state_abbr": "OR",
        "postcode_prefix": "60",
        "lat_min": 34.67,
        "lat_max": 34.7,
        "lon_min": -1.93,
        "lon_max": -1.9
      }
    ],
    "uncommon": [
      {
        "city": "Kénitra",
        "state": "Rabat-Salé-Kénitra",
        "state_abbr": "RK",
        "postcode_prefix": "14",
        "lat_min": 34.26,
        "lat_max": 34.28,
        "lon_min": -6.58,
        "lon_max": -6.56
      },
      {
        "city": "Tétouan",
        "state": "Tanger-Tétouan-Al Hoceïma",
        "state_abbr": "TH",
        "postcode_prefix": "93",
        "lat_min": 35.56,
        "lat_max": 35.59,
        "lon_min": -5.38,
        "lon_max": -5.35
      },
      {
        "city": "Safi",
        "state": "Marrakech-Safi",
        "state_abbr": "MS",
        "postcode_prefix": "46",
        "lat_min": 32.28,
        "lat_max": 32.31,
        "lon_min": -9.25,
        "lon_max": -9.22
      },
      {
        "city": "El Jadida",
        "state": "Casablanca-Settat",
        "state_abbr": "CS",
        "postcode_prefix": "24",
        "lat_min": 33.24,
        "lat_max": 33.26,
        "lon_min": -8.51,
        "lon_max": -8.49
      },
      {
        "city": "Nador",
        "state": "Oriental",
        "state_abbr": "OR",
        "postcode_prefix": "62",
        "lat_min": 35.16,
        "lat_max": 35.18,
        "lon_min": -2.94,
        "lon_max": -2.92
      },
      {
        "city": "Beni Mellal",
        "state": "Béni Mellal-Khénifra",
        "state_abbr": "BK",
        "postcode_prefix": "23",
        "lat_min": 32.33,
        "lat_max": 32.35,
        "lon_min": -6.37,
        "lon_max": -6.35
      },
      {
        "city": "Mohammedia",
        "state": "Casablanca-Settat",
        "state_abbr": "CS",
        "postcode_prefix": "28",
        "lat_min": 33.68,
        "lat_max": 33.7,
        "lon_min": -7.4,
        "lon_max": -7.38
      },
      {
        "city": "Taza",
        "state": "Fès-Meknès",
        "state_abbr": "FM",
        "postcode_prefix": "35",
        "lat_min": 34.21,
        "lat_max": 34.23,
        "lon_min": -4.01,
        "lon_max": -3.99
      },
      {
        "city": "Khouribga",
        "state": "Béni Mellal-Khénifra",
        "state_abbr": "BK",
        "postcode_prefix": "25",
        "lat_min": 32.88,
        "lat_max": 32.9,
        "lon_min": -6.92,
        "lon_max": -6.9
      }
    ],
    "rare": [
      {
        "city": "Essaouira",
        "state": "Marrakech-Safi",
        "state_abbr": "MS",
        "postcode_prefix": "44",
        "lat_min": 31.5,
        "lat_max": 31.52,
        "lon_min": -9.78,
        "lon_max": -9.76
      },
      {
        "city": "Chefchaouen",
        "state": "Tanger-Tétouan-Al Hoceïma",
        "state_abbr": "TH",
        "postcode_prefix": "91",
        "lat_min": 35.16,
        "lat_max": 35.18,
        "lon_min": -5.27,
        "lon_max": -5.25
      },
      {
        "city": "Al Hoceïma",
        "state": "Tanger-Tétouan-Al Hoceïma",
        "state_abbr": "TH",
        "postcode_prefix": "32",
        "lat_min": 35.24,
        "lat_max": 35.26,
        "lon_min": -3.94,
        "lon_max": -3.92
      },
      {
        "city": "Errachidia",
        "state": "Drâa-Tafilalet",
        "state_abbr": "DT",
        "postcode_prefix": "52",
        "lat_min": 31.93,
        "lat_max": 31.95,
        "lon_min": -4.44,
        "lon_max": -4.42
      },
      {
        "city": "Ouarzazate",
        "state": "Drâa-Tafilalet",
        "state_abbr": "DT",
        "postcode_prefix": "45",
        "lat_min": 30.91,
        "lat_max": 30.93,
        "lon_min": -6.91,
        "lon_max": -6.89
      },
      {
        "city": "Settat",
        "state": "Casablanca-Settat",
        "state_abbr": "CS",
        "postcode_prefix": "26",
        "lat_min": 33.0,
        "lat_max": 33.02,
        "lon_min": -7.62,
        "lon_max": -7.6
      },
      {
        "city": "Larache",
        "state": "Tanger-Tétouan-Al Hoceïma",
        "state_abbr": "TH",
        "postcode_prefix": "92",
        "lat_min": 35.19,
        "lat_max": 35.21,
        "lon_min": -6.16,
        "lon_max": -6.14
      },
      {
        "city": "Guelmim",
        "state": "Guelmim-Oued Noun",
        "state_abbr": "GN",
        "postcode_prefix": "81",
        "lat_min": 28.98,
        "lat_max": 29.0,
        "lon_min": -10.07,
        "lon_max": -10.05
      },
      {
        "city": "Ifrane",
        "state": "Fès-Meknès",
        "state_abbr": "FM",
        "postcode_prefix": "53",
        "lat_min": 33.52,
        "lat_max": 33.54,
        "lon_min": -5.12,
        "lon_max": -5.1
      },
      {
        "city": "Dakhla",
        "state": "Dakhla-Oued Ed-Dahab",
        "state_abbr": "DD",
        "postcode_prefix": "73",
        "lat_min": 23.68,
        "lat_max": 23.7,
        "lon_min": -15.96,
        "lon_max": -15.94
      },
      {
        "city": "Tiznit",
        "state": "Souss-Massa",
        "state_abbr": "SM",
        "postcode_prefix": "85",
        "lat_min": 29.69,
        "lat_max": 29.71,
        "lon_min": -9.81,
        "lon_max": -9.79
      },
      {
        "city": "Taroudant",
        "state": "Souss-Massa",
        "state_abbr": "SM",
        "postcode_prefix": "83",
        "lat_min": 30.46,
        "lat_max": 30.48,
        "lon_min": -8.88,
        "lon_max": -8.86
      }
    ]
  },
  "streets_by_city": {
    "Casablanca": [
      "Boulevard Mohammed V", "Boulevard Hassan II", "Boulevard d'Anfa",
      "Rue Abdelkrim El Khattabi", "Avenue des Forces Armées Royales",
      "Boulevard Moulay Youssef", "Rue Tahar Sebti", "Avenue Mers Sultan",
      "Boulevard Zerktouni", "Boulevard Bir Anzarane",
      "Rue Jean Jaurès", "Boulevard Rachidi", "Rue Colbert",
      "Boulevard de la Corniche", "Avenue Al Massira Al Khadra",
      "Boulevard Brahim Roudani", "Rue Allal Ben Abdellah",
      "Boulevard Ghandi", "Rue Ibn Batouta", "Avenue 2 Mars",
      "Boulevard Yacoub El Mansour", "Rue Socrate",
      "Boulevard de Paris", "Rue Mohammed Smiha",
      "Avenue Hassan I", "Boulevard Al Qods",
      "Rue Poincaré", "Boulevard de la Résistance",
      "Rue Prince Moulay Abdellah", "Boulevard des Almohades",
      "Avenue Lalla Yacout", "Rue Abdelmoumen",
      "Boulevard Abdellatif Ben Kaddour", "Rue de Strasbourg",
      "Boulevard Mohammed Zerktouni", "Rue Victor Hugo",
      "Boulevard Emile Zola", "Avenue Houmane El Fetouaki",
      "Rue Karatchi", "Boulevard Anoual"
    ],
    "Rabat": [
      "Avenue Mohammed V", "Avenue Hassan II", "Avenue Moulay Hassan",
      "Rue des Consuls", "Avenue Allal Ben Abdellah",
      "Boulevard Ad Doha", "Rue Souika", "Avenue Al Marsa",
      "Avenue Fal Ould Oumeir", "Avenue Ibn Sina",
      "Rue Oued Fès", "Avenue An Nasr", "Avenue de France",
      "Boulevard Mohammed VI", "Rue Patrice Lumumba",
      "Avenue Okba Ibn Nafiie", "Rue Ghandi",
      "Boulevard Tariq Al Marsa", "Avenue Atlas",
      "Avenue Mehdi Ben Barka", "Rue Michlifen",
      "Boulevard Ar Riad", "Avenue Al Abtal",
      "Rue Cairo", "Avenue Annakhil",
      "Boulevard Chefchaouen", "Rue Oued Ziz",
      "Avenue Imam Malik", "Rue Jbel Tazzeka",
      "Boulevard de la Victoire", "Rue Dayet Aoua",
      "Avenue Bir Kacem", "Rue Benzerte",
      "Boulevard Abi Regreg", "Avenue John Kennedy",
      "Rue Oukaimeden", "Boulevard Sidi Mohammed Ben Abdellah",
      "Rue Koutoubia", "Avenue de la Mamounia",
      "Rue Abou Faris Al Marini"
    ],
    "Marrakech": [
      "Avenue Mohammed V", "Avenue Mohammed VI", "Rue Bab Agnaou",
      "Rue de la Koutoubia", "Avenue El Mouahidine",
      "Rue Riad Zitoun El Jedid", "Avenue Houmane El Fetouaki",
      "Boulevard El Yarmouk", "Rue Bab Doukkala",
      "Avenue Hassan II", "Rue de la Liberté",
      "Rue Moulay Ismail", "Boulevard Prince Moulay Rachid",
      "Avenue Allal El Fassi", "Rue Dar El Bacha",
      "Avenue Abdelkrim Khattabi", "Rue Ibn Aicha",
      "Boulevard de Safi", "Rue Fatima Zohra",
      "Avenue de la Ménara", "Rue Riad Zitoun El Kedim",
      "Boulevard Mohammed Zerktouni", "Avenue Yacoub El Marini",
      "Rue Bani Marine", "Avenue Prince Moulay Abdellah",
      "Boulevard Victor Hugo", "Rue de Yougoslavie",
      "Avenue Echouhada", "Rue Mouassine",
      "Boulevard Allal El Fassi", "Avenue de France",
      "Rue Sidi Mimoun", "Boulevard de la Palmeraie",
      "Rue Kennaria", "Rue Sidi Bouloukat",
      "Avenue Guéliz", "Boulevard Mansour Eddahbi",
      "Rue Loubnane", "Avenue Immouzer",
      "Rue Source de la Mamounia"
    ],
    "Fès": [
      "Avenue Hassan II", "Boulevard Mohammed V", "Rue Talaa Kebira",
      "Rue Talaa Sghira", "Avenue des Mérinides",
      "Boulevard Allal El Fassi", "Rue Nejjarine",
      "Avenue Moulay Hassan", "Boulevard Chefchaouen",
      "Rue Seffarine", "Avenue Lalla Meryem",
      "Boulevard Prince Héritier", "Rue Attarine",
      "Avenue Atlas", "Rue Rcif"
    ],
    "Tangier": [
      "Boulevard Mohammed V", "Boulevard Pasteur",
      "Rue de la Liberté", "Avenue d'Espagne",
      "Boulevard Mohammed VI", "Rue de Hollande",
      "Avenue des FAR", "Rue d'Angleterre",
      "Boulevard Moulay Ismail", "Rue du Mexique",
      "Avenue Beethoven", "Boulevard Youssef Ibn Tachfine",
      "Rue de Belgique", "Rue Sidi Bouabid",
      "Avenue Prince Héritier"
    ],
    "Salé": [
      "Avenue Mohammed V", "Rue Ras El Ma",
      "Avenue Hassan II", "Rue Kechla",
      "Boulevard Mohammed VI", "Rue Souk El Kebir",
      "Avenue Lalla Aicha", "Rue Bab Lamrissa",
      "Avenue Moulay Ismail", "Rue de la Grande Mosquée",
      "Boulevard Sidi Moussa", "Rue Tabriquet"
    ],
    "Meknès": [
      "Avenue Hassan II", "Boulevard Mohammed V",
      "Rue Dar Smen", "Avenue Moulay Ismail",
      "Rue Rouamzine", "Boulevard Allal Ben Abdellah",
      "Rue Najjarine", "Avenue des FAR",
      "Boulevard Zine El Abidine", "Rue Zitoune",
      "Avenue Driss Ier", "Rue Sekkakine"
    ],
    "Agadir": [
      "Boulevard Mohammed V", "Avenue du Prince Héritier Sidi Mohammed",
      "Boulevard Hassan II", "Avenue des FAR",
      "Boulevard du 20 Août", "Rue de la Foire",
      "Avenue El Mouqaouama", "Boulevard Cheikh Saadi",
      "Rue Houmane El Fetouaki", "Avenue du 29 Février",
      "Boulevard Mohammed Cheikh Saadi", "Rue 18 Novembre"
    ],
    "Oujda": [
      "Boulevard Mohammed V", "Avenue Hassan II",
      "Boulevard Derfoufi", "Rue de Marrakech",
      "Avenue Allal El Fassi", "Rue Berkane",
      "Boulevard Maghreb Arabi", "Rue de Tlemcen",
      "Avenue Moulay Abdellah", "Rue El Mourabitine",
      "Boulevard Idriss El Akbar", "Rue Moulay Youssef"
    ],
    "Kénitra": [
      "Avenue Mohammed V", "Boulevard Hassan II",
      "Rue de la Mamora", "Avenue Mohammed Diouri",
      "Boulevard des FAR", "Rue Moulay Slimane",
      "Avenue Abdelmoumen", "Rue Maamoura",
      "Boulevard Ibn Khaldoun", "Rue du Commerce"
    ],
    "Tétouan": [
      "Avenue Mohammed V", "Rue Luneta",
      "Boulevard Hassan II", "Rue Tarrafin",
      "Avenue Al Massira", "Rue Zawiya",
      "Boulevard Moulay Abbas", "Rue Al Moutanabi",
      "Avenue Moulay El Mehdi", "Rue de Fès"
    ],
    "Safi": [
      "Avenue Moulay Youssef", "Boulevard Mohammed V",
      "Rue du R'bat", "Avenue de la Liberté",
      "Rue du Souk", "Boulevard du Front de Mer",
      "Rue Dar El Baroud", "Avenue des Almohades",
      "Rue Attijaria", "Rue de la Colline des Potiers"
    ],
    "El Jadida": [
      "Avenue Mohammed V", "Boulevard Mohammed VI",
      "Rue de la Cité Portugaise", "Avenue Hassan II",
      "Boulevard Moulay Abdellah", "Rue Lalla Zahra",
      "Avenue Jamal Eddine Al Afghani", "Rue du Port",
      "Boulevard de la Corniche", "Rue Mohammed Errafii"
    ],
    "Nador": [
      "Boulevard Mohammed V", "Avenue Hassan II",
      "Rue du RIF", "Avenue des FAR",
      "Boulevard de la Corniche", "Rue du Commerce",
      "Avenue Mohammed VI", "Rue de Melilla",
      "Boulevard Zerktouni", "Rue de la Marche Verte"
    ],
    "Beni Mellal": [
      "Boulevard Mohammed V", "Avenue Hassan II",
      "Rue des Oliviers", "Avenue des FAR",
      "Boulevard Bir Anzarane", "Rue du Souk",
      "Avenue Moulay Ismail", "Rue Atlas",
      "Boulevard Hansali", "Rue Zerktouni"
    ],
    "Mohammedia": [
      "Boulevard Mohammed V", "Avenue Hassan II",
      "Boulevard de la Corniche", "Rue du Port",
      "Avenue des FAR", "Boulevard Moulay Youssef",
      "Rue des Roses", "Avenue de la Gare",
      "Boulevard de l'Unité", "Rue de la Kasbah"
    ],
    "Taza": [
      "Boulevard Mohammed V", "Avenue Hassan II",
      "Rue Bab El Rih", "Avenue des FAR",
      "Boulevard de la Résistance", "Rue du Souk",
      "Avenue Moulay Hassan", "Rue Bab Titi",
      "Boulevard Allal Ben Abdellah", "Rue Sidi Azzouz"
    ],
    "Khouribga": [
      "Boulevard Mohammed V", "Avenue Hassan II",
      "Rue de l'OCP", "Avenue des FAR",
      "Boulevard Zerktouni", "Rue des Phosphates",
      "Avenue de la Marche Verte", "Rue du Commerce",
      "Boulevard de la Résistance", "Rue de l'Indépendance"
    ],
    "Essaouira": [
      "Avenue Mohammed V", "Rue Sidi Mohammed Ben Abdellah",
      "Avenue Oqba Ibn Nafiaa", "Rue de la Skala",
      "Avenue Allal Ben Abdellah", "Rue Ibn Rochd",
      "Avenue Lalla Amina", "Rue Derb Laalouj",
      "Boulevard Mohammed VI", "Rue Youssef El Fassi"
    ],
    "Chefchaouen": [
      "Avenue Hassan II", "Rue Targui",
      "Rue Andalous", "Rue Sidi Boumédiene",
      "Avenue Moulay Ali Ben Rachid", "Rue Ras El Ma",
      "Rue Kharrazine", "Avenue Al Massira",
      "Rue Laalla Houria", "Rue Outa Hammam"
    ],
    "Al Hoceïma": [
      "Boulevard Mohammed V", "Avenue Hassan II",
      "Boulevard du RIF", "Rue de la Plage",
      "Avenue des FAR", "Boulevard de la Corniche",
      "Rue Moulay Idriss", "Avenue Tariq Ibn Ziad",
      "Rue du Port", "Boulevard Sidi Abid"
    ],
    "Errachidia": [
      "Boulevard Mohammed V", "Avenue Moulay Ali Chérif",
      "Rue Ziz", "Avenue Hassan II",
      "Boulevard de la Marche Verte", "Rue des Dattes",
      "Avenue des FAR", "Rue Oued Todra",
      "Boulevard Prince Héritier", "Rue de la Palmeraie"
    ],
    "Ouarzazate": [
      "Avenue Mohammed V", "Boulevard Moulay Rachid",
      "Rue de la Kasbah", "Avenue Prince Moulay Rachid",
      "Boulevard Al Mouahidine", "Rue du Cinéma",
      "Avenue Hassan II", "Rue Atlas",
      "Boulevard de la Marche Verte", "Rue Taourirt"
    ],
    "Settat": [
      "Boulevard Mohammed V", "Avenue Hassan II",
      "Rue du Commerce", "Avenue Bir Anzarane",
      "Boulevard de la Résistance", "Rue du Souk",
      "Avenue des FAR", "Rue Moulay Youssef",
      "Boulevard de l'Indépendance", "Rue Zerktouni"
    ],
    "Larache": [
      "Avenue Mohammed V", "Boulevard Hassan II",
      "Rue de la Kasbah", "Avenue Moulay Ismail",
      "Boulevard de la Corniche", "Rue du Port",
      "Rue Bab El Bahr", "Avenue Moulay El Mehdi",
      "Rue des Mérinides", "Boulevard de l'Océan"
    ],
    "Guelmim": [
      "Boulevard Mohammed V", "Avenue Hassan II",
      "Rue du Souk", "Avenue de la Marche Verte",
      "Boulevard des FAR", "Rue de Tan-Tan",
      "Avenue Moulay Rachid", "Rue du Commerce",
      "Boulevard de l'Unité", "Rue de l'Oasis"
    ],
    "Ifrane": [
      "Avenue Hassan II", "Boulevard Mohammed V",
      "Rue de la Forêt", "Avenue Moulay Abdallah",
      "Boulevard du Moyen Atlas", "Rue des Cèdres",
      "Avenue Al Akhawayn", "Rue du Lac",
      "Boulevard Prince Moulay Rachid", "Rue de Michlifen"
    ],
    "Dakhla": [
      "Boulevard Mohammed V", "Avenue Hassan II",
      "Boulevard de la Corniche", "Rue du Port",
      "Avenue des FAR", "Boulevard de la Marche Verte",
      "Rue de la Baie", "Avenue Moulay Rachid",
      "Boulevard de l'Unité", "Rue du Lagon"
    ],
    "Tiznit": [
      "Boulevard Mohammed V", "Avenue Hassan II",
      "Rue du Souk", "Avenue de la Marche Verte",
      "Rue Mechouar", "Boulevard des Remparts",
      "Rue de la Source Bleue", "Avenue des FAR",
      "Rue Bab Aglou", "Boulevard de l'Indépendance"
    ],
    "Taroudant": [
      "Boulevard Mohammed V", "Avenue Hassan II",
      "Rue du Souk", "Avenue Moulay Ismail",
      "Boulevard des Remparts", "Rue Assarag",
      "Avenue de la Kasbah", "Rue Bab El Kasbah",
      "Boulevard de la Résistance", "Rue Talmoklate"
    ]
  },
  "postcode_format": "#####",
  "address_formats": [
    "{building_number}, {street}, {city} {postcode}",
    "{street} {building_number}, {postcode} {city}"
  ],
  "country": "Morocco",
  "country_code": "MA",
  "phone_area_codes": {
    "Casablanca-Settat": ["522"],
    "Rabat-Salé-Kénitra": ["537"],
    "Marrakech-Safi": ["524"],
    "Fès-Meknès": ["535"],
    "Tanger-Tétouan-Al Hoceïma": ["539"],
    "Souss-Massa": ["528"],
    "Oriental": ["536"],
    "Béni Mellal-Khénifra": ["523"],
    "Drâa-Tafilalet": ["535"],
    "Guelmim-Oued Noun": ["528"],
    "Dakhla-Oued Ed-Dahab": ["528"]
  },
  "phone_format": "+212 {area_code} ######"
}
