{
  "locations": [
    {
      "city": "London",
      "state": "Greater London",
      "state_abbr": "GL",
      "postcode_prefix": "EC",
      "lat_min": 51.45,
      "lat_max": 51.55,
      "lon_min": -0.15,
      "lon_max": 0.05
    },
    {
      "city": "Westminster",
      "state": "Greater London",
      "state_abbr": "GL",
      "postcode_prefix": "SW",
      "lat_min": 51.48,
      "lat_max": 51.52,
      "lon_min": -0.18,
      "lon_max": -0.1
    },
    {
      "city": "Camden",
      "state": "Greater London",
      "state_abbr": "GL",
      "postcode_prefix": "NW",
      "lat_min": 51.52,
      "lat_max": 51.57,
      "lon_min": -0.2,
      "lon_max": -0.12
    },
    {
      "city": "Islington",
      "state": "Greater London",
      "state_abbr": "GL",
      "postcode_prefix": "N",
      "lat_min": 51.53,
      "lat_max": 51.57,
      "lon_min": -0.13,
      "lon_max": -0.08
    },
    {
      "city": "Hackney",
      "state": "Greater London",
      "state_abbr": "GL",
      "postcode_prefix": "E",
      "lat_min": 51.53,
      "lat_max": 51.58,
      "lon_min": -0.08,
      "lon_max": 0.0
    },
    {
      "city": "Tower Hamlets",
      "state": "Greater London",
      "state_abbr": "GL",
      "postcode_prefix": "E",
      "lat_min": 51.5,
      "lat_max": 51.53,
      "lon_min": -0.05,
      "lon_max": 0.02
    },
    {
      "city": "Greenwich",
      "state": "Greater London",
      "state_abbr": "GL",
      "postcode_prefix": "SE",
      "lat_min": 51.47,
      "lat_max": 51.5,
      "lon_min": -0.02,
      "lon_max": 0.1
    },
    {
      "city": "Lewisham",
      "state": "Greater London",
      "state_abbr": "GL",
      "postcode_prefix": "SE",
      "lat_min": 51.43,
      "lat_max": 51.47,
      "lon_min": -0.05,
      "lon_max": 0.02
    },
    {
      "city": "Southwark",
      "state": "Greater London",
      "state_abbr": "GL",
      "postcode_prefix": "SE",
      "lat_min": 51.47,
      "lat_max": 51.5,
      "lon_min": -0.1,
      "lon_max": -0.02
    },
    {
      "city": "Lambeth",
      "state": "Greater London",
      "state_abbr": "GL",
      "postcode_prefix": "SW",
      "lat_min": 51.45,
      "lat_max": 51.5,
      "lon_min": -0.13,
      "lon_max": -0.08
    },
    {
      "city": "Wandsworth",
      "state": "Greater London",
      "state_abbr": "GL",
      "postcode_prefix": "SW",
      "lat_min": 51.43,
      "lat_max": 51.47,
      "lon_min": -0.22,
      "lon_max": -0.13
    },
    {
      "city": "Hammersmith",
      "state": "Greater London",
      "state_abbr": "GL",
      "postcode_prefix": "W",
      "lat_min": 51.48,
      "lat_max": 51.52,
      "lon_min": -0.25,
      "lon_max": -0.18
    },
    {
      "city": "Kensington",
      "state": "Greater London",
      "state_abbr": "GL",
      "postcode_prefix": "W",
      "lat_min": 51.49,
      "lat_max": 51.52,
      "lon_min": -0.22,
      "lon_max": -0.15
    },
    {
      "city": "Richmond",
      "state": "Greater London",
      "state_abbr": "GL",
      "postcode_prefix": "TW",
      "lat_min": 51.43,
      "lat_max": 51.48,
      "lon_min": -0.35,
      "lon_max": -0.25
    },
    {
      "city": "Kingston upon Thames",
      "state": "Greater London",
      "state_abbr": "GL",
      "postcode_prefix": "KT",
      "lat_min": 51.38,
      "lat_max": 51.43,
      "lon_min": -0.32,
      "lon_max": -0.25
    },
    {
      "city": "Croydon",
      "state": "Greater London",
      "state_abbr": "GL",
      "postcode_prefix": "CR",
      "lat_min": 51.35,
      "lat_max": 51.4,
      "lon_min": -0.12,
      "lon_max": -0.02
    },
    {
      "city": "Bromley",
      "state": "Greater London",
      "state_abbr": "GL",
      "postcode_prefix": "BR",
      "lat_min": 51.38,
      "lat_max": 51.43,
      "lon_min": 0.0,
      "lon_max": 0.1
    },
    {
      "city": "Barnet",
      "state": "Greater London",
      "state_abbr": "GL",
      "postcode_prefix": "EN",
      "lat_min": 51.58,
      "lat_max": 51.67,
      "lon_min": -0.25,
      "lon_max": -0.1
    },
    {
      "city": "Enfield",
      "state": "Greater London",
      "state_abbr": "GL",
      "postcode_prefix": "EN",
      "lat_min": 51.63,
      "lat_max": 51.7,
      "lon_min": -0.12,
      "lon_max": 0.0
    },
    {
      "city": "Ealing",
      "state": "Greater London",
      "state_abbr": "GL",
      "postcode_prefix": "W",
      "lat_min": 51.5,
      "lat_max": 51.55,
      "lon_min": -0.35,
      "lon_max": -0.25
    },
    {
      "city": "Birmingham",
      "state": "West Midlands",
      "state_abbr": "WM",
      "postcode_prefix": "B",
      "lat_min": 52.43,
      "lat_max": 52.53,
      "lon_min": -1.95,
      "lon_max": -1.8
    },
    {
      "city": "Coventry",
      "state": "West Midlands",
      "state_abbr": "WM",
      "postcode_prefix": "CV",
      "lat_min": 52.38,
      "lat_max": 52.45,
      "lon_min": -1.55,
      "lon_max": -1.45
    },
    {
      "city": "Wolverhampton",
      "state": "West Midlands",
      "state_abbr": "WM",
      "postcode_prefix": "WV",
      "lat_min": 52.55,
      "lat_max": 52.62,
      "lon_min": -2.15,
      "lon_max": -2.05
    },
    {
      "city": "Solihull",
      "state": "West Midlands",
      "state_abbr": "WM",
      "postcode_prefix": "B",
      "lat_min": 52.4,
      "lat_max": 52.45,
      "lon_min": -1.8,
      "lon_max": -1.7
    },
    {
      "city": "Dudley",
      "state": "West Midlands",
      "state_abbr": "WM",
      "postcode_prefix": "DY",
      "lat_min": 52.5,
      "lat_max": 52.55,
      "lon_min": -2.12,
      "lon_max": -2.02
    },
    {
      "city": "Walsall",
      "state": "West Midlands",
      "state_abbr": "WM",
      "postcode_prefix": "WS",
      "lat_min": 52.55,
      "lat_max": 52.62,
      "lon_min": -2.0,
      "lon_max": -1.9
    },
    {
      "city": "Manchester",
      "state": "Greater Manchester",
      "state_abbr": "GM",
      "postcode_prefix": "M",
      "lat_min": 53.45,
      "lat_max": 53.52,
      "lon_min": -2.28,
      "lon_max": -2.18
    },
    {
      "city": "Salford",
      "state": "Greater Manchester",
      "state_abbr": "GM",
      "postcode_prefix": "M",
      "lat_min": 53.47,
      "lat_max": 53.53,
      "lon_min": -2.35,
      "lon_max": -2.25
    },
    {
      "city": "Bolton",
      "state": "Greater Manchester",
      "state_abbr": "GM",
      "postcode_prefix": "BL",
      "lat_min": 53.55,
      "lat_max": 53.62,
      "lon_min": -2.48,
      "lon_max": -2.38
    },
    {
      "city": "Stockport",
      "state": "Greater Manchester",
      "state_abbr": "GM",
      "postcode_prefix": "SK",
      "lat_min": 53.38,
      "lat_max": 53.43,
      "lon_min": -2.18,
      "lon_max": -2.08
    },
    {
      "city": "Oldham",
      "state": "Greater Manchester",
      "state_abbr": "GM",
      "postcode_prefix": "OL",
      "lat_min": 53.53,
      "lat_max": 53.58,
      "lon_min": -2.15,
      "lon_max": -2.05
    },
    {
      "city": "Rochdale",
      "state": "Greater Manchester",
      "state_abbr": "GM",
      "postcode_prefix": "OL",
      "lat_min": 53.6,
      "lat_max": 53.65,
      "lon_min": -2.18,
      "lon_max": -2.08
    },
    {
      "city": "Bury",
      "state": "Greater Manchester",
      "state_abbr": "GM",
      "postcode_prefix": "BL",
      "lat_min": 53.58,
      "lat_max": 53.63,
      "lon_min": -2.32,
      "lon_max": -2.22
    },
    {
      "city": "Wigan",
      "state": "Greater Manchester",
      "state_abbr": "GM",
      "postcode_prefix": "WN",
      "lat_min": 53.53,
      "lat_max": 53.58,
      "lon_min": -2.65,
      "lon_max": -2.55
    },
    {
      "city": "Tameside",
      "state": "Greater Manchester",
      "state_abbr": "GM",
      "postcode_prefix": "SK",
      "lat_min": 53.45,
      "lat_max": 53.52,
      "lon_min": -2.1,
      "lon_max": -2.0
    },
    {
      "city": "Liverpool",
      "state": "Merseyside",
      "state_abbr": "MS",
      "postcode_prefix": "L",
      "lat_min": 53.38,
      "lat_max": 53.45,
      "lon_min": -3.02,
      "lon_max": -2.9
    },
    {
      "city": "Wirral",
      "state": "Merseyside",
      "state_abbr": "MS",
      "postcode_prefix": "CH",
      "lat_min": 53.33,
      "lat_max": 53.42,
      "lon_min": -3.15,
      "lon_max": -3.0
    },
    {
      "city": "Sefton",
      "state": "Merseyside",
      "state_abbr": "MS",
      "postcode_prefix": "L",
      "lat_min": 53.48,
      "lat_max": 53.55,
      "lon_min": -3.05,
      "lon_max": -2.95
    },
    {
      "city": "Knowsley",
      "state": "Merseyside",
      "state_abbr": "MS",
      "postcode_prefix": "L",
      "lat_min": 53.43,
      "lat_max": 53.48,
      "lon_min": -2.88,
      "lon_max": -2.78
    },
    {
      "city": "St Helens",
      "state": "Merseyside",
      "state_abbr": "MS",
      "postcode_prefix": "WA",
      "lat_min": 53.43,
      "lat_max": 53.48,
      "lon_min": -2.75,
      "lon_max": -2.65
    },
    {
      "city": "Leeds",
      "state": "West Yorkshire",
      "state_abbr": "WY",
      "postcode_prefix": "LS",
      "lat_min": 53.78,
      "lat_max": 53.85,
      "lon_min": -1.6,
      "lon_max": -1.5
    },
    {
      "city": "Bradford",
      "state": "West Yorkshire",
      "state_abbr": "WY",
      "postcode_prefix": "BD",
      "lat_min": 53.78,
      "lat_max": 53.83,
      "lon_min": -1.8,
      "lon_max": -1.7
    },
    {
      "city": "Wakefield",
      "state": "West Yorkshire",
      "state_abbr": "WY",
      "postcode_prefix": "WF",
      "lat_min": 53.67,
      "lat_max": 53.72,
      "lon_min": -1.52,
      "lon_max": -1.42
    },
    {
      "city": "Huddersfield",
      "state": "West Yorkshire",
      "state_abbr": "WY",
      "postcode_prefix": "HD",
      "lat_min": 53.63,
      "lat_max": 53.68,
      "lon_min": -1.82,
      "lon_max": -1.72
    },
    {
      "city": "Halifax",
      "state": "West Yorkshire",
      "state_abbr": "WY",
      "postcode_prefix": "HX",
      "lat_min": 53.7,
      "lat_max": 53.75,
      "lon_min": -1.9,
      "lon_max": -1.8
    },
    {
      "city": "Sheffield",
      "state": "South Yorkshire",
      "state_abbr": "SY",
      "postcode_prefix": "S",
      "lat_min": 53.35,
      "lat_max": 53.42,
      "lon_min": -1.52,
      "lon_max": -1.42
    },
    {
      "city": "Doncaster",
      "state": "South Yorkshire",
      "state_abbr": "SY",
      "postcode_prefix": "DN",
      "lat_min": 53.5,
      "lat_max": 53.55,
      "lon_min": -1.15,
      "lon_max": -1.05
    },
    {
      "city": "Rotherham",
      "state": "South Yorkshire",
      "state_abbr": "SY",
      "postcode_prefix": "S",
      "lat_min": 53.42,
      "lat_max": 53.47,
      "lon_min": -1.38,
      "lon_max": -1.28
    },
    {
      "city": "Barnsley",
      "state": "South Yorkshire",
      "state_abbr": "SY",
      "postcode_prefix": "S",
      "lat_min": 53.53,
      "lat_max": 53.58,
      "lon_min": -1.5,
      "lon_max": -1.4
    },
    {
      "city": "Newcastle upon Tyne",
      "state": "Tyne and Wear",
      "state_abbr": "TW",
      "postcode_prefix": "NE",
      "lat_min": 54.95,
      "lat_max": 55.02,
      "lon_min": -1.68,
      "lon_max": -1.55
    },
    {
      "city": "Gateshead",
      "state": "Tyne and Wear",
      "state_abbr": "TW",
      "postcode_prefix": "NE",
      "lat_min": 54.93,
      "lat_max": 54.98,
      "lon_min": -1.65,
      "lon_max": -1.55
    },
    {
      "city": "Sunderland",
      "state": "Tyne and Wear",
      "state_abbr": "TW",
      "postcode_prefix": "SR",
      "lat_min": 54.88,
      "lat_max": 54.93,
      "lon_min": -1.42,
      "lon_max": -1.32
    },
    {
      "city": "South Shields",
      "state": "Tyne and Wear",
      "state_abbr": "TW",
      "postcode_prefix": "NE",
      "lat_min": 54.98,
      "lat_max": 55.02,
      "lon_min": -1.48,
      "lon_max": -1.38
    },
    {
      "city": "North Shields",
      "state": "Tyne and Wear",
      "state_abbr": "TW",
      "postcode_prefix": "NE",
      "lat_min": 55.0,
      "lat_max": 55.05,
      "lon_min": -1.48,
      "lon_max": -1.4
    },
    {
      "city": "Bristol",
      "state": "Bristol",
      "state_abbr": "BS",
      "postcode_prefix": "BS",
      "lat_min": 51.43,
      "lat_max": 51.5,
      "lon_min": -2.65,
      "lon_max": -2.52
    },
    {
      "city": "Clifton",
      "state": "Bristol",
      "state_abbr": "BS",
      "postcode_prefix": "BS",
      "lat_min": 51.45,
      "lat_max": 51.48,
      "lon_min": -2.63,
      "lon_max": -2.58
    },
    {
      "city": "Leicester",
      "state": "Leicestershire",
      "state_abbr": "LE",
      "postcode_prefix": "LE",
      "lat_min": 52.6,
      "lat_max": 52.67,
      "lon_min": -1.18,
      "lon_max": -1.08
    },
    {
      "city": "Loughborough",
      "state": "Leicestershire",
      "state_abbr": "LE",
      "postcode_prefix": "LE",
      "lat_min": 52.75,
      "lat_max": 52.8,
      "lon_min": -1.25,
      "lon_max": -1.18
    },
    {
      "city": "Nottingham",
      "state": "Nottinghamshire",
      "state_abbr": "NG",
      "postcode_prefix": "NG",
      "lat_min": 52.93,
      "lat_max": 53.0,
      "lon_min": -1.2,
      "lon_max": -1.1
    },
    {
      "city": "Derby",
      "state": "Derbyshire",
      "state_abbr": "DE",
      "postcode_prefix": "DE",
      "lat_min": 52.9,
      "lat_max": 52.95,
      "lon_min": -1.5,
      "lon_max": -1.42
    },
    {
      "city": "Chesterfield",
      "state": "Derbyshire",
      "state_abbr": "DE",
      "postcode_prefix": "S",
      "lat_min": 53.22,
      "lat_max": 53.27,
      "lon_min": -1.45,
      "lon_max": -1.38
    },
    {
      "city": "Southampton",
      "state": "Hampshire",
      "state_abbr": "HA",
      "postcode_prefix": "SO",
      "lat_min": 50.88,
      "lat_max": 50.95,
      "lon_min": -1.45,
      "lon_max": -1.35
    },
    {
      "city": "Portsmouth",
      "state": "Hampshire",
      "state_abbr": "HA",
      "postcode_prefix": "PO",
      "lat_min": 50.78,
      "lat_max": 50.85,
      "lon_min": -1.12,
      "lon_max": -1.02
    },
    {
      "city": "Winchester",
      "state": "Hampshire",
      "state_abbr": "HA",
      "postcode_prefix": "SO",
      "lat_min": 51.05,
      "lat_max": 51.08,
      "lon_min": -1.35,
      "lon_max": -1.28
    },
    {
      "city": "Basingstoke",
      "state": "Hampshire",
      "state_abbr": "HA",
      "postcode_prefix": "RG",
      "lat_min": 51.25,
      "lat_max": 51.28,
      "lon_min": -1.12,
      "lon_max": -1.05
    },
    {
      "city": "Plymouth",
      "state": "Devon",
      "state_abbr": "DV",
      "postcode_prefix": "PL",
      "lat_min": 50.35,
      "lat_max": 50.42,
      "lon_min": -4.18,
      "lon_max": -4.08
    },
    {
      "city": "Exeter",
      "state": "Devon",
      "state_abbr": "DV",
      "postcode_prefix": "EX",
      "lat_min": 50.7,
      "lat_max": 50.75,
      "lon_min": -3.55,
      "lon_max": -3.48
    },
    {
      "city": "Torquay",
      "state": "Devon",
      "state_abbr": "DV",
      "postcode_prefix": "TQ",
      "lat_min": 50.45,
      "lat_max": 50.5,
      "lon_min": -3.55,
      "lon_max": -3.48
    },
    {
      "city": "Norwich",
      "state": "Norfolk",
      "state_abbr": "NF",
      "postcode_prefix": "NR",
      "lat_min": 52.62,
      "lat_max": 52.67,
      "lon_min": 1.25,
      "lon_max": 1.35
    },
    {
      "city": "Cambridge",
      "state": "Cambridgeshire",
      "state_abbr": "CB",
      "postcode_prefix": "CB",
      "lat_min": 52.18,
      "lat_max": 52.23,
      "lon_min": 0.1,
      "lon_max": 0.15
    },
    {
      "city": "Peterborough",
      "state": "Cambridgeshire",
      "state_abbr": "CB",
      "postcode_prefix": "PE",
      "lat_min": 52.55,
      "lat_max": 52.6,
      "lon_min": -0.28,
      "lon_max": -0.2
    },
    {
      "city": "Oxford",
      "state": "Oxfordshire",
      "state_abbr": "OX",
      "postcode_prefix": "OX",
      "lat_min": 51.73,
      "lat_max": 51.78,
      "lon_min": -1.28,
      "lon_max": -1.22
    },
    {
      "city": "Reading",
      "state": "Berkshire",
      "state_abbr": "BK",
      "postcode_prefix": "RG",
      "lat_min": 51.43,
      "lat_max": 51.48,
      "lon_min": -1.02,
      "lon_max": -0.95
    },
    {
      "city": "Slough",
      "state": "Berkshire",
      "state_abbr": "BK",
      "postcode_prefix": "SL",
      "lat_min": 51.5,
      "lat_max": 51.53,
      "lon_min": -0.62,
      "lon_max": -0.55
    },
    {
      "city": "Maidenhead",
      "state": "Berkshire",
      "state_abbr": "BK",
      "postcode_prefix": "SL",
      "lat_min": 51.52,
      "lat_max": 51.55,
      "lon_min": -0.75,
      "lon_max": -0.68
    },
    {
      "city": "Brighton",
      "state": "East Sussex",
      "state_abbr": "ES",
      "postcode_prefix": "BN",
      "lat_min": 50.82,
      "lat_max": 50.87,
      "lon_min": -0.15,
      "lon_max": -0.08
    },
    {
      "city": "Hove",
      "state": "East Sussex",
      "state_abbr": "ES",
      "postcode_prefix": "BN",
      "lat_min": 50.82,
      "lat_max": 50.85,
      "lon_min": -0.2,
      "lon_max": -0.13
    },
    {
      "city": "Eastbourne",
      "state": "East Sussex",
      "state_abbr": "ES",
      "postcode_prefix": "BN",
      "lat_min": 50.75,
      "lat_max": 50.8,
      "lon_min": 0.25,
      "lon_max": 0.32
    },
    {
      "city": "Guildford",
      "state": "Surrey",
      "state_abbr": "SU",
      "postcode_prefix": "GU",
      "lat_min": 51.23,
      "lat_max": 51.27,
      "lon_min": -0.6,
      "lon_max": -0.53
    },
    {
      "city": "Woking",
      "state": "Surrey",
      "state_abbr": "SU",
      "postcode_prefix": "GU",
      "lat_min": 51.3,
      "lat_max": 51.33,
      "lon_min": -0.58,
      "lon_max": -0.53
    },
    {
      "city": "Epsom",
      "state": "Surrey",
      "state_abbr": "SU",
      "postcode_prefix": "KT",
      "lat_min": 51.33,
      "lat_max": 51.35,
      "lon_min": -0.28,
      "lon_max": -0.23
    },
    {
      "city": "Luton",
      "state": "Bedfordshire",
      "state_abbr": "BD",
      "postcode_prefix": "LU",
      "lat_min": 51.87,
      "lat_max": 51.92,
      "lon_min": -0.45,
      "lon_max": -0.38
    },
    {
      "city": "Bedford",
      "state": "Bedfordshire",
      "state_abbr": "BD",
      "postcode_prefix": "MK",
      "lat_min": 52.12,
      "lat_max": 52.17,
      "lon_min": -0.48,
      "lon_max": -0.42
    },
    {
      "city": "Milton Keynes",
      "state": "Buckinghamshire",
      "state_abbr": "BU",
      "postcode_prefix": "MK",
      "lat_min": 52.0,
      "lat_max": 52.08,
      "lon_min": -0.82,
      "lon_max": -0.7
    },
    {
      "city": "Aylesbury",
      "state": "Buckinghamshire",
      "state_abbr": "BU",
      "postcode_prefix": "HP",
      "lat_min": 51.8,
      "lat_max": 51.83,
      "lon_min": -0.85,
      "lon_max": -0.8
    },
    {
      "city": "High Wycombe",
      "state": "Buckinghamshire",
      "state_abbr": "BU",
      "postcode_prefix": "HP",
      "lat_min": 51.62,
      "lat_max": 51.65,
      "lon_min": -0.78,
      "lon_max": -0.73
    },
    {
      "city": "Northampton",
      "state": "Northamptonshire",
      "state_abbr": "NH",
      "postcode_prefix": "NN",
      "lat_min": 52.22,
      "lat_max": 52.27,
      "lon_min": -0.92,
      "lon_max": -0.85
    },
    {
      "city": "Swindon",
      "state": "Wiltshire",
      "state_abbr": "WI",
      "postcode_prefix": "SN",
      "lat_min": 51.55,
      "lat_max": 51.6,
      "lon_min": -1.82,
      "lon_max": -1.75
    },
    {
      "city": "Salisbury",
      "state": "Wiltshire",
      "state_abbr": "WI",
      "postcode_prefix": "SP",
      "lat_min": 51.05,
      "lat_max": 51.08,
      "lon_min": -1.82,
      "lon_max": -1.78
    },
    {
      "city": "Bath",
      "state": "Somerset",
      "state_abbr": "SM",
      "postcode_prefix": "BA",
      "lat_min": 51.37,
      "lat_max": 51.42,
      "lon_min": -2.4,
      "lon_max": -2.33
    },
    {
      "city": "Taunton",
      "state": "Somerset",
      "state_abbr": "SM",
      "postcode_prefix": "TA",
      "lat_min": 51.0,
      "lat_max": 51.03,
      "lon_min": -3.12,
      "lon_max": -3.08
    },
    {
      "city": "Bournemouth",
      "state": "Dorset",
      "state_abbr": "DO",
      "postcode_prefix": "BH",
      "lat_min": 50.7,
      "lat_max": 50.75,
      "lon_min": -1.9,
      "lon_max": -1.82
    },
    {
      "city": "Poole",
      "state": "Dorset",
      "state_abbr": "DO",
      "postcode_prefix": "BH",
      "lat_min": 50.7,
      "lat_max": 50.75,
      "lon_min": -2.0,
      "lon_max": -1.92
    },
    {
      "city": "Gloucester",
      "state": "Gloucestershire",
      "state_abbr": "GL",
      "postcode_prefix": "GL",
      "lat_min": 51.85,
      "lat_max": 51.88,
      "lon_min": -2.27,
      "lon_max": -2.22
    },
    {
      "city": "Cheltenham",
      "state": "Gloucestershire",
      "state_abbr": "GL",
      "postcode_prefix": "GL",
      "lat_min": 51.88,
      "lat_max": 51.92,
      "lon_min": -2.1,
      "lon_max": -2.05
    },
    {
      "city": "Worcester",
      "state": "Worcestershire",
      "state_abbr": "WO",
      "postcode_prefix": "WR",
      "lat_min": 52.18,
      "lat_max": 52.22,
      "lon_min": -2.25,
      "lon_max": -2.18
    },
    {
      "city": "Hereford",
      "state": "Herefordshire",
      "state_abbr": "HE",
      "postcode_prefix": "HR",
      "lat_min": 52.05,
      "lat_max": 52.08,
      "lon_min": -2.75,
      "lon_max": -2.7
    },
    {
      "city": "Stoke-on-Trent",
      "state": "Staffordshire",
      "state_abbr": "ST",
      "postcode_prefix": "ST",
      "lat_min": 53.0,
      "lat_max": 53.05,
      "lon_min": -2.2,
      "lon_max": -2.12
    },
    {
      "city": "Stafford",
      "state": "Staffordshire",
      "state_abbr": "ST",
      "postcode_prefix": "ST",
      "lat_min": 52.8,
      "lat_max": 52.83,
      "lon_min": -2.15,
      "lon_max": -2.1
    },
    {
      "city": "Chester",
      "state": "Cheshire",
      "state_abbr": "CH",
      "postcode_prefix": "CH",
      "lat_min": 53.18,
      "lat_max": 53.22,
      "lon_min": -2.92,
      "lon_max": -2.87
    },
    {
      "city": "Warrington",
      "state": "Cheshire",
      "state_abbr": "CH",
      "postcode_prefix": "WA",
      "lat_min": 53.38,
      "lat_max": 53.42,
      "lon_min": -2.62,
      "lon_max": -2.55
    },
    {
      "city": "Crewe",
      "state": "Cheshire",
      "state_abbr": "CH",
      "postcode_prefix": "CW",
      "lat_min": 53.08,
      "lat_max": 53.12,
      "lon_min": -2.48,
      "lon_max": -2.42
    },
    {
      "city": "Macclesfield",
      "state": "Cheshire",
      "state_abbr": "CH",
      "postcode_prefix": "SK",
      "lat_min": 53.25,
      "lat_max": 53.28,
      "lon_min": -2.15,
      "lon_max": -2.1
    },
    {
      "city": "Lancaster",
      "state": "Lancashire",
      "state_abbr": "LA",
      "postcode_prefix": "LA",
      "lat_min": 54.03,
      "lat_max": 54.07,
      "lon_min": -2.82,
      "lon_max": -2.78
    },
    {
      "city": "Blackpool",
      "state": "Lancashire",
      "state_abbr": "LA",
      "postcode_prefix": "FY",
      "lat_min": 53.8,
      "lat_max": 53.85,
      "lon_min": -3.08,
      "lon_max": -3.02
    },
    {
      "city": "Preston",
      "state": "Lancashire",
      "state_abbr": "LA",
      "postcode_prefix": "PR",
      "lat_min": 53.75,
      "lat_max": 53.78,
      "lon_min": -2.72,
      "lon_max": -2.68
    },
    {
      "city": "Blackburn",
      "state": "Lancashire",
      "state_abbr": "LA",
      "postcode_prefix": "BB",
      "lat_min": 53.73,
      "lat_max": 53.77,
      "lon_min": -2.5,
      "lon_max": -2.45
    },
    {
      "city": "Burnley",
      "state": "Lancashire",
      "state_abbr": "LA",
      "postcode_prefix": "BB",
      "lat_min": 53.78,
      "lat_max": 53.82,
      "lon_min": -2.28,
      "lon_max": -2.22
    },
    {
      "city": "Carlisle",
      "state": "Cumbria",
      "state_abbr": "CU",
      "postcode_prefix": "CA",
      "lat_min": 54.88,
      "lat_max": 54.92,
      "lon_min": -2.95,
      "lon_max": -2.9
    },
    {
      "city": "Kendal",
      "state": "Cumbria",
      "state_abbr": "CU",
      "postcode_prefix": "LA",
      "lat_min": 54.32,
      "lat_max": 54.35,
      "lon_min": -2.77,
      "lon_max": -2.73
    },
    {
      "city": "Barrow-in-Furness",
      "state": "Cumbria",
      "state_abbr": "CU",
      "postcode_prefix": "LA",
      "lat_min": 54.1,
      "lat_max": 54.13,
      "lon_min": -3.25,
      "lon_max": -3.2
    },
    {
      "city": "York",
      "state": "North Yorkshire",
      "state_abbr": "NY",
      "postcode_prefix": "YO",
      "lat_min": 53.95,
      "lat_max": 54.0,
      "lon_min": -1.12,
      "lon_max": -1.05
    },
    {
      "city": "Harrogate",
      "state": "North Yorkshire",
      "state_abbr": "NY",
      "postcode_prefix": "HG",
      "lat_min": 53.98,
      "lat_max": 54.02,
      "lon_min": -1.55,
      "lon_max": -1.5
    },
    {
      "city": "Scarborough",
      "state": "North Yorkshire",
      "state_abbr": "NY",
      "postcode_prefix": "YO",
      "lat_min": 54.27,
      "lat_max": 54.3,
      "lon_min": -0.42,
      "lon_max": -0.38
    },
    {
      "city": "Middlesbrough",
      "state": "North Yorkshire",
      "state_abbr": "NY",
      "postcode_prefix": "TS",
      "lat_min": 54.55,
      "lat_max": 54.58,
      "lon_min": -1.25,
      "lon_max": -1.18
    },
    {
      "city": "Darlington",
      "state": "County Durham",
      "state_abbr": "DU",
      "postcode_prefix": "DL",
      "lat_min": 54.52,
      "lat_max": 54.55,
      "lon_min": -1.58,
      "lon_max": -1.53
    },
    {
      "city": "Durham",
      "state": "County Durham",
      "state_abbr": "DU",
      "postcode_prefix": "DH",
      "lat_min": 54.77,
      "lat_max": 54.8,
      "lon_min": -1.6,
      "lon_max": -1.55
    },
    {
      "city": "Hull",
      "state": "East Riding of Yorkshire",
      "state_abbr": "ER",
      "postcode_prefix": "HU",
      "lat_min": 53.73,
      "lat_max": 53.78,
      "lon_min": -0.38,
      "lon_max": -0.3
    },
    {
      "city": "Beverley",
      "state": "East Riding of Yorkshire",
      "state_abbr": "ER",
      "postcode_prefix": "HU",
      "lat_min": 53.83,
      "lat_max": 53.87,
      "lon_min": -0.45,
      "lon_max": -0.4
    },
    {
      "city": "Lincoln",
      "state": "Lincolnshire",
      "state_abbr": "LN",
      "postcode_prefix": "LN",
      "lat_min": 53.22,
      "lat_max": 53.25,
      "lon_min": -0.55,
      "lon_max": -0.5
    },
    {
      "city": "Grimsby",
      "state": "Lincolnshire",
      "state_abbr": "LN",
      "postcode_prefix": "DN",
      "lat_min": 53.55,
      "lat_max": 53.58,
      "lon_min": -0.1,
      "lon_max": -0.05
    },
    {
      "city": "Scunthorpe",
      "state": "Lincolnshire",
      "state_abbr": "LN",
      "postcode_prefix": "DN",
      "lat_min": 53.58,
      "lat_max": 53.62,
      "lon_min": -0.68,
      "lon_max": -0.62
    },
    {
      "city": "Ipswich",
      "state": "Suffolk",
      "state_abbr": "SF",
      "postcode_prefix": "IP",
      "lat_min": 52.05,
      "lat_max": 52.08,
      "lon_min": 1.13,
      "lon_max": 1.18
    },
    {
      "city": "Colchester",
      "state": "Essex",
      "state_abbr": "EX",
      "postcode_prefix": "CO",
      "lat_min": 51.88,
      "lat_max": 51.92,
      "lon_min": 0.88,
      "lon_max": 0.93
    },
    {
      "city": "Chelmsford",
      "state": "Essex",
      "state_abbr": "EX",
      "postcode_prefix": "CM",
      "lat_min": 51.73,
      "lat_max": 51.77,
      "lon_min": 0.45,
      "lon_max": 0.5
    },
    {
      "city": "Southend-on-Sea",
      "state": "Essex",
      "state_abbr": "EX",
      "postcode_prefix": "SS",
      "lat_min": 51.53,
      "lat_max": 51.57,
      "lon_min": 0.68,
      "lon_max": 0.75
    },
    {
      "city": "Basildon",
      "state": "Essex",
      "state_abbr": "EX",
      "postcode_prefix": "SS",
      "lat_min": 51.55,
      "lat_max": 51.58,
      "lon_min": 0.43,
      "lon_max": 0.48
    },
    {
      "city": "Watford",
      "state": "Hertfordshire",
      "state_abbr": "HT",
      "postcode_prefix": "WD",
      "lat_min": 51.65,
      "lat_max": 51.68,
      "lon_min": -0.42,
      "lon_max": -0.38
    },
    {
      "city": "St Albans",
      "state": "Hertfordshire",
      "state_abbr": "HT",
      "postcode_prefix": "AL",
      "lat_min": 51.75,
      "lat_max": 51.77,
      "lon_min": -0.35,
      "lon_max": -0.3
    },
    {
      "city": "Stevenage",
      "state": "Hertfordshire",
      "state_abbr": "HT",
      "postcode_prefix": "SG",
      "lat_min": 51.88,
      "lat_max": 51.92,
      "lon_min": -0.22,
      "lon_max": -0.17
    },
    {
      "city": "Hemel Hempstead",
      "state": "Hertfordshire",
      "state_abbr": "HT",
      "postcode_prefix": "HP",
      "lat_min": 51.75,
      "lat_max": 51.78,
      "lon_min": -0.5,
      "lon_max": -0.45
    },
    {
      "city": "Hatfield",
      "state": "Hertfordshire",
      "state_abbr": "HT",
      "postcode_prefix": "AL",
      "lat_min": 51.75,
      "lat_max": 51.78,
      "lon_min": -0.25,
      "lon_max": -0.2
    }
  ],
  "streets_by_city": {
    "London": [
      "Abbey Road",
      "Alexandra Lane",
      "Alexandra Square",
      "Ash Parade",
      "Baker Street",
      "Bond Street",
      "Brick Lane",
      "Bridge Place",
      "Bridge Way",
      "Carnaby Street",
      "Castle Avenue",
      "Castle Place",
      "Church Lane",
      "Cross Terrace",
      "Edward Lane",
      "Elm Road",
      "Farm Way",
      "Fleet Street",
      "Garden Avenue",
      "Garden Court",
      "George Place",
      "Green Street",
      "Kings Road",
      "Manor Square",
      "Manor Terrace",
      "New Way",
      "North Court",
      "Oak Court",
      "Old Hill",
      "Old Rise",
      "Old Terrace",
      "Orchard Gardens",
      "Orchard Way",
      "Oxford Street",
      "Pall Mall",
      "Piccadilly",
      "Pine Street",
      "Portobello Road",
      "Prince Court",
      "Prince Street",
      "Princess Lane",
      "Regent Street",
      "School Close",
      "South Avenue",
      "South Drive",
      "Spring Lane",
      "Spring Place",
      "Station Court",
      "Station Hill",
      "Strand",
      "The Mall",
      "Victoria Grove",
      "Victoria Parade",
      "Whitehall",
      "Willow Terrace",
      "Cheapside",
      "Park Lane",
      "Kensington High Street",
      "Fulham Road",
      "Sloane Street",
      "Brompton Road",
      "Knightsbridge",
      "Victoria Street",
      "Millbank",
      "Horseferry Road",
      "Vauxhall Bridge Road",
      "Buckingham Palace Road",
      "Birdcage Walk",
      "Great Smith Street",
      "Tottenham Court Road",
      "Charing Cross Road",
      "Shaftesbury Avenue",
      "Drury Lane",
      "Kingsway",
      "High Holborn",
      "Chancery Lane",
      "Fetter Lane",
      "Farringdon Road",
      "Clerkenwell Road",
      "Old Street",
      "City Road",
      "Shoreditch High Street",
      "Bethnal Green Road",
      "Commercial Street",
      "Whitechapel Road",
      "Mile End Road",
      "Bow Road",
      "Roman Road",
      "Edgware Road",
      "Marylebone Road",
      "Euston Road",
      "Pentonville Road",
      "Caledonian Road",
      "Holloway Road",
      "Upper Street",
      "Essex Road",
      "Dalston Lane",
      "Kingsland Road",
      "Hackney Road",
      "Cambridge Heath Road"
    ],
    "Westminster": [
      "Cross Close",
      "Elm Close",
      "Elm Parade",
      "Farm Crescent",
      "Green Drive",
      "Green Gardens",
      "London Way",
      "Meadow Hill",
      "Meadow Place",
      "Meadow Terrace",
      "Mill Court",
      "New Place",
      "North Mews",
      "Orchard Square",
      "Orchard Street",
      "Park Court",
      "Pine Mews",
      "Prince Crescent",
      "Prince Square",
      "Queen Parade",
      "Rose Place",
      "School Hill",
      "School Lane",
      "South Crescent",
      "South Drive",
      "Spring Grove",
      "Station Crescent",
      "Victoria Road",
      "William Avenue",
      "William Rise",
      "William Square",
      "Willow Street"
    ],
    "Camden": [
      "Alexandra Gardens",
      "Ash Avenue",
      "Ash Walk",
      "Birch Street",
      "Cross Gardens",
      "Cross Walk",
      "Duke Court",
      "Farm Lane",
      "George Mews",
      "Green Terrace",
      "King Court",
      "London Square",
      "Meadow Terrace",
      "Mill Drive",
      "New Terrace",
      "North Square",
      "Old Square",
      "Orchard Close",
      "Park Court",
      "Pine Avenue",
      "Pine Close",
      "Queen Walk",
      "Rose Street",
      "School Crescent",
      "School Rise",
      "School Way",
      "Victoria Mews",
      "Windsor Way",
      "Bridge Lane",
      "Church Terrace"
    ],
    "Islington": [
      "Bridge Rise",
      "Castle Street",
      "Farm Mews",
      "Field Square",
      "George Mews",
      "George Rise",
      "King Mews",
      "King Place",
      "London Road",
      "London Walk",
      "Manor Avenue",
      "Mill Parade",
      "North Square",
      "Oak Hill",
      "Oak Way",
      "Park Grove",
      "South Lane",
      "South Parade",
      "South Street",
      "Station Crescent",
      "William Avenue",
      "Windsor Road",
      "Albert Drive",
      "Ash Place",
      "Cedar Terrace",
      "Church Road",
      "Duke Walk",
      "Elm Crescent",
      "Green Lane",
      "Market Rise"
    ],
    "Hackney": [
      "Cedar Walk",
      "Cedar Way",
      "East Way",
      "Edward Square",
      "Garden Hill",
      "Garden Road",
      "George Mews",
      "High Grove",
      "High Lane",
      "King Close",
      "London Hill",
      "London Lane",
      "Manor Court",
      "Market Road",
      "Meadow Road",
      "Mill Rise",
      "New Way",
      "Oak Mews",
      "Old Grove",
      "Orchard Avenue",
      "Park Parade",
      "Park Square",
      "Park Walk",
      "Princess Rise",
      "Princess Way",
      "Queen Hill",
      "Rose Close",
      "Victoria Close",
      "West Place",
      "Willow Court"
    ],
    "Tower Hamlets": [
      "Brook Gardens",
      "Chapel Lane",
      "Chapel Walk",
      "Duke Avenue",
      "Farm Court",
      "Farm Walk",
      "Field Road",
      "Garden Gardens",
      "Garden Way",
      "George Gardens",
      "Green Avenue",
      "High Square",
      "King Place",
      "London Court",
      "London Street",
      "Manor Lane",
      "Market Place",
      "Meadow Avenue",
      "Meadow Drive",
      "Mill Place",
      "Mill Terrace",
      "North Crescent",
      "Oak Parade",
      "Old Hill",
      "Pine Place",
      "Willow Crescent",
      "Willow Parade",
      "Albert Court",
      "Cedar Walk",
      "Elm Hill"
    ],
    "Greenwich": [
      "Alexandra Crescent",
      "Bridge Gardens",
      "Bridge Square",
      "Bridge Way",
      "Brook Parade",
      "Brook Road",
      "Castle Rise",
      "Cedar Court",
      "Church Close",
      "East Hill",
      "Edward Avenue",
      "Edward Drive",
      "Elm Drive",
      "Garden Road",
      "George Avenue",
      "George Court",
      "Green Lane",
      "High Crescent",
      "King Close",
      "Mill Place",
      "New Place",
      "North Place",
      "Oak Drive",
      "Old Hill",
      "Orchard Drive",
      "Orchard Rise",
      "Orchard Street",
      "Pine Mews",
      "Prince Close",
      "Prince Road",
      "Princess Way",
      "Queen Road",
      "Spring Road",
      "Station Gardens",
      "Victoria Rise",
      "West Rise",
      "William Court"
    ],
    "Lewisham": [
      "Albert Walk",
      "Alexandra Rise",
      "Bridge Crescent",
      "Brook Rise",
      "Castle Street",
      "Chapel Crescent",
      "Elm Walk",
      "Farm Way",
      "Garden Way",
      "George Avenue",
      "George Rise",
      "George Way",
      "Green Grove",
      "Green Place",
      "High Walk",
      "London Crescent",
      "Manor Rise",
      "Market Grove",
      "Meadow Crescent",
      "Meadow Square",
      "Pine Gardens",
      "Prince Lane",
      "Prince Terrace",
      "Queen Road",
      "South Street",
      "West Parade",
      "Windsor Gardens",
      "Cedar Court",
      "Farm Hill",
      "King Road"
    ],
    "Southwark": [
      "Albert Street",
      "Ash Way",
      "Birch Grove",
      "Cedar Lane",
      "Chapel Parade",
      "Cross Parade",
      "Duke Gardens",
      "Duke Grove",
      "East Grove",
      "East Rise",
      "Field Crescent",
      "George Crescent",
      "George Grove",
      "King Drive",
      "Manor Rise",
      "New Street",
      "North Rise",
      "Old Lane",
      "Orchard Drive",
      "Orchard Street",
      "Pine Mews",
      "Princess Walk",
      "South Way",
      "Station Court",
      "Victoria Court",
      "William Close",
      "William Gardens",
      "Willow Hill",
      "Willow Rise",
      "London Walk"
    ],
    "Lambeth": [
      "Alexandra Way",
      "Ash Close",
      "Ash Walk",
      "Castle Crescent",
      "Cedar Hill",
      "Cross Court",
      "Cross Place",
      "Edward Drive",
      "Elm Square",
      "Garden Hill",
      "Garden Lane",
      "George Walk",
      "Green Hill",
      "King Place",
      "London Gardens",
      "London Rise",
      "Mill Drive",
      "Mill Hill",
      "Oak Crescent",
      "Orchard Court",
      "Orchard Crescent",
      "Prince Hill",
      "Queen Court",
      "Rose Mews",
      "South Grove",
      "West Walk",
      "Willow Road",
      "Albert Walk",
      "Birch Road",
      "Farm Close"
    ],
    "Wandsworth": [
      "Albert Lane",
      "Albert Road",
      "Birch Court",
      "Birch Street",
      "Bridge Court",
      "Bridge Gardens",
      "Castle Grove",
      "Cedar Street",
      "Chapel Square",
      "Church Court",
      "Church Grove",
      "Farm Grove",
      "Field Parade",
      "Field Street",
      "Garden Road",
      "Garden Square",
      "George Grove",
      "George Street",
      "Market Way",
      "Mill Hill",
      "Oak Grove",
      "Park Way",
      "Prince Rise",
      "Queen Grove",
      "Queen Lane",
      "School Court",
      "Spring Crescent",
      "Spring Rise",
      "Victoria Rise",
      "West Road",
      "Willow Crescent",
      "Willow Drive",
      "Windsor Close"
    ],
    "Hammersmith": [
      "Albert Crescent",
      "Alexandra Drive",
      "Birch Avenue",
      "Bridge Square",
      "Brook Close",
      "Cedar Avenue",
      "Church Drive",
      "Church Gardens",
      "Cross Hill",
      "Edward Court",
      "Elm Close",
      "Elm Terrace",
      "Farm Grove",
      "Farm Road",
      "Farm Way",
      "High Rise",
      "King Drive",
      "London Parade",
      "London Walk",
      "Manor Gardens",
      "Manor Parade",
      "Meadow Way",
      "Old Gardens",
      "School Avenue",
      "William Avenue",
      "Willow Place",
      "Castle Terrace",
      "Duke Lane",
      "North Rise",
      "Orchard Crescent"
    ],
    "Kensington": [
      "Albert Mews",
      "Albert Place",
      "Ash Street",
      "Birch Crescent",
      "Birch Square",
      "Bridge Hill",
      "Bridge Rise",
      "Brook Mews",
      "Castle Street",
      "Cedar Hill",
      "Chapel Square",
      "Duke Parade",
      "Edward Court",
      "Elm Parade",
      "Farm Grove",
      "Green Way",
      "King Hill",
      "King Lane",
      "King Mews",
      "Market Avenue",
      "North Terrace",
      "Orchard Crescent",
      "Orchard Street",
      "Orchard Walk",
      "Prince Crescent",
      "Prince Gardens",
      "Prince Hill",
      "Prince Place",
      "Queen Court",
      "Queen Crescent",
      "Rose Way",
      "South Grove",
      "Victoria Court",
      "Victoria Gardens",
      "West Mews",
      "Windsor Rise"
    ],
    "Richmond": [
      "Alexandra Square",
      "Ash Crescent",
      "Ash Hill",
      "Brook Close",
      "Cedar Mews",
      "Cedar Place",
      "Chapel Avenue",
      "Cross Mews",
      "Cross Road",
      "Duke Parade",
      "Duke Street",
      "East Way",
      "Edward Close",
      "Edward Drive",
      "Elm Gardens",
      "Farm Gardens",
      "Farm Road",
      "Green Lane",
      "Green Square",
      "London Parade",
      "Manor Street",
      "Manor Way",
      "Meadow Mews",
      "Mill Place",
      "New Drive",
      "North Way",
      "Oak Court",
      "Orchard Gardens",
      "Princess Court",
      "Queen Lane",
      "Queen Mews",
      "Rose Gardens",
      "Rose Grove",
      "Station Road",
      "Victoria Court",
      "West Road",
      "Windsor Parade"
    ],
    "Kingston upon Thames": [
      "Albert Drive",
      "Alexandra Gardens",
      "Edward Gardens",
      "Edward Grove",
      "Edward Hill",
      "Edward Mews",
      "Elm Avenue",
      "Garden Court",
      "Garden Mews",
      "George Way",
      "Green Hill",
      "King Close",
      "London Court",
      "London Road",
      "Oak Hill",
      "Old Gardens",
      "Old Street",
      "Orchard Lane",
      "Prince Drive",
      "Prince Walk",
      "Princess Hill",
      "Princess Road",
      "Queen Parade",
      "School Parade",
      "South Gardens",
      "Ash Walk",
      "Bridge Lane",
      "Castle Court",
      "Market Terrace",
      "Mill Avenue"
    ],
    "Croydon": [
      "Ash Mews",
      "Bridge Rise",
      "Castle Crescent",
      "Chapel Mews",
      "Church Lane",
      "Cross Hill",
      "Cross Mews",
      "Elm Crescent",
      "Farm Road",
      "Field Rise",
      "Field Street",
      "George Avenue",
      "High Square",
      "Market Avenue",
      "Market Place",
      "Meadow Walk",
      "Mill Gardens",
      "Oak Mews",
      "Old Crescent",
      "Orchard Road",
      "Park Way",
      "Prince Close",
      "Prince Square",
      "Princess Grove",
      "Rose Hill",
      "Rose Terrace",
      "School Place",
      "South Parade",
      "Victoria Mews",
      "Victoria Road",
      "West Mews",
      "William Place",
      "Willow Lane",
      "Willow Rise"
    ],
    "Bromley": [
      "Albert Drive",
      "Alexandra Close",
      "Birch Gardens",
      "Castle Walk",
      "Cedar Court",
      "Church Court",
      "Duke Square",
      "East Walk",
      "Field Parade",
      "George Mews",
      "High Square",
      "Mill Lane",
      "New Grove",
      "New Hill",
      "Oak Lane",
      "Oak Mews",
      "Pine Place",
      "Prince Rise",
      "Prince Street",
      "Princess Gardens",
      "South Avenue",
      "Willow Avenue",
      "Willow Square",
      "Ash Crescent",
      "Bridge Lane",
      "Cross Court",
      "Farm Hill",
      "London Terrace",
      "Meadow Rise",
      "School Walk"
    ],
    "Barnet": [
      "Albert Lane",
      "Ash Close",
      "Birch Road",
      "Brook Rise",
      "Castle Square",
      "Cedar Grove",
      "Cedar Terrace",
      "Chapel Grove",
      "Chapel Lane",
      "Church Road",
      "Cross Avenue",
      "Cross Mews",
      "East Court",
      "Edward Gardens",
      "Elm Avenue",
      "Farm Grove",
      "Field Crescent",
      "Garden Grove",
      "Garden Road",
      "King Gardens",
      "London Mews",
      "Manor Hill",
      "Manor Walk",
      "Market Road",
      "Mill Walk",
      "New Court",
      "Oak Drive",
      "Princess Terrace",
      "Queen Crescent",
      "South Lane",
      "South Rise",
      "Spring Crescent",
      "Spring Drive",
      "Station Crescent",
      "Willow Crescent",
      "Willow Street",
      "Windsor Drive"
    ],
    "Enfield": [
      "Ash Terrace",
      "Birch Parade",
      "Brook Drive",
      "Cedar Avenue",
      "Chapel Court",
      "Chapel Place",
      "Church Grove",
      "Cross Avenue",
      "Cross Rise",
      "Cross Road",
      "Duke Hill",
      "East Grove",
      "Edward Gardens",
      "Edward Place",
      "Farm Gardens",
      "Farm Road",
      "Farm Terrace",
      "Field Gardens",
      "George Street",
      "King Grove",
      "New Court",
      "Oak Parade",
      "Old Close",
      "Old Lane",
      "Prince Street",
      "Princess Court",
      "School Mews",
      "School Terrace",
      "South Way",
      "Station Parade",
      "Victoria Grove",
      "William Close",
      "William Drive",
      "William Square",
      "Willow Gardens",
      "Willow Place"
    ],
    "Ealing": [
      "Cedar Street",
      "Chapel Square",
      "Cross Terrace",
      "East Drive",
      "Field Grove",
      "Garden Avenue",
      "Garden Terrace",
      "Green Hill",
      "High Place",
      "London Drive",
      "Manor Court",
      "Market Court",
      "Oak Close",
      "Orchard Terrace",
      "Prince Close",
      "Princess Crescent",
      "Queen Mews",
      "Rose Walk",
      "South Grove",
      "Victoria Grove",
      "William Place",
      "Willow Terrace",
      "Albert Court",
      "Birch Lane",
      "Bridge Parade",
      "Castle Rise",
      "Church Square",
      "Edward Walk",
      "King Hill",
      "Meadow Court"
    ],
    "Birmingham": [
      "Albert Rise",
      "Albert Street",
      "Ash Court",
      "Birch Rise",
      "Broad Street",
      "Brook Avenue",
      "Bull Ring",
      "Castle Drive",
      "Corporation Street",
      "Duke Mews",
      "Edward Gardens",
      "Edward Terrace",
      "Farm Way",
      "Garden Terrace",
      "George Square",
      "Green Avenue",
      "Green Drive",
      "Green Hill",
      "Green Street",
      "High Street",
      "King Drive",
      "King Square",
      "London Hill",
      "London Square",
      "Mill Grove",
      "Mill Square",
      "Mill Street",
      "New Street",
      "North Court",
      "North Hill",
      "North Parade",
      "Oak Avenue",
      "Oak Parade",
      "Park Crescent",
      "Park Grove",
      "Prince Drive",
      "Prince Road",
      "Prince Way",
      "Queen Close",
      "School Street",
      "Station Road",
      "Victoria Way",
      "William Terrace",
      "Willow Terrace",
      "Windsor Drive"
    ],
    "Coventry": [
      "Albert Square",
      "Albert Street",
      "Ash Walk",
      "Birch Hill",
      "Brook Walk",
      "Cedar Hill",
      "Duke Hill",
      "Elm Hill",
      "Field Avenue",
      "Green Lane",
      "King Parade",
      "London Drive",
      "London Lane",
      "Manor Avenue",
      "Market Drive",
      "Market Street",
      "Meadow Rise",
      "Oak Walk",
      "Orchard Crescent",
      "Park Drive",
      "Park Mews",
      "Pine Rise",
      "Prince Parade",
      "Princess Hill",
      "South Rise",
      "South Road",
      "Spring Walk",
      "West Place",
      "William Avenue",
      "Windsor Walk",
      "Windsor Way"
    ],
    "Wolverhampton": [
      "Bridge Avenue",
      "Bridge Square",
      "Brook Avenue",
      "Brook Drive",
      "Church Close",
      "Church Place",
      "Elm Avenue",
      "Farm Walk",
      "Field Square",
      "George Avenue",
      "George Mews",
      "George Rise",
      "London Lane",
      "Market Place",
      "Market Rise",
      "North Drive",
      "Oak Avenue",
      "Oak Terrace",
      "Orchard Crescent",
      "Orchard Road",
      "Orchard Square",
      "Prince Gardens",
      "Prince Parade",
      "Princess Gardens",
      "South Avenue",
      "South Rise",
      "Victoria Lane",
      "William Mews",
      "Willow Grove",
      "Windsor Road"
    ],
    "Solihull": [
      "Birch Hill",
      "Birch Walk",
      "Bridge Street",
      "Brook Gardens",
      "Castle Close",
      "Cross Street",
      "Duke Way",
      "Elm Avenue",
      "Farm Grove",
      "Farm Lane",
      "George Gardens",
      "George Rise",
      "Green Terrace",
      "High Way",
      "London Drive",
      "Meadow Road",
      "Mill Place",
      "North Grove",
      "North Walk",
      "Oak Hill",
      "Oak Place",
      "Old Road",
      "Park Drive",
      "Prince Hill",
      "Princess Parade",
      "Station Court",
      "Victoria Walk",
      "West Drive",
      "William Lane",
      "Windsor Crescent"
    ],
    "Dudley": [
      "Alexandra Rise",
      "Chapel Hill",
      "Church Hill",
      "Duke Crescent",
      "Edward Terrace",
      "Elm Close",
      "Elm Parade",
      "Farm Grove",
      "Farm Rise",
      "Garden Court",
      "George Terrace",
      "High Mews",
      "London Crescent",
      "London Grove",
      "Manor Court",
      "Market Avenue",
      "Market Close",
      "Meadow Street",
      "Meadow Walk",
      "Mill Grove",
      "Old Lane",
      "Pine Avenue",
      "Pine Square",
      "Princess Avenue",
      "Rose Walk",
      "South Crescent",
      "Station Rise",
      "Victoria Grove",
      "Victoria Rise",
      "Cedar Walk"
    ],
    "Walsall": [
      "Albert Crescent",
      "Albert Lane",
      "Ash Gardens",
      "Ash Road",
      "Bridge Terrace",
      "Chapel Walk",
      "Cross Crescent",
      "Duke Hill",
      "East Close",
      "Field Hill",
      "Field Square",
      "King Avenue",
      "London Mews",
      "New Hill",
      "New Place",
      "Park Terrace",
      "Pine Lane",
      "Prince Parade",
      "Princess Lane",
      "School Drive",
      "Spring Hill",
      "Station Hill",
      "West Mews",
      "William Parade",
      "Willow Parade",
      "Windsor Drive",
      "Brook Lane",
      "Castle Walk",
      "Cedar Court",
      "George Crescent"
    ],
    "Manchester": [
      "Albert Grove",
      "Albert Way",
      "Alexandra Hill",
      "Alexandra Lane",
      "Ash Walk",
      "Birch Way",
      "Bridge Gardens",
      "Brook Terrace",
      "Canal Street",
      "Castle Lane",
      "Church Terrace",
      "Cross Crescent",
      "Deansgate",
      "Duke Close",
      "Duke Square",
      "Field Drive",
      "London Crescent",
      "Manor Crescent",
      "Manor Square",
      "Market Mews",
      "Market Street",
      "Mill Lane",
      "Mill Walk",
      "New Lane",
      "North Crescent",
      "Oak Crescent",
      "Oxford Road",
      "Park Hill",
      "Piccadilly",
      "Pine Close",
      "Pine Drive",
      "Pine Terrace",
      "Portland Street",
      "Princess Avenue",
      "Princess Grove",
      "Princess Place",
      "Princess Street",
      "Rose Close",
      "South Drive",
      "Spring Crescent",
      "Station Court",
      "Victoria Rise",
      "William Grove",
      "William Road",
      "Windsor Drive",
      "Cross Street",
      "King Street",
      "Wilmslow Road",
      "Stretford Road",
      "Chester Road",
      "Trafford Road",
      "Bridgewater Way",
      "Ancoats Street",
      "Great Ancoats Street",
      "Oldham Road",
      "Ashton Old Road",
      "Rochdale Road",
      "Cheetham Hill Road",
      "Bury New Road",
      "Corporation Street",
      "London Road",
      "Stockport Road",
      "Hyde Road",
      "Mosley Street",
      "St Peter's Square",
      "Peter Street",
      "Quay Street",
      "John Dalton Street",
      "St Ann's Street",
      "Cannon Street",
      "Tib Street",
      "Thomas Street",
      "Lever Street",
      "Dale Street",
      "Hilton Street",
      "Whitworth Street",
      "Whitworth Street West",
      "Medlock Street",
      "Albion Street",
      "Liverpool Road",
      "Deansgate Locks",
      "Castlefield Road",
      "Ellesmere Street",
      "Regent Road",
      "Salford Quays",
      "Chapel Street",
      "Blackfriars Road",
      "Bridge Street",
      "Greengate",
      "Victoria Bridge Street",
      "Dantzic Street",
      "Cheetwood Road",
      "Collyhurst Road",
      "Queens Road",
      "Great Ducie Street",
      "Trinity Way",
      "New Bridge Street",
      "Fennel Street",
      "Todd Street",
      "Shudehill"
    ],
    "Salford": [
      "Albert Mews",
      "Ash Court",
      "Ash Gardens",
      "Ash Hill",
      "Bridge Street",
      "Brook Court",
      "Brook Square",
      "Chapel Drive",
      "Church Crescent",
      "Duke Mews",
      "East Drive",
      "East Terrace",
      "Elm Lane",
      "Garden Court",
      "Garden Walk",
      "Green Gardens",
      "Manor Crescent",
      "Manor Walk",
      "Meadow Walk",
      "New Close",
      "Oak Close",
      "Oak Road",
      "Pine Drive",
      "Pine Walk",
      "Prince Hill",
      "Princess Grove",
      "Queen Road",
      "School Grove",
      "South Hill",
      "Spring Lane",
      "Station Crescent",
      "Station Rise",
      "Victoria Close",
      "West Close",
      "William Parade",
      "Windsor Hill"
    ],
    "Bolton": [
      "Alexandra Drive",
      "Alexandra Mews",
      "Ash Street",
      "Birch Square",
      "Church Walk",
      "Duke Avenue",
      "Edward Drive",
      "Elm Avenue",
      "Farm Court",
      "George Lane",
      "High Terrace",
      "King Parade",
      "London Avenue",
      "Mill Road",
      "New Square",
      "Oak Close",
      "Oak Hill",
      "Park Court",
      "Princess Court",
      "Princess Mews",
      "Princess Rise",
      "Queen Way",
      "Victoria Street",
      "Windsor Walk",
      "Bridge Lane",
      "Cedar Walk",
      "Garden Crescent",
      "Market Square",
      "School Terrace",
      "South Place"
    ],
    "Stockport": [
      "Albert Way",
      "Alexandra Hill",
      "Bridge Square",
      "Brook Lane",
      "Brook Place",
      "Brook Rise",
      "Brook Walk",
      "Castle Close",
      "Church Terrace",
      "Cross Close",
      "East Road",
      "Edward Mews",
      "Field Crescent",
      "Garden Mews",
      "King Avenue",
      "London Terrace",
      "Market Gardens",
      "Meadow Hill",
      "Mill Lane",
      "Mill Road",
      "Orchard Street",
      "Park Crescent",
      "Pine Grove",
      "Pine Walk",
      "Prince Avenue",
      "Prince Lane",
      "Princess Terrace",
      "Queen Road",
      "Rose Square",
      "Spring Crescent",
      "Spring Mews",
      "Station Gardens",
      "Station Grove",
      "West Mews",
      "William Hill",
      "Windsor Rise"
    ],
    "Oldham": [
      "Albert Terrace",
      "Bridge Hill",
      "Brook Grove",
      "Brook Walk",
      "Chapel Rise",
      "Church Drive",
      "Duke Hill",
      "Elm Close",
      "Farm Road",
      "Garden Gardens",
      "George Gardens",
      "London Court",
      "London Grove",
      "Market Avenue",
      "Old Hill",
      "Prince Road",
      "School Hill",
      "School Rise",
      "Station Drive",
      "Station Terrace",
      "Victoria Crescent",
      "William Close",
      "Ash Lane",
      "Birch Walk",
      "Castle Court",
      "Cedar Rise",
      "King Avenue",
      "Meadow Place",
      "North Parade",
      "Pine Way"
    ],
    "Rochdale": [
      "Albert Place",
      "Alexandra Hill",
      "Alexandra Lane",
      "Ash Close",
      "Ash Lane",
      "Birch Walk",
      "Brook Hill",
      "Brook Terrace",
      "Brook Walk",
      "Chapel Lane",
      "Church Close",
      "Church Terrace",
      "East Avenue",
      "East Drive",
      "Edward Mews",
      "Farm Drive",
      "George Terrace",
      "Green Place",
      "King Avenue",
      "King Mews",
      "London Drive",
      "London Gardens",
      "Meadow Crescent",
      "Meadow Mews",
      "Mill Lane",
      "New Hill",
      "North Gardens",
      "Oak Parade",
      "Old Close",
      "Orchard Drive",
      "Orchard Parade",
      "Orchard Square",
      "Princess Gardens",
      "Queen Hill",
      "Rose Rise",
      "Rose Terrace",
      "South Avenue",
      "Spring Square",
      "Victoria Crescent"
    ],
    "Bury": [
      "Albert Close",
      "Albert Lane",
      "Alexandra Court",
      "Ash Hill",
      "Birch Square",
      "Bridge Drive",
      "Bridge Walk",
      "Chapel Square",
      "Chapel Street",
      "Church Lane",
      "Cross Gardens",
      "Cross Square",
      "Duke Close",
      "Elm Walk",
      "Farm Rise",
      "Farm Road",
      "Field Parade",
      "George Crescent",
      "New Close",
      "Old Crescent",
      "Orchard Parade",
      "Park Avenue",
      "Prince Drive",
      "Princess Lane",
      "Queen Way",
      "Rose Drive",
      "Station Parade",
      "Victoria Walk",
      "West Drive",
      "William Walk"
    ],
    "Wigan": [
      "Albert Gardens",
      "Birch Walk",
      "Brook Walk",
      "Castle Drive",
      "Cedar Court",
      "Chapel Rise",
      "Church Lane",
      "Duke Hill",
      "Duke Mews",
      "East Close",
      "King Close",
      "King Drive",
      "London Road",
      "Manor Road",
      "Market Court",
      "Market Crescent",
      "Market Parade",
      "Meadow Drive",
      "Oak Mews",
      "Old Hill",
      "Orchard Avenue",
      "Prince Hill",
      "Princess Grove",
      "William Grove",
      "Willow Avenue",
      "Willow Mews",
      "Willow Way",
      "Windsor Crescent",
      "Windsor Terrace",
      "George Court"
    ],
    "Tameside": [
      "Alexandra Crescent",
      "Ash Square",
      "Brook Drive",
      "Brook Square",
      "Castle Square",
      "Cedar Walk",
      "Chapel Crescent",
      "East Walk",
      "Elm Drive",
      "Field Terrace",
      "High Avenue",
      "King Way",
      "Meadow Terrace",
      "Meadow Walk",
      "Mill Avenue",
      "Mill Crescent",
      "Orchard Way",
      "Park Parade",
      "Park Road",
      "Pine Hill",
      "Prince Avenue",
      "Princess Lane",
      "Princess Mews",
      "Princess Square",
      "Queen Terrace",
      "School Mews",
      "School Walk",
      "Spring Walk",
      "Station Drive",
      "Station Grove",
      "Station Road",
      "Willow Drive"
    ],
    "Liverpool": [
      "Alexandra Parade",
      "Ash Crescent",
      "Bold Street",
      "Castle Avenue",
      "Church Terrace",
      "Cross Grove",
      "Duke Mews",
      "Duke Street",
      "East Street",
      "Edward Avenue",
      "Farm Court",
      "Field Crescent",
      "Field Mews",
      "Garden Mews",
      "Hope Street",
      "Lime Street",
      "Matthew Street",
      "Meadow Gardens",
      "New Court",
      "Oak Drive",
      "Oak Parade",
      "Oak Walk",
      "Oak Way",
      "Old Walk",
      "Penny Lane",
      "Pine Walk",
      "Queen Parade",
      "School Mews",
      "Station Parade",
      "Windsor Road"
    ],
    "Wirral": [
      "Albert Place",
      "Alexandra Drive",
      "Alexandra Mews",
      "Alexandra Way",
      "Bridge Drive",
      "Bridge Hill",
      "Bridge Place",
      "Bridge Square",
      "Castle Square",
      "Cedar Road",
      "Cedar Way",
      "Chapel Mews",
      "Chapel Parade",
      "Duke Court",
      "Duke Gardens",
      "East Court",
      "East Square",
      "Edward Mews",
      "Edward Place",
      "Farm Square",
      "George Mews",
      "King Court",
      "Market Close",
      "Market Mews",
      "Mill Avenue",
      "Oak Crescent",
      "Orchard Crescent",
      "Park Avenue",
      "Park Walk",
      "Prince Square",
      "Princess Avenue",
      "Princess Lane",
      "Princess Road",
      "Rose Grove",
      "Rose Way",
      "South Court",
      "Spring Grove",
      "Willow Square",
      "Windsor Place"
    ],
    "Sefton": [
      "Albert Mews",
      "Castle Gardens",
      "Cedar Way",
      "Duke Parade",
      "East Avenue",
      "High Square",
      "Meadow Mews",
      "Mill Walk",
      "Old Rise",
      "Princess Crescent",
      "Princess Road",
      "Rose Mews",
      "School Avenue",
      "South Square",
      "Station Street",
      "Victoria Parade",
      "West Gardens",
      "West Rise",
      "West Road",
      "William Drive",
      "Willow Place",
      "Willow Square",
      "Windsor Road",
      "Ash Crescent",
      "Birch Terrace",
      "Church Walk",
      "Cross Road",
      "Elm Lane",
      "Garden Hill",
      "London Close"
    ],
    "Knowsley": [
      "Albert Place",
      "Albert Terrace",
      "Alexandra Close",
      "Alexandra Gardens",
      "Brook Court",
      "Cedar Crescent",
      "Cross Gardens",
      "Duke Parade",
      "Edward Avenue",
      "Edward Court",
      "Elm Walk",
      "High Crescent",
      "High Place",
      "King Hill",
      "King Street",
      "Market Lane",
      "Meadow Avenue",
      "Old Grove",
      "Old Hill",
      "Park Avenue",
      "Prince Crescent",
      "Princess Parade",
      "Queen Grove",
      "South Drive",
      "West Drive",
      "West Grove",
      "William Walk",
      "William Way",
      "Willow Gardens",
      "Windsor Parade"
    ],
    "St Helens": [
      "Alexandra Parade",
      "Birch Lane",
      "Bridge Lane",
      "Cedar Square",
      "East Parade",
      "Farm Road",
      "Field Lane",
      "Garden Drive",
      "Garden Road",
      "George Way",
      "Green Road",
      "Green Way",
      "High Way",
      "King Lane",
      "London Mews",
      "London Parade",
      "Meadow Place",
      "Mill Rise",
      "Mill Walk",
      "New Hill",
      "Oak Close",
      "Oak Hill",
      "Oak Square",
      "Old Crescent",
      "Orchard Hill",
      "Orchard Walk",
      "Park Hill",
      "Pine Hill",
      "Rose Hill",
      "Rose Terrace",
      "School Terrace",
      "Station Gardens",
      "Station Rise",
      "William Gardens",
      "Windsor Street"
    ],
    "Leeds": [
      "Ash Road",
      "Boar Lane",
      "Bridge Drive",
      "Briggate",
      "Chapel Street",
      "Duke Hill",
      "Elm Square",
      "Garden Grove",
      "Green Close",
      "High Street",
      "King Hill",
      "King Road",
      "King Way",
      "London Avenue",
      "Market Parade",
      "Meadow Hill",
      "Mill Terrace",
      "Mill Walk",
      "North Road",
      "Prince Way",
      "Princess Court",
      "Rose Drive",
      "School Road",
      "South Square",
      "Spring Court",
      "Spring Grove",
      "Spring Hill",
      "Station Rise",
      "The Headrow",
      "Vicar Lane",
      "Victoria Square",
      "William Square",
      "Windsor Avenue",
      "Windsor Court",
      "Windsor Parade"
    ],
    "Bradford": [
      "Albert Grove",
      "Alexandra Drive",
      "Ash Terrace",
      "Castle Lane",
      "Cedar Court",
      "Cross Rise",
      "Duke Grove",
      "Duke Place",
      "Duke Street",
      "Edward Rise",
      "Field Close",
      "Field Square",
      "Green Mews",
      "King Gardens",
      "King Way",
      "London Way",
      "New Walk",
      "North Crescent",
      "North Mews",
      "North Way",
      "Oak Drive",
      "Oak Square",
      "Orchard Mews",
      "Orchard Rise",
      "Park Place",
      "Park Square",
      "Park Terrace",
      "Queen Way",
      "Rose Crescent",
      "Rose Drive",
      "South Gardens",
      "South Rise",
      "Spring Court",
      "Spring Road",
      "Victoria Square",
      "West Square",
      "William Crescent",
      "Willow Road",
      "Windsor Way"
    ],
    "Wakefield": [
      "Albert Crescent",
      "Birch Close",
      "Birch Hill",
      "Birch Square",
      "Brook Crescent",
      "Brook Walk",
      "Duke Place",
      "East Crescent",
      "Farm Court",
      "Field Parade",
      "Garden Road",
      "Garden Terrace",
      "High Rise",
      "King Square",
      "London Road",
      "Manor Mews",
      "Market Gardens",
      "Market Way",
      "New Street",
      "Oak Road",
      "Old Drive",
      "Princess Drive",
      "Queen Mews",
      "Queen Square",
      "Rose Road",
      "South Grove",
      "Spring Hill",
      "Willow Close",
      "Windsor Mews",
      "Windsor Rise",
      "Windsor Square",
      "Windsor Terrace"
    ],
    "Huddersfield": [
      "Brook Road",
      "Chapel Mews",
      "Church Street",
      "Church Walk",
      "Cross Court",
      "East Walk",
      "Edward Court",
      "Edward Rise",
      "Farm Court",
      "Garden Gardens",
      "Garden Square",
      "George Mews",
      "High Way",
      "London Drive",
      "Manor Walk",
      "Meadow Hill",
      "New Court",
      "Oak Street",
      "Pine Hill",
      "Prince Grove",
      "Queen Terrace",
      "Victoria Terrace",
      "West Avenue",
      "Windsor Place",
      "Albert Avenue",
      "Birch Parade",
      "Castle Close",
      "Elm Walk",
      "King Crescent",
      "North Road"
    ],
    "Halifax": [
      "Albert Road",
      "Alexandra Grove",
      "Castle Grove",
      "Cedar Place",
      "Church Way",
      "Edward Close",
      "Edward Parade",
      "Elm Crescent",
      "Farm Avenue",
      "Field Drive",
      "Garden Parade",
      "George Road",
      "King Parade",
      "London Gardens",
      "Mill Lane",
      "Old Parade",
      "Orchard Mews",
      "Park Street",
      "Pine Terrace",
      "Rose Road",
      "South Way",
      "Spring Grove",
      "Spring Square",
      "Station Lane",
      "Victoria Grove",
      "Victoria Mews",
      "West Crescent",
      "William Lane",
      "William Place",
      "Bridge Walk"
    ],
    "Sheffield": [
      "Alexandra Drive",
      "Ash Mews",
      "Brook Avenue",
      "Brook Place",
      "Castle Grove",
      "Cross Place",
      "Duke Hill",
      "Elm Close",
      "George Grove",
      "King Lane",
      "Manor Rise",
      "Market Street",
      "New Grove",
      "Orchard Grove",
      "South Lane",
      "South Terrace",
      "Spring Crescent",
      "Victoria Gardens",
      "Victoria Place",
      "Victoria Street",
      "William Parade",
      "Albert Hill",
      "Birch Lane",
      "Cedar Walk",
      "Chapel Gardens",
      "Church Square",
      "Farm Terrace",
      "London Close",
      "North Way",
      "Pine Court"
    ],
    "Doncaster": [
      "Ash Square",
      "Bridge Square",
      "Church Lane",
      "Duke Mews",
      "King Parade",
      "London Terrace",
      "Mill Lane",
      "New Lane",
      "Oak Avenue",
      "Old Drive",
      "Old Rise",
      "Orchard Walk",
      "Prince Gardens",
      "Prince Mews",
      "Prince Rise",
      "Princess Rise",
      "Rose Close",
      "Spring Lane",
      "Spring Street",
      "Victoria Crescent",
      "West Rise",
      "William Grove",
      "Windsor Square",
      "Albert Court",
      "Birch Place",
      "Castle Walk",
      "George Crescent",
      "Manor Lane",
      "Park Terrace",
      "School Drive"
    ],
    "Rotherham": [
      "Albert Drive",
      "Alexandra Way",
      "Ash Gardens",
      "Brook Avenue",
      "Castle Grove",
      "Castle Hill",
      "Castle Rise",
      "Cedar Crescent",
      "Church Hill",
      "Duke Crescent",
      "Edward Lane",
      "Edward Mews",
      "Farm Court",
      "Farm Way",
      "Field Square",
      "George Drive",
      "High Grove",
      "King Mews",
      "King Place",
      "Market Gardens",
      "Market Grove",
      "Mill Gardens",
      "Oak Mews",
      "Prince Grove",
      "School Way",
      "West Grove",
      "West Square",
      "Willow Avenue",
      "Church Walk",
      "Elm Lane"
    ],
    "Barnsley": [
      "Ash Hill",
      "Ash Mews",
      "Bridge Gardens",
      "Brook Grove",
      "Brook Square",
      "Castle Hill",
      "Castle Rise",
      "Cedar Avenue",
      "Cedar Terrace",
      "Church Mews",
      "Edward Rise",
      "Edward Walk",
      "Farm Grove",
      "Field Grove",
      "Field Parade",
      "Garden Road",
      "Garden Walk",
      "George Terrace",
      "Green Drive",
      "Manor Court",
      "Manor Gardens",
      "Manor Place",
      "Manor Street",
      "New Terrace",
      "North Walk",
      "Oak Lane",
      "Old Road",
      "Rose Square",
      "School Lane",
      "South Hill",
      "South Walk",
      "Spring Lane",
      "Willow Parade"
    ],
    "Newcastle upon Tyne": [
      "Albert Avenue",
      "Alexandra Lane",
      "Ash Parade",
      "Bridge Terrace",
      "Brook Crescent",
      "Chapel Grove",
      "Chapel Way",
      "Church Crescent",
      "East Hill",
      "Elm Grove",
      "Farm Avenue",
      "Field Avenue",
      "Garden Close",
      "George Mews",
      "Green Place",
      "High Way",
      "King Walk",
      "London Gardens",
      "Meadow Close",
      "Meadow Street",
      "North Place",
      "Old Crescent",
      "Orchard Rise",
      "Rose Crescent",
      "School Grove",
      "Station Avenue",
      "West Rise",
      "West Square",
      "William Close",
      "Willow Court"
    ],
    "Gateshead": [
      "Albert Mews",
      "Birch Close",
      "Birch Drive",
      "Birch Gardens",
      "Birch Square",
      "Bridge Street",
      "Brook Drive",
      "Chapel Close",
      "Chapel Parade",
      "Chapel Road",
      "Church Court",
      "East Grove",
      "Edward Close",
      "Elm Close",
      "Farm Grove",
      "Farm Mews",
      "Garden Gardens",
      "Green Close",
      "King Gardens",
      "Market Avenue",
      "Market Hill",
      "Mill Close",
      "Oak Drive",
      "Oak Hill",
      "Oak Mews",
      "Old Hill",
      "Orchard Close",
      "Orchard Walk",
      "Pine Grove",
      "Prince Court",
      "Princess Road",
      "Victoria Drive",
      "Victoria Parade",
      "William Gardens"
    ],
    "Sunderland": [
      "Albert Court",
      "Albert Drive",
      "Alexandra Crescent",
      "Alexandra Gardens",
      "Alexandra Rise",
      "Ash Avenue",
      "Ash Place",
      "Birch Drive",
      "Bridge Lane",
      "Bridge Square",
      "Brook Square",
      "Cross Rise",
      "Duke Road",
      "Edward Drive",
      "Elm Avenue",
      "Farm Avenue",
      "Farm Place",
      "Field Terrace",
      "Garden Way",
      "King Drive",
      "King Grove",
      "King Way",
      "London Lane",
      "Meadow Walk",
      "Mill Rise",
      "North Way",
      "Old Crescent",
      "Old Drive",
      "Park Parade",
      "Park Place",
      "Pine Avenue",
      "Prince Square",
      "Prince Walk",
      "Princess Parade",
      "Spring Hill",
      "Station Hill",
      "William Avenue"
    ],
    "South Shields": [
      "Albert Gardens",
      "Birch Place",
      "Brook Close",
      "Castle Road",
      "Castle Square",
      "Church Avenue",
      "Cross Gardens",
      "Cross Hill",
      "Cross Terrace",
      "Edward Drive",
      "Edward Terrace",
      "Elm Way",
      "Farm Drive",
      "Farm Mews",
      "High Lane",
      "London Square",
      "Market Gardens",
      "Market Parade",
      "Meadow Way",
      "Old Hill",
      "Old Place",
      "Park Grove",
      "Queen Lane",
      "Station Avenue",
      "Victoria Terrace",
      "Willow Mews",
      "Willow Street",
      "Windsor Hill",
      "Ash Walk",
      "Prince Lane"
    ],
    "North Shields": [
      "Alexandra Avenue",
      "Ash Terrace",
      "Brook Gardens",
      "Cedar Lane",
      "Chapel Close",
      "Cross Drive",
      "Edward Crescent",
      "Edward Drive",
      "Elm Lane",
      "Farm Street",
      "Green Parade",
      "Green Rise",
      "High Street",
      "High Way",
      "London Walk",
      "Manor Crescent",
      "Manor Drive",
      "Mill Drive",
      "Mill Grove",
      "Mill Parade",
      "North Lane",
      "Oak Hill",
      "South Grove",
      "South Walk",
      "Victoria Avenue",
      "William Hill",
      "Windsor Way",
      "Albert Place",
      "Castle Walk",
      "Garden Hill"
    ],
    "Bristol": [
      "Albert Lane",
      "Bridge Rise",
      "Broad Street",
      "Brook Crescent",
      "Brook Square",
      "Cedar Lane",
      "Church Parade",
      "Corn Street",
      "Cross Lane",
      "East Grove",
      "Edward Grove",
      "Edward Street",
      "Farm Rise",
      "Garden Drive",
      "George Gardens",
      "King Mews",
      "King Place",
      "King Square",
      "London Street",
      "Market Drive",
      "Meadow Walk",
      "Mill Grove",
      "North Walk",
      "Oak Rise",
      "Park Street",
      "Princess Road",
      "Princess Walk",
      "Queen Square",
      "Queen Way",
      "Rose Street",
      "School Gardens",
      "School Walk",
      "Spring Avenue",
      "Station Road",
      "Victoria Square",
      "William Close"
    ],
    "Clifton": [
      "Alexandra Drive",
      "Birch Hill",
      "Bridge Walk",
      "Chapel Road",
      "Church Crescent",
      "Cross Lane",
      "Duke Close",
      "Duke Rise",
      "Edward Street",
      "Elm Place",
      "Garden Crescent",
      "Green Hill",
      "Green Street",
      "Meadow Parade",
      "Mill Place",
      "North Drive",
      "Old Mews",
      "Old Terrace",
      "Park Court",
      "Pine Terrace",
      "Queen Parade",
      "Rose Lane",
      "Rose Place",
      "Victoria Gardens",
      "Victoria Rise",
      "Victoria Walk",
      "Windsor Avenue",
      "Windsor Court",
      "Farm Walk",
      "King Lane"
    ],
    "Leicester": [
      "Alexandra Rise",
      "Birch Parade",
      "Brook Grove",
      "Farm Terrace",
      "Green Walk",
      "High Court",
      "High Road",
      "King Rise",
      "Manor Parade",
      "New Close",
      "Old Place",
      "Old Terrace",
      "Prince Lane",
      "South Crescent",
      "South Walk",
      "Station Mews",
      "Station Square",
      "West Court",
      "William Avenue",
      "William Road",
      "Windsor Crescent",
      "Albert Close",
      "Ash Way",
      "Bridge Parade",
      "Castle Place",
      "Church Hill",
      "Duke Court",
      "East Lane",
      "Elm Avenue",
      "George Street"
    ],
    "Loughborough": [
      "Alexandra Place",
      "Castle Street",
      "Chapel Court",
      "Church Court",
      "Cross Grove",
      "Cross Street",
      "East Gardens",
      "East Square",
      "Elm Drive",
      "Farm Gardens",
      "Farm Road",
      "Field Avenue",
      "Field Mews",
      "Garden Terrace",
      "George Grove",
      "High Rise",
      "High Terrace",
      "King Drive",
      "King Gardens",
      "London Hill",
      "London Parade",
      "Manor Way",
      "Market Lane",
      "Oak Mews",
      "Oak Terrace",
      "Orchard Hill",
      "Park Drive",
      "Pine Drive",
      "Princess Gardens",
      "Rose Court",
      "South Walk",
      "Station Grove",
      "Victoria Road",
      "Willow Lane",
      "Willow Terrace",
      "Windsor Gardens"
    ],
    "Nottingham": [
      "Alexandra Court",
      "Alexandra Road",
      "Ash Gardens",
      "Ash Hill",
      "Ash Square",
      "Bridge Grove",
      "Bridge Way",
      "Church Grove",
      "Edward Crescent",
      "Green Lane",
      "Green Square",
      "London Way",
      "Manor Close",
      "Manor Drive",
      "Manor Hill",
      "Market Grove",
      "Market Hill",
      "Market Rise",
      "Mill Parade",
      "New Lane",
      "North Crescent",
      "Old Gardens",
      "Orchard Court",
      "Pine Road",
      "Prince Court",
      "Queen Close",
      "William Gardens",
      "Willow Place",
      "Chapel Walk",
      "Farm Lane"
    ],
    "Derby": [
      "Albert Gardens",
      "Ash Drive",
      "Birch Street",
      "Brook Lane",
      "Castle Avenue",
      "Church Lane",
      "East Grove",
      "East Hill",
      "Farm Rise",
      "Field Parade",
      "High Road",
      "Mill Avenue",
      "Mill Lane",
      "North Close",
      "Park Close",
      "Prince Place",
      "Queen Lane",
      "South Drive",
      "Spring Rise",
      "Station Court",
      "Station Hill",
      "West Terrace",
      "Windsor Grove",
      "Bridge Parade",
      "Cedar Crescent",
      "Elm Terrace",
      "Garden Walk",
      "George Mews",
      "Orchard Lane",
      "Pine Square"
    ],
    "Chesterfield": [
      "Albert Walk",
      "Alexandra Terrace",
      "Birch Terrace",
      "Bridge Close",
      "Cedar Road",
      "Cedar Square",
      "Church Crescent",
      "Church Grove",
      "Church Place",
      "East Mews",
      "Edward Terrace",
      "Farm Grove",
      "Farm Parade",
      "Farm Walk",
      "Field Court",
      "Field Crescent",
      "Field Street",
      "Garden Gardens",
      "King Court",
      "King Square",
      "Market Grove",
      "New Parade",
      "Oak Square",
      "Oak Way",
      "Old Avenue",
      "Park Court",
      "Park Mews",
      "Prince Close",
      "Prince Square",
      "Rose Terrace",
      "School Court",
      "Spring Drive",
      "Victoria Place",
      "West Court",
      "West Mews"
    ],
    "Southampton": [
      "Albert Crescent",
      "Alexandra Close",
      "Brook Grove",
      "Brook Lane",
      "Castle Gardens",
      "Castle Way",
      "Cedar Street",
      "Church Drive",
      "Church Walk",
      "Cross Mews",
      "Edward Terrace",
      "Field Avenue",
      "Field Drive",
      "Green Walk",
      "Market Drive",
      "Market Road",
      "Mill Crescent",
      "Old Rise",
      "South Court",
      "Victoria Road",
      "West Square",
      "Ash Place",
      "Birch Lane",
      "Farm Walk",
      "George Square",
      "King Terrace",
      "London Mews",
      "North Drive",
      "Pine Avenue",
      "Prince Road"
    ],
    "Portsmouth": [
      "Alexandra Crescent",
      "Ash Rise",
      "Ash Street",
      "Birch Grove",
      "Bridge Crescent",
      "Bridge Place",
      "Bridge Square",
      "Chapel Court",
      "Cross Parade",
      "Duke Gardens",
      "Edward Parade",
      "George Parade",
      "King Lane",
      "London Court",
      "Manor Mews",
      "Manor Street",
      "Meadow Parade",
      "Mill Close",
      "New Crescent",
      "Old Lane",
      "Old Rise",
      "Park Grove",
      "Queen Way",
      "School Crescent",
      "Station Close",
      "West Grove",
      "Windsor Street",
      "Castle Walk",
      "Farm Hill",
      "North Lane"
    ],
    "Winchester": [
      "Alexandra Street",
      "Brook Street",
      "Castle Close",
      "Castle Mews",
      "Church Way",
      "Duke Court",
      "East Avenue",
      "Elm Close",
      "Elm Lane",
      "Farm Court",
      "London Road",
      "Manor Crescent",
      "Manor Lane",
      "Manor Mews",
      "Manor Road",
      "Market Place",
      "Meadow Parade",
      "New Road",
      "North Way",
      "Oak Square",
      "Old Gardens",
      "Old Hill",
      "Old Road",
      "Orchard Lane",
      "Orchard Mews",
      "Princess Mews",
      "Princess Street",
      "Queen Gardens",
      "School Rise",
      "Spring Close",
      "Windsor Lane",
      "Windsor Square"
    ],
    "Basingstoke": [
      "Ash Road",
      "Brook Close",
      "Brook Grove",
      "Cedar Avenue",
      "Cedar Mews",
      "Duke Grove",
      "Farm Court",
      "Farm Road",
      "Field Court",
      "Garden Rise",
      "George Place",
      "New Avenue",
      "Oak Square",
      "Orchard Road",
      "Queen Hill",
      "South Place",
      "Spring Close",
      "Spring Walk",
      "Victoria Square",
      "Victoria Terrace",
      "William Mews",
      "Willow Place",
      "Albert Place",
      "Birch Walk",
      "Castle Lane",
      "Chapel Hill",
      "Elm Parade",
      "London Rise",
      "Market Crescent",
      "North Way"
    ],
    "Plymouth": [
      "Duke Lane",
      "East Drive",
      "Edward Parade",
      "Elm Lane",
      "Farm Mews",
      "Farm Parade",
      "Field Avenue",
      "Garden Terrace",
      "Green Hill",
      "Green Rise",
      "Manor Gardens",
      "Manor Parade",
      "Market Lane",
      "Meadow Road",
      "Mill Road",
      "New Drive",
      "New Grove",
      "North Way",
      "Oak Place",
      "Orchard Crescent",
      "Orchard Grove",
      "Pine Parade",
      "Prince Grove",
      "Prince Walk",
      "Rose Parade",
      "Rose Rise",
      "School Place",
      "Spring Mews",
      "Station Close",
      "Station Grove",
      "Victoria Grove",
      "West Close",
      "William Drive",
      "William Rise",
      "Willow Street"
    ],
    "Exeter": [
      "Alexandra Walk",
      "Alexandra Way",
      "Birch Walk",
      "Brook Road",
      "Church Close",
      "Church Crescent",
      "Duke Gardens",
      "Duke Hill",
      "East Hill",
      "East Way",
      "Edward Avenue",
      "Edward Court",
      "London Gardens",
      "Market Place",
      "Meadow Avenue",
      "Meadow Drive",
      "North Rise",
      "Park Court",
      "Park Mews",
      "Park Terrace",
      "Pine Close",
      "Prince Mews",
      "Prince Terrace",
      "Rose Parade",
      "School Lane",
      "South Drive",
      "Station Hill",
      "William Street",
      "Willow Walk",
      "Windsor Rise"
    ],
    "Torquay": [
      "Albert Close",
      "Albert Court",
      "Alexandra Place",
      "Bridge Hill",
      "Bridge Terrace",
      "Brook Mews",
      "Cedar Drive",
      "Edward Lane",
      "Elm Grove",
      "Field Square",
      "North Court",
      "Old Parade",
      "Old Place",
      "Pine Street",
      "Prince Rise",
      "Princess Street",
      "Queen Way",
      "School Gardens",
      "School Hill",
      "School Street",
      "South Place",
      "Spring Road",
      "West Mews",
      "William Street",
      "William Walk",
      "William Way",
      "Willow Gardens",
      "Ash Crescent",
      "Castle Court",
      "Garden Lane"
    ],
    "Norwich": [
      "Albert Gardens",
      "Albert Lane",
      "Albert Mews",
      "Brook Place",
      "Castle Place",
      "Cedar Lane",
      "Cross Crescent",
      "Cross Mews",
      "Duke Avenue",
      "East Crescent",
      "East Drive",
      "Field Gardens",
      "Field Parade",
      "George Crescent",
      "George Terrace",
      "Manor Mews",
      "Manor Street",
      "Meadow Parade",
      "Mill Place",
      "Oak Crescent",
      "Oak Grove",
      "Old Square",
      "Orchard Gardens",
      "Park Grove",
      "Pine Gardens",
      "Pine Terrace",
      "Prince Place",
      "Princess Place",
      "Rose Court",
      "South Gardens",
      "South Terrace",
      "Spring Road",
      "West Crescent",
      "West Gardens",
      "William Drive",
      "William Square",
      "Windsor Court",
      "Windsor Square",
      "Windsor Street"
    ],
    "Cambridge": [
      "Castle Close",
      "Cedar Grove",
      "Cedar Way",
      "Chapel Rise",
      "Church Street",
      "Cross Court",
      "Cross Rise",
      "Duke Drive",
      "East Crescent",
      "Field Lane",
      "Garden Way",
      "Green Mews",
      "High Crescent",
      "High Hill",
      "High Road",
      "Market Close",
      "Market Road",
      "Meadow Rise",
      "New Drive",
      "Oak Parade",
      "Oak Road",
      "Old Mews",
      "Old Parade",
      "Park Parade",
      "Pine Avenue",
      "Prince Way",
      "Rose Gardens",
      "Rose Way",
      "South Terrace",
      "Victoria Drive",
      "Victoria Mews",
      "William Grove",
      "Willow Drive",
      "Windsor Terrace"
    ],
    "Peterborough": [
      "Albert Street",
      "Bridge Way",
      "Brook Road",
      "Castle Mews",
      "Castle Rise",
      "Church Court",
      "Field Gardens",
      "Field Walk",
      "Garden Road",
      "George Avenue",
      "North Street",
      "Old Avenue",
      "Old Grove",
      "Old Lane",
      "Princess Hill",
      "School Road",
      "School Walk",
      "South Drive",
      "Spring Place",
      "Spring Walk",
      "Station Gardens",
      "William Drive",
      "Windsor Walk",
      "Ash Close",
      "Birch Hill",
      "Cedar Terrace",
      "Cross Court",
      "Duke Walk",
      "Elm Lane",
      "High Gardens"
    ],
    "Oxford": [
      "Alexandra Rise",
      "Birch Way",
      "Cedar Drive",
      "Duke Rise",
      "East Terrace",
      "East Way",
      "Edward Avenue",
      "George Avenue",
      "George Walk",
      "Manor Mews",
      "North Street",
      "Oak Avenue",
      "Oak Hill",
      "Orchard Place",
      "Pine Avenue",
      "Prince Drive",
      "Princess Avenue",
      "Princess Close",
      "Queen Walk",
      "Spring Avenue",
      "Station Square",
      "Albert Square",
      "Bridge Crescent",
      "Castle Lane",
      "Church Court",
      "Cross Road",
      "Farm Rise",
      "Green Walk",
      "High Close",
      "London Parade"
    ],
    "Reading": [
      "Ash Place",
      "Brook Crescent",
      "Castle Court",
      "Castle Terrace",
      "Cedar Parade",
      "Edward Road",
      "Elm Avenue",
      "George Close",
      "George Lane",
      "George Mews",
      "Green Drive",
      "Green Parade",
      "High Drive",
      "High Street",
      "Manor Road",
      "Meadow Grove",
      "New Lane",
      "Oak Close",
      "Oak Parade",
      "Old Avenue",
      "Park Avenue",
      "Pine Lane",
      "Princess Terrace",
      "Queen Court",
      "Queen Hill",
      "Spring Mews",
      "West Avenue",
      "West Grove",
      "West Road",
      "William Crescent",
      "William Hill",
      "Willow Gardens",
      "Willow Place",
      "Windsor Avenue",
      "Windsor Lane"
    ],
    "Slough": [
      "Albert Crescent",
      "Albert Grove",
      "Ash Lane",
      "Ash Parade",
      "Ash Road",
      "Birch Close",
      "Birch Hill",
      "Castle Place",
      "Cedar Mews",
      "Cedar Terrace",
      "Chapel Road",
      "Chapel Street",
      "Edward Avenue",
      "Elm Court",
      "Farm Parade",
      "George Grove",
      "Green Rise",
      "High Close",
      "High Walk",
      "London Mews",
      "London Place",
      "Market Court",
      "Meadow Court",
      "New Square",
      "Park Walk",
      "Pine Mews",
      "Rose Walk",
      "South Crescent",
      "South Square",
      "Victoria Hill",
      "William Drive"
    ],
    "Maidenhead": [
      "Albert Street",
      "Alexandra Crescent",
      "Alexandra Hill",
      "Alexandra Rise",
      "Alexandra Terrace",
      "Birch Drive",
      "Bridge Gardens",
      "Brook Avenue",
      "Castle Terrace",
      "Chapel Way",
      "East Avenue",
      "George Court",
      "Green Avenue",
      "Green Mews",
      "High Crescent",
      "High Lane",
      "Manor Grove",
      "Manor Place",
      "Meadow Way",
      "North Hill",
      "Oak Road",
      "Orchard Mews",
      "Orchard Square",
      "Orchard Walk",
      "Park Court",
      "Pine Square",
      "School Gardens",
      "Station Close",
      "Willow Crescent",
      "Willow Way"
    ],
    "Brighton": [
      "Ash Drive",
      "Birch Street",
      "Castle Gardens",
      "Cross Parade",
      "Duke Square",
      "Edward Parade",
      "Field Mews",
      "George Crescent",
      "Green Hill",
      "Manor Grove",
      "Market Square",
      "Mill Rise",
      "Oak Court",
      "Oak Road",
      "Orchard Rise",
      "Pine Close",
      "Pine Drive",
      "Pine Grove",
      "Prince Grove",
      "Rose Road",
      "School Walk",
      "West Drive",
      "Willow Parade",
      "Albert Place",
      "Cedar Hill",
      "Church Terrace",
      "Farm Walk",
      "London Lane",
      "North Rise",
      "Spring Square"
    ],
    "Hove": [
      "Alexandra Avenue",
      "Alexandra Close",
      "Ash Avenue",
      "Bridge Square",
      "Cedar Parade",
      "Chapel Square",
      "East Hill",
      "East Place",
      "Edward Crescent",
      "Edward Gardens",
      "Edward Road",
      "Farm Rise",
      "Field Square",
      "High Place",
      "High Walk",
      "Manor Street",
      "New Road",
      "North Gardens",
      "North Square",
      "North Way",
      "Oak Crescent",
      "Old Gardens",
      "Orchard Road",
      "Park Road",
      "Pine Gardens",
      "Pine Square",
      "Princess Hill",
      "Princess Rise",
      "School Way",
      "South Square",
      "South Terrace",
      "Spring Court",
      "Spring Drive",
      "Spring Grove",
      "Station Terrace",
      "William Drive",
      "William Place",
      "William Square",
      "William Terrace",
      "Windsor Way"
    ],
    "Eastbourne": [
      "Birch Parade",
      "Bridge Court",
      "Castle Terrace",
      "Cross Gardens",
      "Elm Place",
      "Field Place",
      "Garden Square",
      "High Crescent",
      "London Crescent",
      "London Walk",
      "Market Road",
      "Meadow Lane",
      "Mill Close",
      "North Crescent",
      "Old Rise",
      "Orchard Place",
      "Orchard Terrace",
      "Pine Avenue",
      "Rose Court",
      "Spring Road",
      "Station Drive",
      "West Close",
      "West Walk",
      "William Lane",
      "Willow Drive",
      "Albert Parade",
      "Ash Square",
      "Cedar Lane",
      "Church Crescent",
      "King Terrace"
    ],
    "Guildford": [
      "Albert Court",
      "Albert Lane",
      "Albert Street",
      "Alexandra Crescent",
      "Ash Court",
      "Birch Road",
      "Brook Walk",
      "Cedar Square",
      "Church Hill",
      "Church Walk",
      "Cross Lane",
      "Garden Gardens",
      "Garden Rise",
      "Garden Street",
      "Green Terrace",
      "Manor Way",
      "Market Walk",
      "North Walk",
      "North Way",
      "Old Square",
      "Pine Hill",
      "Princess Way",
      "Spring Avenue",
      "Spring Place",
      "Station Crescent",
      "Station Lane",
      "Victoria Avenue",
      "William Drive",
      "William Rise",
      "Meadow Hill"
    ],
    "Woking": [
      "Albert Lane",
      "Ash Grove",
      "Bridge Walk",
      "Cedar Close",
      "Church Grove",
      "Edward Lane",
      "Elm Crescent",
      "Field Road",
      "Garden Court",
      "Garden Street",
      "George Street",
      "London Parade",
      "Manor Gardens",
      "Oak Grove",
      "Park Close",
      "Princess Hill",
      "Queen Square",
      "School Lane",
      "South Place",
      "Spring Grove",
      "William Avenue",
      "William Gardens",
      "Birch Place",
      "Castle Avenue",
      "Cross Hill",
      "Duke Terrace",
      "Farm Walk",
      "Meadow Crescent",
      "North Lane",
      "Pine Avenue"
    ],
    "Epsom": [
      "Albert Walk",
      "Chapel Place",
      "Duke Terrace",
      "East Avenue",
      "East Parade",
      "Garden Square",
      "George Lane",
      "Green Road",
      "High Parade",
      "High Square",
      "London Gardens",
      "Meadow Square",
      "New Close",
      "North Rise",
      "North Terrace",
      "Orchard Drive",
      "Park Square",
      "Princess Drive",
      "Queen Avenue",
      "School Grove",
      "Victoria Gardens",
      "West Court",
      "West Parade",
      "Willow Square",
      "Ash Close",
      "Birch Crescent",
      "Cedar Hill",
      "Church Walk",
      "Manor Lane",
      "Rose Terrace"
    ],
    "Luton": [
      "Ash Terrace",
      "Birch Hill",
      "Brook Grove",
      "Castle Gardens",
      "Castle Terrace",
      "Cedar Drive",
      "Cedar Hill",
      "Chapel Lane",
      "Church Walk",
      "Cross Street",
      "Duke Mews",
      "East Crescent",
      "Edward Parade",
      "Farm Terrace",
      "Field Parade",
      "Garden Square",
      "Garden Way",
      "Manor Gardens",
      "Market Court",
      "Market Rise",
      "Meadow Parade",
      "Mill Court",
      "Mill Crescent",
      "New Parade",
      "North Road",
      "Old Street",
      "Orchard Avenue",
      "Orchard Place",
      "Prince Drive",
      "Prince Terrace",
      "Queen Lane",
      "South Parade",
      "South Rise",
      "West Lane",
      "Windsor Lane"
    ],
    "Bedford": [
      "Albert Grove",
      "Albert Lane",
      "Ash Close",
      "Bridge Road",
      "Brook Parade",
      "Brook Walk",
      "Chapel Close",
      "Cross Place",
      "Farm Drive",
      "Garden Parade",
      "George Way",
      "High Court",
      "Manor Walk",
      "Mill Hill",
      "Pine Drive",
      "Pine Walk",
      "Queen Parade",
      "Queen Terrace",
      "Rose Terrace",
      "South Lane",
      "South Mews",
      "South Road",
      "Spring Mews",
      "Station Crescent",
      "Victoria Grove",
      "West Grove",
      "West Parade",
      "Willow Road",
      "Windsor Mews",
      "Cedar Walk"
    ],
    "Milton Keynes": [
      "Albert Rise",
      "Ash Close",
      "Ash Mews",
      "Bridge Mews",
      "Brook Avenue",
      "Cedar Close",
      "Cedar Mews",
      "Cedar Street",
      "Cedar Way",
      "Church Court",
      "Cross Street",
      "Cross Walk",
      "Farm Parade",
      "Field Close",
      "George Court",
      "Meadow Parade",
      "Meadow Terrace",
      "New Road",
      "North Drive",
      "Oak Crescent",
      "Old Drive",
      "Old Place",
      "Pine Drive",
      "Pine Place",
      "Queen Grove",
      "School Drive",
      "South Lane",
      "South Rise",
      "South Walk",
      "Station Drive",
      "Station Parade",
      "Victoria Way",
      "West Close",
      "West Walk",
      "Windsor Avenue",
      "Windsor Gardens"
    ],
    "Aylesbury": [
      "Albert Way",
      "Alexandra Street",
      "Bridge Parade",
      "Brook Road",
      "Cedar Court",
      "Cedar Drive",
      "Cedar Grove",
      "Chapel Road",
      "Church Way",
      "East Street",
      "Edward Crescent",
      "Edward Parade",
      "Edward Walk",
      "Elm Court",
      "Farm Walk",
      "Garden Walk",
      "Green Lane",
      "Green Walk",
      "High Grove",
      "High Rise",
      "London Court",
      "Manor Rise",
      "Mill Avenue",
      "Mill Place",
      "New Avenue",
      "Oak Place",
      "Oak Terrace",
      "Queen Close",
      "Rose Rise",
      "Rose Walk",
      "School Square",
      "Spring Grove",
      "Victoria Gardens",
      "West Mews",
      "West Walk",
      "William Rise",
      "Willow Parade",
      "Windsor Crescent"
    ],
    "High Wycombe": [
      "Albert Parade",
      "Alexandra Grove",
      "Brook Square",
      "Castle Square",
      "Cedar Close",
      "Chapel Place",
      "Chapel Road",
      "Cross Street",
      "Edward Close",
      "Farm Terrace",
      "Garden Rise",
      "Manor Way",
      "Mill Avenue",
      "New Rise",
      "North Rise",
      "Old Grove",
      "Orchard Mews",
      "Orchard Square",
      "Pine Grove",
      "Queen Gardens",
      "Queen Place",
      "South Hill",
      "William Grove",
      "Birch Lane",
      "Church Court",
      "Duke Walk",
      "Elm Avenue",
      "Green Rise",
      "King Street",
      "Meadow Terrace"
    ],
    "Northampton": [
      "Albert Street",
      "Ash Street",
      "Bridge Grove",
      "Brook Court",
      "Brook Lane",
      "Chapel Close",
      "East Walk",
      "Meadow Walk",
      "New Mews",
      "Old Lane",
      "Prince Grove",
      "Princess Road",
      "Princess Way",
      "Queen Court",
      "Rose Court",
      "School Rise",
      "School Road",
      "Station Walk",
      "Victoria Lane",
      "West Mews",
      "William Road",
      "Windsor Grove",
      "Birch Lane",
      "Castle Drive",
      "Cedar Hill",
      "Church Terrace",
      "Elm Parade",
      "Garden Square",
      "King Walk",
      "Meadow Close"
    ],
    "Swindon": [
      "Alexandra Lane",
      "Bridge Place",
      "Bridge Walk",
      "Castle Hill",
      "Cedar Avenue",
      "Cedar Court",
      "Edward Hill",
      "Edward Place",
      "Farm Place",
      "Farm Street",
      "Field Street",
      "Field Terrace",
      "Field Way",
      "Garden Street",
      "Green Walk",
      "London Walk",
      "Manor Square",
      "Market Rise",
      "Oak Walk",
      "Princess Crescent",
      "Princess Square",
      "Queen Close",
      "Queen Lane",
      "Queen Square",
      "Rose Street",
      "South Way",
      "Spring Court",
      "Spring Parade",
      "Victoria Square",
      "William Court",
      "William Hill",
      "Willow Grove"
    ],
    "Salisbury": [
      "Birch Parade",
      "Birch Way",
      "Cedar Terrace",
      "Chapel Crescent",
      "Chapel Street",
      "Garden Road",
      "Green Lane",
      "King Court",
      "King Terrace",
      "London Square",
      "Market Terrace",
      "Meadow Crescent",
      "Mill Road",
      "New Avenue",
      "North Parade",
      "Prince Close",
      "Prince Grove",
      "Prince Mews",
      "Princess Lane",
      "Queen Way",
      "Rose Rise",
      "South Parade",
      "South Way",
      "West Mews",
      "West Walk",
      "William Mews",
      "William Way",
      "Albert Close",
      "Bridge Court",
      "Castle Lane"
    ],
    "Bath": [
      "Birch Gardens",
      "Birch Rise",
      "Brook Close",
      "Brook Grove",
      "Brook Place",
      "Chapel Crescent",
      "East Drive",
      "Edward Street",
      "Edward Terrace",
      "Edward Walk",
      "Elm Grove",
      "Garden Crescent",
      "Garden Road",
      "High Close",
      "High Way",
      "King Square",
      "Manor Crescent",
      "Manor Place",
      "Meadow Close",
      "Mill Parade",
      "Mill Walk",
      "New Mews",
      "North Rise",
      "Oak Mews",
      "Pine Terrace",
      "Prince Hill",
      "Prince Mews",
      "Queen Court",
      "Queen Square",
      "Spring Parade",
      "West Parade",
      "West Square",
      "William Court",
      "Willow Avenue",
      "Willow Crescent"
    ],
    "Taunton": [
      "Albert Gardens",
      "Albert Square",
      "Alexandra Place",
      "Ash Crescent",
      "Birch Hill",
      "Bridge Crescent",
      "Bridge Street",
      "Bridge Way",
      "Brook Parade",
      "Brook Square",
      "Castle Court",
      "Chapel Gardens",
      "Cross Avenue",
      "Edward Lane",
      "Farm Parade",
      "George Place",
      "Manor Close",
      "Market Crescent",
      "Meadow Lane",
      "Mill Court",
      "Oak Avenue",
      "Oak Close",
      "Oak Parade",
      "Old Crescent",
      "Orchard Place",
      "Park Grove",
      "Park Way",
      "Prince Hill",
      "Queen Mews",
      "Queen Terrace",
      "Rose Hill",
      "School Grove",
      "Victoria Close",
      "Victoria Grove",
      "West Gardens",
      "West Street",
      "William Walk",
      "Willow Drive"
    ],
    "Bournemouth": [
      "Ash Drive",
      "Cedar Square",
      "Chapel Drive",
      "Church Grove",
      "Cross Parade",
      "Cross Square",
      "Duke Court",
      "Duke Terrace",
      "Edward Square",
      "Elm Walk",
      "King Gardens",
      "London Mews",
      "Manor Avenue",
      "Manor Place",
      "Market Mews",
      "Mill Walk",
      "Old Grove",
      "Old Street",
      "Orchard Road",
      "Prince Square",
      "Rose Lane",
      "School Hill",
      "Station Terrace",
      "Victoria Grove",
      "West Parade",
      "Willow Square",
      "Albert Way",
      "Bridge Lane",
      "North Square",
      "Pine Place"
    ],
    "Poole": [
      "Alexandra Grove",
      "Bridge Gardens",
      "Brook Way",
      "Cedar Gardens",
      "Cedar Square",
      "Duke Terrace",
      "East Lane",
      "Elm Court",
      "Elm Grove",
      "High Mews",
      "High Rise",
      "High Square",
      "High Street",
      "King Close",
      "New Gardens",
      "Oak Place",
      "Oak Square",
      "Prince Rise",
      "Princess Avenue",
      "Princess Court",
      "Princess Square",
      "Queen Lane",
      "Rose Drive",
      "Rose Place",
      "Spring Court",
      "Victoria Hill",
      "West Drive",
      "Albert Walk",
      "Church Lane",
      "Farm Crescent"
    ],
    "Gloucester": [
      "Alexandra Hill",
      "Birch Way",
      "Brook Hill",
      "Castle Lane",
      "Castle Rise",
      "Cedar Close",
      "Cedar Gardens",
      "Cedar Grove",
      "Church Close",
      "Church Drive",
      "Cross Rise",
      "Cross Road",
      "Duke Mews",
      "East Crescent",
      "East Hill",
      "East Place",
      "East Terrace",
      "Edward Road",
      "George Way",
      "Green Court",
      "Green Place",
      "King Road",
      "London Square",
      "Manor Gardens",
      "Manor Walk",
      "Market Close",
      "New Road",
      "New Street",
      "Orchard Walk",
      "Park Square",
      "Park Way",
      "Prince Drive",
      "Prince Grove",
      "Prince Mews",
      "South Lane",
      "Spring Hill",
