{
  "locations": [
    {"city": "Mexico City", "state": "Ciudad de México", "state_abbr": "CDMX", "postcode_prefix": "06", "lat_min": 19.38, "lat_max": 19.48, "lon_min": -99.18, "lon_max": -99.08},
    {"city": "Guadalajara", "state": "Jalisco", "state_abbr": "JAL", "postcode_prefix": "44", "lat_min": 20.64, "lat_max": 20.74, "lon_min": -103.40, "lon_max": -103.30},
    {"city": "Monterrey", "state": "Nuevo León", "state_abbr": "NL", "postcode_prefix": "64", "lat_min": 25.62, "lat_max": 25.72, "lon_min": -100.36, "lon_max": -100.26},
    {"city": "Puebla", "state": "Puebla", "state_abbr": "PUE", "postcode_prefix": "72", "lat_min": 19.00, "lat_max": 19.10, "lon_min": -98.24, "lon_max": -98.14},
    {"city": "Tijuana", "state": "Baja California", "state_abbr": "BC", "postcode_prefix": "22", "lat_min": 32.48, "lat_max": 32.58, "lon_min": -117.08, "lon_max": -116.98},
    {"city": "León", "state": "Guanajuato", "state_abbr": "GTO", "postcode_prefix": "37", "lat_min": 21.08, "lat_max": 21.18, "lon_min": -101.72, "lon_max": -101.62},
    {"city": "Juárez", "state": "Chihuahua", "state_abbr": "CHIH", "postcode_prefix": "32", "lat_min": 31.68, "lat_max": 31.78, "lon_min": -106.48, "lon_max": -106.38},
    {"city": "Zapopan", "state": "Jalisco", "state_abbr": "JAL", "postcode_prefix": "45", "lat_min": 20.68, "lat_max": 20.78, "lon_min": -103.44, "lon_max": -103.34},
    {"city": "Mérida", "state": "Yucatán", "state_abbr": "YUC", "postcode_prefix": "97", "lat_min": 20.94, "lat_max": 21.04, "lon_min": -89.66, "lon_max": -89.56},
    {"city": "San Luis Potosí", "state": "San Luis Potosí", "state_abbr": "SLP", "postcode_prefix": "78", "lat_min": 22.12, "lat_max": 22.22, "lon_min": -101.02, "lon_max": -100.92},
    {"city": "Aguascalientes", "state": "Aguascalientes", "state_abbr": "AGS", "postcode_prefix": "20", "lat_min": 21.86, "lat_max": 21.96, "lon_min": -102.34, "lon_max": -102.24},
    {"city": "Hermosillo", "state": "Sonora", "state_abbr": "SON", "postcode_prefix": "83", "lat_min": 29.04, "lat_max": 29.14, "lon_min": -111.00, "lon_max": -110.90},
    {"city": "Chihuahua", "state": "Chihuahua", "state_abbr": "CHIH", "postcode_prefix": "31", "lat_min": 28.58, "lat_max": 28.68, "lon_min": -106.14, "lon_max": -106.04},
    {"city": "Cancún", "state": "Quintana Roo", "state_abbr": "QROO", "postcode_prefix": "77", "lat_min": 21.12, "lat_max": 21.22, "lon_min": -86.90, "lon_max": -86.80},
    {"city": "Querétaro", "state": "Querétaro", "state_abbr": "QRO", "postcode_prefix": "76", "lat_min": 20.56, "lat_max": 20.66, "lon_min": -100.44, "lon_max": -100.34},
    {"city": "Morelia", "state": "Michoacán", "state_abbr": "MICH", "postcode_prefix": "58", "lat_min": 19.68, "lat_max": 19.78, "lon_min": -101.24, "lon_max": -101.14},
    {"city": "Culiacán", "state": "Sinaloa", "state_abbr": "SIN", "postcode_prefix": "80", "lat_min": 24.76, "lat_max": 24.86, "lon_min": -107.44, "lon_max": -107.34},
    {"city": "Toluca", "state": "Estado de México", "state_abbr": "MEX", "postcode_prefix": "50", "lat_min": 19.26, "lat_max": 19.36, "lon_min": -99.70, "lon_max": -99.60},
    {"city": "Acapulco", "state": "Guerrero", "state_abbr": "GRO", "postcode_prefix": "39", "lat_min": 16.82, "lat_max": 16.92, "lon_min": -99.94, "lon_max": -99.84},
    {"city": "Veracruz", "state": "Veracruz", "state_abbr": "VER", "postcode_prefix": "91", "lat_min": 19.16, "lat_max": 19.26, "lon_min": -96.18, "lon_max": -96.08},
    {"city": "Tuxtla Gutiérrez", "state": "Chiapas", "state_abbr": "CHIS", "postcode_prefix": "29", "lat_min": 16.70, "lat_max": 16.80, "lon_min": -93.18, "lon_max": -93.08},
    {"city": "Torreón", "state": "Coahuila", "state_abbr": "COAH", "postcode_prefix": "27", "lat_min": 25.50, "lat_max": 25.60, "lon_min": -103.48, "lon_max": -103.38},
    {"city": "Mazatlán", "state": "Sinaloa", "state_abbr": "SIN", "postcode_prefix": "82", "lat_min": 23.20, "lat_max": 23.30, "lon_min": -106.46, "lon_max": -106.36},
    {"city": "Oaxaca", "state": "Oaxaca", "state_abbr": "OAX", "postcode_prefix": "68", "lat_min": 17.04, "lat_max": 17.14, "lon_min": -96.76, "lon_max": -96.66},
    {"city": "Villahermosa", "state": "Tabasco", "state_abbr": "TAB", "postcode_prefix": "86", "lat_min": 17.94, "lat_max": 18.04, "lon_min": -92.98, "lon_max": -92.88},
    {"city": "Saltillo", "state": "Coahuila", "state_abbr": "COAH", "postcode_prefix": "25", "lat_min": 25.38, "lat_max": 25.48, "lon_min": -101.02, "lon_max": -100.92},
    {"city": "Durango", "state": "Durango", "state_abbr": "DGO", "postcode_prefix": "34", "lat_min": 24.00, "lat_max": 24.10, "lon_min": -104.72, "lon_max": -104.62},
    {"city": "Cuernavaca", "state": "Morelos", "state_abbr": "MOR", "postcode_prefix": "62", "lat_min": 18.88, "lat_max": 18.98, "lon_min": -99.28, "lon_max": -99.18},
    {"city": "Tampico", "state": "Tamaulipas", "state_abbr": "TAMPS", "postcode_prefix": "89", "lat_min": 22.20, "lat_max": 22.30, "lon_min": -97.90, "lon_max": -97.80},
    {"city": "Playa del Carmen", "state": "Quintana Roo", "state_abbr": "QROO", "postcode_prefix": "77", "lat_min": 20.60, "lat_max": 20.70, "lon_min": -87.10, "lon_max": -87.00}
  ],
  "streets_by_city": {
    "Mexico City": ["Paseo de la Reforma", "Avenida Insurgentes", "Avenida Chapultepec", "Calle Madero", "Avenida Juárez", "Calle 5 de Mayo", "Avenida Hidalgo", "Calle República de Cuba", "Avenida Universidad", "Calle Génova"],
    "Guadalajara": ["Avenida Vallarta", "Avenida Chapultepec", "Calle Morelos", "Avenida Juárez", "Calle López Cotilla", "Avenida Hidalgo", "Calle Pedro Moreno", "Avenida México", "Calle Colón", "Avenida La Paz"],
    "Monterrey": ["Avenida Constitución", "Calle Morelos", "Avenida Juárez", "Calle Padre Mier", "Avenida Madero", "Calle Zaragoza", "Avenida Pino Suárez", "Calle Hidalgo", "Avenida Universidad", "Calle Cuauhtémoc"],
    "Puebla": ["Avenida Juárez", "Calle 5 de Mayo", "Boulevard Héroes del 5 de Mayo", "Avenida Reforma", "Calle 2 Sur", "Avenida Don Juan de Palafox", "Calle 3 Oriente", "Boulevard Atlixco", "Calle 16 de Septiembre", "Avenida 11 Sur"],
    "Tijuana": ["Avenida Revolución", "Boulevard Agua Caliente", "Calle Tercera", "Avenida Constitución", "Boulevard Sánchez Taboada", "Calle Sexta", "Avenida Madero", "Boulevard Díaz Ordaz", "Calle Primera", "Avenida Negrete"],
    "León": ["Boulevard López Mateos", "Calle Madero", "Boulevard Adolfo López Mateos", "Avenida Juárez", "Calle 5 de Mayo", "Boulevard Juan Alonso de Torres", "Calle Hidalgo", "Avenida Insurgentes", "Calle Morelos", "Boulevard Campestre"],
    "Juárez": ["Avenida Juárez", "Calle Lerdo", "Avenida 16 de Septiembre", "Boulevard Tomás Fernández", "Calle Mariscal", "Avenida Lincoln", "Boulevard Zaragoza", "Calle Noche Triste", "Avenida de las Américas", "Calle Vicente Guerrero"],
    "Zapopan": ["Avenida Patria", "Boulevard Puerta de Hierro", "Avenida Juan Pablo II", "Calle Acueducto", "Avenida Guadalupe", "Boulevard Andares", "Calle Tepeyac", "Avenida de las Rosas", "Boulevard Paseo de los Virreyes", "Calle Santa Margarita"],
    "Mérida": ["Paseo de Montejo", "Calle 60", "Calle 59", "Avenida Itzaes", "Calle 62", "Prolongación Paseo de Montejo", "Calle 65", "Avenida Colón", "Calle 56", "Avenida Cupules"],
    "San Luis Potosí": ["Avenida Carranza", "Calle Madero", "Avenida Universidad", "Calle Zaragoza", "Boulevard Antonio Rocha Cordero", "Calle Álvaro Obregón", "Avenida Himno Nacional", "Calle Morelos", "Boulevard Río Santiago", "Calle Independencia"],
    "Aguascalientes": ["Avenida Aguascalientes", "Calle Madero", "Boulevard Luis Donaldo Colosio", "Avenida López Mateos", "Calle 5 de Mayo", "Avenida Convención", "Boulevard José María Chávez", "Calle Morelos", "Avenida Universidad", "Calle Nieto"],
    "Hermosillo": ["Boulevard Luis Encinas", "Calle Rosales", "Boulevard Kino", "Avenida Serdán", "Boulevard Solidaridad", "Calle Monterrey", "Avenida Yáñez", "Boulevard Morelos", "Calle Garmendia", "Avenida Cultura"],
    "Chihuahua": ["Avenida Independencia", "Calle Libertad", "Boulevard Ortiz Mena", "Avenida Juárez", "Calle Victoria", "Boulevard Díaz Ordaz", "Avenida Universidad", "Calle Aldama", "Boulevard Antonio Ortiz Mena", "Calle Ocampo"],
    "Cancún": ["Boulevard Kukulcán", "Avenida Tulum", "Boulevard Colosio", "Avenida Bonampak", "Calle Tulipanes", "Avenida Nichupté", "Boulevard de las Naciones", "Avenida Yaxchilán", "Calle Alcatraces", "Avenida Kabah"],
    "Querétaro": ["Boulevard Bernardo Quintana", "Avenida Constituyentes", "Calle Madero", "Avenida Universidad", "Boulevard Juriquilla", "Calle Corregidora", "Avenida Tecnológico", "Calle 5 de Mayo", "Boulevard Centro Sur", "Calle Independencia"],
    "Morelia": ["Avenida Madero", "Calzada Ventura Puente", "Avenida Acueducto", "Calle Nigromante", "Boulevard García de León", "Avenida Periodismo", "Calle Benito Juárez", "Avenida Camelinas", "Calle Aquiles Serdán", "Boulevard Alonso de Torres"],
    "Culiacán": ["Boulevard Francisco I. Madero", "Avenida Álvaro Obregón", "Boulevard Rolando Arjona", "Calle Ángel Flores", "Avenida Universitarios", "Boulevard Emiliano Zapata", "Calle Antonio Rosales", "Avenida Insurgentes", "Boulevard Pedro Infante", "Calle Juárez"],
    "Toluca": ["Paseo Tollocan", "Avenida Juárez", "Boulevard Isidro Fabela", "Calle Morelos", "Avenida Independencia", "Boulevard Aeropuerto", "Calle Hidalgo", "Avenida Lerdo", "Boulevard Miguel Alemán", "Calle Villada"],
    "Acapulco": ["Avenida Costera Miguel Alemán", "Boulevard de las Naciones", "Calle Cinco de Mayo", "Avenida Cuauhtémoc", "Boulevard Príncipe", "Calle Juan de la Cosa", "Avenida Wilfrido Massieu", "Calle La Quebrada", "Boulevard Vicente Guerrero", "Avenida Escénica"],
    "Veracruz": ["Boulevard Manuel Ávila Camacho", "Avenida Independencia", "Calle Zaragoza", "Boulevard Adolfo Ruiz Cortines", "Avenida Díaz Mirón", "Calle Miguel Lerdo", "Boulevard Costa de Oro", "Avenida Salvador Díaz Mirón", "Calle Emparan", "Boulevard Xalapa"],
    "Tuxtla Gutiérrez": ["Boulevard Belisario Domínguez", "Avenida Central", "Calle 1a Norte", "Boulevard Andrés Serra Rojas", "Avenida 1a Sur", "Calle 2a Oriente", "Boulevard Ángel Albino Corzo", "Avenida 3a Norte", "Calle 4a Poniente", "Boulevard Dr. Samuel León Brindis"],
    "Torreón": ["Boulevard Independencia", "Calle Cepeda", "Avenida Juárez", "Boulevard Revolución", "Calle Valdez Carrillo", "Avenida Morelos", "Boulevard Diagonal Reforma", "Calle Acuña", "Avenida Allende", "Boulevard Laguna"],
    "Mazatlán": ["Avenida del Mar", "Boulevard Miguel de la Madrid", "Calle Ángel Flores", "Avenida Camarón Sábalo", "Boulevard Marina Mazatlán", "Calle Benito Juárez", "Avenida Insurgentes", "Calle Belisario Domínguez", "Boulevard Gaviotas", "Calle 21 de Marzo"],
    "Oaxaca": ["Calle Macedonio Alcalá", "Avenida Independencia", "Calle García Vigil", "Avenida Juárez", "Calle Hidalgo", "Avenida Morelos", "Calle 5 de Mayo", "Avenida Universidad", "Calle Porfirio Díaz", "Avenida Periférico"],
    "Villahermosa": ["Avenida Ruiz Cortines", "Boulevard Adolfo Ruiz Cortines", "Calle Madero", "Avenida 27 de Febrero", "Boulevard Paseo Tabasco", "Calle Juárez", "Avenida Gregorio Méndez", "Calle Lerdo de Tejada", "Boulevard Grijalva", "Avenida Universidad"],
    "Saltillo": ["Boulevard Venustiano Carranza", "Calle Victoria", "Boulevard Nazario Ortiz Garza", "Avenida Universidad", "Calle Allende", "Boulevard Luis Donaldo Colosio", "Avenida Presidente Cárdenas", "Calle Hidalgo", "Boulevard Fundadores", "Calle Acuña"],
    "Durango": ["Avenida 20 de Noviembre", "Boulevard Dolores del Río", "Calle 5 de Febrero", "Avenida Heroico Colegio Militar", "Boulevard Felipe Pescador", "Calle Constitución", "Avenida Negrete", "Boulevard Domingo Arrieta", "Calle Pino Suárez", "Avenida Universidad"],
    "Cuernavaca": ["Avenida Morelos", "Boulevard Benito Juárez", "Calle Rayón", "Avenida Plan de Ayala", "Boulevard Cuauhnáhuac", "Calle Galeana", "Avenida Teopanzolco", "Boulevard Paseo del Conquistador", "Calle Degollado", "Avenida Universidad"],
    "Tampico": ["Boulevard Adolfo López Mateos", "Avenida Hidalgo", "Calle Altamira", "Boulevard Fidel Velázquez", "Avenida Universidad", "Calle Aduana", "Boulevard Emilio Portes Gil", "Avenida Ayuntamiento", "Calle Díaz Mirón", "Boulevard Costero"],
    "Playa del Carmen": ["Quinta Avenida", "Avenida 10", "Calle 1 Sur", "Avenida CTM", "Calle 12 Norte", "Avenida Constituyentes", "Calle 30", "Avenida Juárez", "Calle 8", "Boulevard Playa del Carmen"]
  },
  "postcode_format": "#####",
  "address_formats": [
    "{street} {building_number}, {city}, {state_abbr} C.P. {postcode}",
    "{street} {building_number}, Col. Centro, {city}, {state_abbr} C.P. {postcode}"
  ],
  "country": "México",
  "country_code": "MX",
  "phone_area_codes": {
    "Ciudad de México": ["55"],
    "Jalisco": ["33"],
    "Nuevo León": ["81"],
    "Puebla": ["222"],
    "Baja California": ["664"],
    "Guanajuato": ["477"],
    "Chihuahua": ["614", "656"],
    "Yucatán": ["999"],
    "San Luis Potosí": ["444"],
    "Aguascalientes": ["449"],
    "Sonora": ["662"],
    "Quintana Roo": ["998"],
    "Querétaro": ["442"],
    "Michoacán": ["443"],
    "Sinaloa": ["667", "669"],
    "Estado de México": ["722"],
    "Guerrero": ["744"],
    "Veracruz": ["229"],
    "Chiapas": ["961"],
    "Coahuila": ["844", "871"],
    "Oaxaca": ["951"],
    "Tabasco": ["993"],
    "Durango": ["618"],
    "Morelos": ["777"],
    "Tamaulipas": ["833"]
  }
}
