{
  "locations": [
    {"city": "Sydney", "state": "New South Wales", "state_abbr": "NSW", "postcode_prefix": "2000", "lat_min": -33.92, "lat_max": -33.82, "lon_min": 151.15, "lon_max": 151.25},
    {"city": "Melbourne", "state": "Victoria", "state_abbr": "VIC", "postcode_prefix": "3000", "lat_min": -37.85, "lat_max": -37.75, "lon_min": 144.95, "lon_max": 145.05},
    {"city": "Brisbane", "state": "Queensland", "state_abbr": "QLD", "postcode_prefix": "4000", "lat_min": -27.50, "lat_max": -27.40, "lon_min": 153.00, "lon_max": 153.10},
    {"city": "Perth", "state": "Western Australia", "state_abbr": "WA", "postcode_prefix": "6000", "lat_min": -31.98, "lat_max": -31.88, "lon_min": 115.82, "lon_max": 115.92},
    {"city": "Adelaide", "state": "South Australia", "state_abbr": "SA", "postcode_prefix": "5000", "lat_min": -34.98, "lat_max": -34.88, "lon_min": 138.55, "lon_max": 138.65},
    {"city": "Gold Coast", "state": "Queensland", "state_abbr": "QLD", "postcode_prefix": "4217", "lat_min": -28.05, "lat_max": -27.95, "lon_min": 153.40, "lon_max": 153.50},
    {"city": "Newcastle", "state": "New South Wales", "state_abbr": "NSW", "postcode_prefix": "2300", "lat_min": -32.95, "lat_max": -32.85, "lon_min": 151.75, "lon_max": 151.85},
    {"city": "Canberra", "state": "Australian Capital Territory", "state_abbr": "ACT", "postcode_prefix": "2600", "lat_min": -35.32, "lat_max": -35.22, "lon_min": 149.10, "lon_max": 149.20},
    {"city": "Wollongong", "state": "New South Wales", "state_abbr": "NSW", "postcode_prefix": "2500", "lat_min": -34.48, "lat_max": -34.38, "lon_min": 150.85, "lon_max": 150.95},
    {"city": "Hobart", "state": "Tasmania", "state_abbr": "TAS", "postcode_prefix": "7000", "lat_min": -42.92, "lat_max": -42.82, "lon_min": 147.30, "lon_max": 147.40},
    {"city": "Geelong", "state": "Victoria", "state_abbr": "VIC", "postcode_prefix": "3220", "lat_min": -38.18, "lat_max": -38.08, "lon_min": 144.35, "lon_max": 144.45},
    {"city": "Townsville", "state": "Queensland", "state_abbr": "QLD", "postcode_prefix": "4810", "lat_min": -19.30, "lat_max": -19.20, "lon_min": 146.78, "lon_max": 146.88},
    {"city": "Cairns", "state": "Queensland", "state_abbr": "QLD", "postcode_prefix": "4870", "lat_min": -16.95, "lat_max": -16.85, "lon_min": 145.75, "lon_max": 145.85},
    {"city": "Darwin", "state": "Northern Territory", "state_abbr": "NT", "postcode_prefix": "0800", "lat_min": -12.50, "lat_max": -12.40, "lon_min": 130.82, "lon_max": 130.92},
    {"city": "Toowoomba", "state": "Queensland", "state_abbr": "QLD", "postcode_prefix": "4350", "lat_min": -27.60, "lat_max": -27.50, "lon_min": 151.93, "lon_max": 152.03},
    {"city": "Ballarat", "state": "Victoria", "state_abbr": "VIC", "postcode_prefix": "3350", "lat_min": -37.60, "lat_max": -37.50, "lon_min": 143.82, "lon_max": 143.92},
    {"city": "Bendigo", "state": "Victoria", "state_abbr": "VIC", "postcode_prefix": "3550", "lat_min": -36.80, "lat_max": -36.70, "lon_min": 144.25, "lon_max": 144.35},
    {"city": "Launceston", "state": "Tasmania", "state_abbr": "TAS", "postcode_prefix": "7250", "lat_min": -41.48, "lat_max": -41.38, "lon_min": 147.12, "lon_max": 147.22},
    {"city": "Mackay", "state": "Queensland", "state_abbr": "QLD", "postcode_prefix": "4740", "lat_min": -21.20, "lat_max": -21.10, "lon_min": 149.15, "lon_max": 149.25},
    {"city": "Rockhampton", "state": "Queensland", "state_abbr": "QLD", "postcode_prefix": "4700", "lat_min": -23.42, "lat_max": -23.32, "lon_min": 150.48, "lon_max": 150.58},
    {"city": "Bunbury", "state": "Western Australia", "state_abbr": "WA", "postcode_prefix": "6230", "lat_min": -33.38, "lat_max": -33.28, "lon_min": 115.62, "lon_max": 115.72},
    {"city": "Bundaberg", "state": "Queensland", "state_abbr": "QLD", "postcode_prefix": "4670", "lat_min": -24.92, "lat_max": -24.82, "lon_min": 152.32, "lon_max": 152.42},
    {"city": "Wagga Wagga", "state": "New South Wales", "state_abbr": "NSW", "postcode_prefix": "2650", "lat_min": -35.15, "lat_max": -35.05, "lon_min": 147.35, "lon_max": 147.45},
    {"city": "Albury", "state": "New South Wales", "state_abbr": "NSW", "postcode_prefix": "2640", "lat_min": -36.12, "lat_max": -36.02, "lon_min": 146.88, "lon_max": 146.98},
    {"city": "Maitland", "state": "New South Wales", "state_abbr": "NSW", "postcode_prefix": "2320", "lat_min": -32.78, "lat_max": -32.68, "lon_min": 151.52, "lon_max": 151.62},
    {"city": "Sunshine Coast", "state": "Queensland", "state_abbr": "QLD", "postcode_prefix": "4558", "lat_min": -26.72, "lat_max": -26.62, "lon_min": 153.08, "lon_max": 153.18},
    {"city": "Fremantle", "state": "Western Australia", "state_abbr": "WA", "postcode_prefix": "6160", "lat_min": -32.08, "lat_max": -31.98, "lon_min": 115.73, "lon_max": 115.83},
    {"city": "Parramatta", "state": "New South Wales", "state_abbr": "NSW", "postcode_prefix": "2150", "lat_min": -33.85, "lat_max": -33.75, "lon_min": 151.00, "lon_max": 151.10},
    {"city": "Mandurah", "state": "Western Australia", "state_abbr": "WA", "postcode_prefix": "6210", "lat_min": -32.58, "lat_max": -32.48, "lon_min": 115.70, "lon_max": 115.80},
    {"city": "Orange", "state": "New South Wales", "state_abbr": "NSW", "postcode_prefix": "2800", "lat_min": -33.32, "lat_max": -33.22, "lon_min": 149.08, "lon_max": 149.18}
  ],
  "streets_by_city": {
    "Sydney": ["George Street", "Pitt Street", "Elizabeth Street", "Market Street", "King Street", "Oxford Street", "Crown Street", "William Street", "Liverpool Street", "Sussex Street"],
    "Melbourne": ["Collins Street", "Bourke Street", "Swanston Street", "Flinders Street", "Elizabeth Street", "Spencer Street", "King Street", "Queen Street", "William Street", "Lonsdale Street"],
    "Brisbane": ["Queen Street", "Adelaide Street", "Edward Street", "Albert Street", "George Street", "Ann Street", "Turbot Street", "Roma Street", "Creek Street", "Mary Street"],
    "Perth": ["Hay Street", "Murray Street", "Wellington Street", "St Georges Terrace", "Barrack Street", "William Street", "Beaufort Street", "Adelaide Terrace", "Stirling Street", "James Street"],
    "Adelaide": ["Rundle Street", "Hindley Street", "North Terrace", "King William Street", "Grenfell Street", "Currie Street", "Grote Street", "Gouger Street", "Waymouth Street", "Franklin Street"],
    "Gold Coast": ["Cavill Avenue", "Surfers Paradise Boulevard", "Gold Coast Highway", "Orchid Avenue", "Elkhorn Avenue", "Nerang Street", "Bundall Road", "Broadbeach Boulevard", "Marine Parade", "Palm Beach Avenue"],
    "Newcastle": ["Hunter Street", "King Street", "Scott Street", "Bolton Street", "Darby Street", "Beaumont Street", "Tudor Street", "Watt Street", "Perkins Street", "Pacific Street"],
    "Canberra": ["London Circuit", "Northbourne Avenue", "Commonwealth Avenue", "Kings Avenue", "Constitution Avenue", "Vernon Circle", "Marcus Clarke Street", "Akuna Street", "Bunda Street", "Garema Place"],
    "Wollongong": ["Crown Street", "Keira Street", "Church Street", "Market Street", "Smith Street", "Corrimal Street", "Burelli Street", "Stewart Street", "Gladstone Avenue", "Harbour Street"],
    "Hobart": ["Elizabeth Street", "Liverpool Street", "Murray Street", "Collins Street", "Macquarie Street", "Davey Street", "Sandy Bay Road", "Harrington Street", "Argyle Street", "Campbell Street"],
    "Geelong": ["Moorabool Street", "Ryrie Street", "Malop Street", "Little Malop Street", "Gheringhap Street", "Yarra Street", "Brougham Street", "McKillop Street", "Mercer Street", "Fenwick Street"],
    "Townsville": ["Flinders Street", "Sturt Street", "Palmer Street", "Stanley Street", "Denham Street", "Walker Street", "Eyre Street", "Wickham Street", "Ross River Road", "Charters Towers Road"],
    "Cairns": ["Shields Street", "Abbott Street", "Lake Street", "Grafton Street", "Spence Street", "Florence Street", "Sheridan Street", "McLeod Street", "Aplin Street", "Hartley Street"],
    "Darwin": ["Mitchell Street", "Smith Street", "Cavenagh Street", "Knuckey Street", "Bennett Street", "Woods Street", "Daly Street", "Litchfield Street", "McMinn Street", "Lindsay Street"],
    "Toowoomba": ["Ruthven Street", "Margaret Street", "Russell Street", "Neil Street", "James Street", "Herries Street", "Victoria Street", "Bridge Street", "Annand Street", "Bell Street"],
    "Ballarat": ["Sturt Street", "Lydiard Street", "Mair Street", "Dana Street", "Bridge Street", "Armstrong Street", "Doveton Street", "Albert Street", "Camp Street", "Grenville Street"],
    "Bendigo": ["Pall Mall", "Mitchell Street", "Williamson Street", "Hargreaves Street", "View Street", "McCrae Street", "Bull Street", "Queen Street", "Forest Street", "High Street"],
    "Launceston": ["Brisbane Street", "St John Street", "Charles Street", "George Street", "Cameron Street", "Paterson Street", "Wellington Street", "Frederick Street", "York Street", "Cimitiere Street"],
    "Mackay": ["Victoria Street", "Sydney Street", "Wood Street", "Gordon Street", "Shakespeare Street", "Alfred Street", "Nelson Street", "Gregory Street", "Tennyson Street", "Milton Street"],
    "Rockhampton": ["East Street", "Denham Street", "Fitzroy Street", "Bolsover Street", "William Street", "Archer Street", "Derby Street", "Kent Street", "Alma Street", "Albert Street"],
    "Bunbury": ["Victoria Street", "Spencer Street", "Stephen Street", "Stirling Street", "Prinsep Street", "Symmons Street", "Wellington Street", "Blair Street", "Clifton Street", "Arthur Street"],
    "Bundaberg": ["Bourbong Street", "Barolin Street", "Targo Street", "Tantitha Street", "Woongarra Street", "Quay Street", "Maryborough Street", "Takalvan Street", "Electra Street", "Crofton Street"],
    "Wagga Wagga": ["Baylis Street", "Fitzmaurice Street", "Morgan Street", "Gurwood Street", "Johnston Street", "Forsyth Street", "Tarcutta Street", "Morrow Street", "Peter Street", "Trail Street"],
    "Albury": ["Dean Street", "Kiewa Street", "Olive Street", "Townsend Street", "David Street", "Smollett Street", "Wilson Street", "Swift Street", "Young Street", "Wodonga Place"],
    "Maitland": ["High Street", "Church Street", "Hunter Street", "Elgin Street", "Ken Tubman Drive", "New England Highway", "Les Darcy Drive", "Cessnock Road", "Mitchell Drive", "Banks Street"],
    "Sunshine Coast": ["Ocean Street", "Bulcock Street", "First Avenue", "Mooloolaba Esplanade", "Alexandra Parade", "Duporth Avenue", "Brisbane Road", "Nicklin Way", "Sugar Road", "Aerodrome Road"],
    "Fremantle": ["High Street", "Market Street", "South Terrace", "Queen Street", "Adelaide Street", "Pakenham Street", "Phillimore Street", "Marine Terrace", "Essex Street", "Cliff Street"],
    "Parramatta": ["Church Street", "Macquarie Street", "George Street", "Phillip Street", "Marsden Street", "Smith Street", "Argyle Street", "O'Connell Street", "Wilde Avenue", "Fennell Street"],
    "Mandurah": ["Pinjarra Road", "Mandurah Terrace", "Sholl Street", "Ormsby Terrace", "Tuckey Street", "Smart Street", "Dower Street", "Hall Street", "Leslie Street", "Cooper Street"],
    "Orange": ["Summer Street", "Byng Street", "Lords Place", "Sale Street", "Anson Street", "Kite Street", "March Street", "Hill Street", "Clinton Street", "McNamara Street"]
  },
  "postcode_format": "####",
  "address_formats": [
    "{building_number} {street}, {city} {state_abbr} {postcode}",
    "Unit {unit}/{building_number} {street}, {city} {state_abbr} {postcode}"
  ],
  "country": "Australia",
  "country_code": "AU",
  "phone_area_codes": {
    "New South Wales": ["02"],
    "Victoria": ["03"],
    "Queensland": ["07"],
    "Western Australia": ["08"],
    "South Australia": ["08"],
    "Tasmania": ["03"],
    "Australian Capital Territory": ["02"],
    "Northern Territory": ["08"]
  }
}
