{
  "locations": {
    "very_common": [
      {
        "city": "Yangon",
        "state": "Yangon Region",
        "state_abbr": "YGN",
        "postcode_prefix": "111",
        "lat_min": 16.78,
        "lat_max": 16.92,
        "lon_min": 96.1,
        "lon_max": 96.25
      },
      {
        "city": "Mandalay",
        "state": "Mandalay Region",
        "state_abbr": "MDY",
        "postcode_prefix": "050",
        "lat_min": 21.93,
        "lat_max": 21.99,
        "lon_min": 96.06,
        "lon_max": 96.12
      },
      {
        "city": "Naypyidaw",
        "state": "Naypyidaw Union Territory",
        "state_abbr": "NPT",
        "postcode_prefix": "150",
        "lat_min": 19.73,
        "lat_max": 19.79,
        "lon_min": 96.07,
        "lon_max": 96.13
      },
      {
        "city": "Mawlamyine",
        "state": "Mon State",
        "state_abbr": "MON",
        "postcode_prefix": "124",
        "lat_min": 16.47,
        "lat_max": 16.51,
        "lon_min": 97.61,
        "lon_max": 97.65
      },
      {
        "city": "Bago",
        "state": "Bago Region",
        "state_abbr": "BGO",
        "postcode_prefix": "081",
        "lat_min": 17.32,
        "lat_max": 17.36,
        "lon_min": 96.46,
        "lon_max": 96.5
      },
      {
        "city": "Pathein",
        "state": "Ayeyarwady Region",
        "state_abbr": "AYA",
        "postcode_prefix": "100",
        "lat_min": 16.76,
        "lat_max": 16.8,
        "lon_min": 94.71,
        "lon_max": 94.75
      },
      {
        "city": "Taunggyi",
        "state": "Shan State",
        "state_abbr": "SHN",
        "postcode_prefix": "060",
        "lat_min": 20.77,
        "lat_max": 20.81,
        "lon_min": 97.02,
        "lon_max": 97.06
      },
      {
        "city": "Monywa",
        "state": "Sagaing Region",
        "state_abbr": "SGG",
        "postcode_prefix": "031",
        "lat_min": 21.89,
        "lat_max": 21.93,
        "lon_min": 95.11,
        "lon_max": 95.15
      },
      {
        "city": "Meiktila",
        "state": "Mandalay Region",
        "state_abbr": "MDY",
        "postcode_prefix": "051",
        "lat_min": 20.86,
        "lat_max": 20.9,
        "lon_min": 95.84,
        "lon_max": 95.88
      },
      {
        "city": "Myitkyina",
        "state": "Kachin State",
        "state_abbr": "KCN",
        "postcode_prefix": "010",
        "lat_min": 25.36,
        "lat_max": 25.4,
        "lon_min": 97.38,
        "lon_max": 97.42
      }
    ],
    "common": [
      {
        "city": "Sittwe",
        "state": "Rakhine State",
        "state_abbr": "RKN",
        "postcode_prefix": "091",
        "lat_min": 20.13,
        "lat_max": 20.17,
        "lon_min": 92.88,
        "lon_max": 92.92
      },
      {
        "city": "Magway",
        "state": "Magway Region",
        "state_abbr": "MGW",
        "postcode_prefix": "040",
        "lat_min": 20.13,
        "lat_max": 20.17,
        "lon_min": 94.92,
        "lon_max": 94.96
      },
      {
        "city": "Pyay",
        "state": "Bago Region",
        "state_abbr": "BGO",
        "postcode_prefix": "082",
        "lat_min": 18.8,
        "lat_max": 18.84,
        "lon_min": 95.2,
        "lon_max": 95.24
      },
      {
        "city": "Lashio",
        "state": "Shan State",
        "state_abbr": "SHN",
        "postcode_prefix": "061",
        "lat_min": 22.93,
        "lat_max": 22.97,
        "lon_min": 97.73,
        "lon_max": 97.77
      },
      {
        "city": "Hpa-An",
        "state": "Kayin State",
        "state_abbr": "KYN",
        "postcode_prefix": "130",
        "lat_min": 16.87,
        "lat_max": 16.91,
        "lon_min": 97.61,
        "lon_max": 97.65
      },
      {
        "city": "Sagaing",
        "state": "Sagaing Region",
        "state_abbr": "SGG",
        "postcode_prefix": "032",
        "lat_min": 21.86,
        "lat_max": 21.9,
        "lon_min": 95.96,
        "lon_max": 96.0
      },
      {
        "city": "Dawei",
        "state": "Tanintharyi Region",
        "state_abbr": "TNI",
        "postcode_prefix": "140",
        "lat_min": 14.06,
        "lat_max": 14.1,
        "lon_min": 98.17,
        "lon_max": 98.21
      },
      {
        "city": "Myeik",
        "state": "Tanintharyi Region",
        "state_abbr": "TNI",
        "postcode_prefix": "141",
        "lat_min": 12.42,
        "lat_max": 12.46,
        "lon_min": 98.58,
        "lon_max": 98.62
      },
      {
        "city": "Pakokku",
        "state": "Magway Region",
        "state_abbr": "MGW",
        "postcode_prefix": "041",
        "lat_min": 21.32,
        "lat_max": 21.36,
        "lon_min": 95.08,
        "lon_max": 95.12
      },
      {
        "city": "Kalay",
        "state": "Sagaing Region",
        "state_abbr": "SGG",
        "postcode_prefix": "033",
        "lat_min": 23.17,
        "lat_max": 23.21,
        "lon_min": 94.05,
        "lon_max": 94.09
      },
      {
        "city": "Loikaw",
        "state": "Kayah State",
        "state_abbr": "KYH",
        "postcode_prefix": "070",
        "lat_min": 19.66,
        "lat_max": 19.7,
        "lon_min": 97.19,
        "lon_max": 97.23
      },
      {
        "city": "Hakha",
        "state": "Chin State",
        "state_abbr": "CHN",
        "postcode_prefix": "020",
        "lat_min": 21.95,
        "lat_max": 21.99,
        "lon_min": 93.6,
        "lon_max": 93.64
      },
      {
        "city": "Taungoo",
        "state": "Bago Region",
        "state_abbr": "BGO",
        "postcode_prefix": "083",
        "lat_min": 18.92,
        "lat_max": 18.96,
        "lon_min": 96.44,
        "lon_max": 96.48
      },
      {
        "city": "Thaton",
        "state": "Mon State",
        "state_abbr": "MON",
        "postcode_prefix": "125",
        "lat_min": 16.9,
        "lat_max": 16.94,
        "lon_min": 97.35,
        "lon_max": 97.39
      },
      {
        "city": "Pyin Oo Lwin",
        "state": "Mandalay Region",
        "state_abbr": "MDY",
        "postcode_prefix": "052",
        "lat_min": 22.03,
        "lat_max": 22.07,
        "lon_min": 96.45,
        "lon_max": 96.49
      },
      {
        "city": "Mogok",
        "state": "Mandalay Region",
        "state_abbr": "MDY",
        "postcode_prefix": "053",
        "lat_min": 22.9,
        "lat_max": 22.94,
        "lon_min": 96.5,
        "lon_max": 96.54
      },
      {
        "city": "Nyaungshwe",
        "state": "Shan State",
        "state_abbr": "SHN",
        "postcode_prefix": "062",
        "lat_min": 20.66,
        "lat_max": 20.7,
        "lon_min": 96.92,
        "lon_max": 96.96
      },
      {
        "city": "Kyaukphyu",
        "state": "Rakhine State",
        "state_abbr": "RKN",
        "postcode_prefix": "092",
        "lat_min": 19.42,
        "lat_max": 19.46,
        "lon_min": 93.53,
        "lon_max": 93.57
      },
      {
        "city": "Kyaukse",
        "state": "Mandalay Region",
        "state_abbr": "MDY",
        "postcode_prefix": "054",
        "lat_min": 21.58,
        "lat_max": 21.62,
        "lon_min": 96.13,
        "lon_max": 96.17
      },
      {
        "city": "Bhamo",
        "state": "Kachin State",
        "state_abbr": "KCN",
        "postcode_prefix": "011",
        "lat_min": 24.23,
        "lat_max": 24.27,
        "lon_min": 97.22,
        "lon_max": 97.26
      }
    ],
    "uncommon": [
      {
        "city": "Muse",
        "state": "Shan State",
        "state_abbr": "SHN",
        "postcode_prefix": "063",
        "lat_min": 23.97,
        "lat_max": 24.01,
        "lon_min": 97.84,
        "lon_max": 97.88
      },
      {
        "city": "Kengtung",
        "state": "Shan State",
        "state_abbr": "SHN",
        "postcode_prefix": "064",
        "lat_min": 21.28,
        "lat_max": 21.32,
        "lon_min": 99.59,
        "lon_max": 99.63
      },
      {
        "city": "Myawaddy",
        "state": "Kayin State",
        "state_abbr": "KYN",
        "postcode_prefix": "131",
        "lat_min": 16.68,
        "lat_max": 16.72,
        "lon_min": 98.5,
        "lon_max": 98.54
      },
      {
        "city": "Thandwe",
        "state": "Rakhine State",
        "state_abbr": "RKN",
        "postcode_prefix": "093",
        "lat_min": 18.44,
        "lat_max": 18.48,
        "lon_min": 94.36,
        "lon_max": 94.4
      },
      {
        "city": "Shwebo",
        "state": "Sagaing Region",
        "state_abbr": "SGG",
        "postcode_prefix": "034",
        "lat_min": 22.55,
        "lat_max": 22.59,
        "lon_min": 95.69,
        "lon_max": 95.73
      },
      {
        "city": "Yenangyaung",
        "state": "Magway Region",
        "state_abbr": "MGW",
        "postcode_prefix": "042",
        "lat_min": 20.45,
        "lat_max": 20.49,
        "lon_min": 94.87,
        "lon_max": 94.91
      },
      {
        "city": "Chauk",
        "state": "Magway Region",
        "state_abbr": "MGW",
        "postcode_prefix": "043",
        "lat_min": 20.87,
        "lat_max": 20.91,
        "lon_min": 94.8,
        "lon_max": 94.84
      },
      {
        "city": "Myingyan",
        "state": "Mandalay Region",
        "state_abbr": "MDY",
        "postcode_prefix": "055",
        "lat_min": 21.44,
        "lat_max": 21.48,
        "lon_min": 95.38,
        "lon_max": 95.42
      },
      {
        "city": "Aunglan",
        "state": "Magway Region",
        "state_abbr": "MGW",
        "postcode_prefix": "044",
        "lat_min": 19.38,
        "lat_max": 19.42,
        "lon_min": 95.22,
        "lon_max": 95.26
      },
      {
        "city": "Kyaukpadaung",
        "state": "Mandalay Region",
        "state_abbr": "MDY",
        "postcode_prefix": "056",
        "lat_min": 20.82,
        "lat_max": 20.86,
        "lon_min": 95.14,
        "lon_max": 95.18
      },
      {
        "city": "Kawthaung",
        "state": "Tanintharyi Region",
        "state_abbr": "TNI",
        "postcode_prefix": "142",
        "lat_min": 9.97,
        "lat_max": 10.01,
        "lon_min": 98.54,
        "lon_max": 98.58
      },
      {
        "city": "Hinthada",
        "state": "Ayeyarwady Region",
        "state_abbr": "AYA",
        "postcode_prefix": "101",
        "lat_min": 17.63,
        "lat_max": 17.67,
        "lon_min": 95.45,
        "lon_max": 95.49
      },
      {
        "city": "Pyapon",
        "state": "Ayeyarwady Region",
        "state_abbr": "AYA",
        "postcode_prefix": "102",
        "lat_min": 16.29,
        "lat_max": 16.33,
        "lon_min": 95.67,
        "lon_max": 95.71
      },
      {
        "city": "Bogale",
        "state": "Ayeyarwady Region",
        "state_abbr": "AYA",
        "postcode_prefix": "103",
        "lat_min": 16.28,
        "lat_max": 16.32,
        "lon_min": 95.39,
        "lon_max": 95.43
      },
      {
        "city": "Mudon",
        "state": "Mon State",
        "state_abbr": "MON",
        "postcode_prefix": "126",
        "lat_min": 16.25,
        "lat_max": 16.29,
        "lon_min": 97.71,
        "lon_max": 97.75
      },
      {
        "city": "Minbu",
        "state": "Magway Region",
        "state_abbr": "MGW",
        "postcode_prefix": "045",
        "lat_min": 20.17,
        "lat_max": 20.21,
        "lon_min": 94.87,
        "lon_max": 94.91
      },
      {
        "city": "Myanaung",
        "state": "Ayeyarwady Region",
        "state_abbr": "AYA",
        "postcode_prefix": "104",
        "lat_min": 18.28,
        "lat_max": 18.32,
        "lon_min": 95.3,
        "lon_max": 95.34
      },
      {
        "city": "Letpadan",
        "state": "Bago Region",
        "state_abbr": "BGO",
        "postcode_prefix": "084",
        "lat_min": 17.78,
        "lat_max": 17.82,
        "lon_min": 95.74,
        "lon_max": 95.78
      },
      {
        "city": "Mrauk U",
        "state": "Rakhine State",
        "state_abbr": "RKN",
        "postcode_prefix": "094",
        "lat_min": 20.53,
        "lat_max": 20.57,
        "lon_min": 93.18,
        "lon_max": 93.22
      },
      {
        "city": "Putao",
        "state": "Kachin State",
        "state_abbr": "KCN",
        "postcode_prefix": "012",
        "lat_min": 27.31,
        "lat_max": 27.35,
        "lon_min": 97.38,
        "lon_max": 97.42
      }
    ],
    "rare": [
      {
        "city": "Bagan",
        "state": "Mandalay Region",
        "state_abbr": "MDY",
        "postcode_prefix": "057",
        "lat_min": 21.16,
        "lat_max": 21.2,
        "lon_min": 94.85,
        "lon_max": 94.89
      },
      {
        "city": "Hsipaw",
        "state": "Shan State",
        "state_abbr": "SHN",
        "postcode_prefix": "065",
        "lat_min": 22.6,
        "lat_max": 22.64,
        "lon_min": 97.28,
        "lon_max": 97.32
      },
      {
        "city": "Tamu",
        "state": "Sagaing Region",
        "state_abbr": "SGG",
        "postcode_prefix": "035",
        "lat_min": 24.21,
        "lat_max": 24.25,
        "lon_min": 94.3,
        "lon_max": 94.34
      },
      {
        "city": "Falam",
        "state": "Chin State",
        "state_abbr": "CHN",
        "postcode_prefix": "021",
        "lat_min": 22.9,
        "lat_max": 22.94,
        "lon_min": 93.67,
        "lon_max": 93.71
      },
      {
        "city": "Tedim",
        "state": "Chin State",
        "state_abbr": "CHN",
        "postcode_prefix": "022",
        "lat_min": 23.35,
        "lat_max": 23.39,
        "lon_min": 93.51,
        "lon_max": 93.55
      },
      {
        "city": "Demoso",
        "state": "Kayah State",
        "state_abbr": "KYH",
        "postcode_prefix": "071",
        "lat_min": 19.52,
        "lat_max": 19.56,
        "lon_min": 97.1,
        "lon_max": 97.14
      },
      {
        "city": "Ngapali",
        "state": "Rakhine State",
        "state_abbr": "RKN",
        "postcode_prefix": "095",
        "lat_min": 18.39,
        "lat_max": 18.43,
        "lon_min": 94.33,
        "lon_max": 94.37
      },
      {
        "city": "Indaw",
        "state": "Sagaing Region",
        "state_abbr": "SGG",
        "postcode_prefix": "036",
        "lat_min": 23.85,
        "lat_max": 23.89,
        "lon_min": 96.11,
        "lon_max": 96.15
      },
      {
        "city": "Nyaungdon",
        "state": "Ayeyarwady Region",
        "state_abbr": "AYA",
        "postcode_prefix": "105",
        "lat_min": 17.03,
        "lat_max": 17.07,
        "lon_min": 95.63,
        "lon_max": 95.67
      },
      {
        "city": "Thanlyin",
        "state": "Yangon Region",
        "state_abbr": "YGN",
        "postcode_prefix": "112",
        "lat_min": 16.73,
        "lat_max": 16.77,
        "lon_min": 96.24,
        "lon_max": 96.28
      },
      {
        "city": "Hmawbi",
        "state": "Yangon Region",
        "state_abbr": "YGN",
        "postcode_prefix": "113",
        "lat_min": 17.08,
        "lat_max": 17.12,
        "lon_min": 96.04,
        "lon_max": 96.08
      },
      {
        "city": "Katha",
        "state": "Sagaing Region",
        "state_abbr": "SGG",
        "postcode_prefix": "037",
        "lat_min": 24.17,
        "lat_max": 24.21,
        "lon_min": 96.33,
        "lon_max": 96.37
      },
      {
        "city": "Namtu",
        "state": "Shan State",
        "state_abbr": "SHN",
        "postcode_prefix": "066",
        "lat_min": 23.08,
        "lat_max": 23.12,
        "lon_min": 97.38,
        "lon_max": 97.42
      },
      {
        "city": "Tachileik",
        "state": "Shan State",
        "state_abbr": "SHN",
        "postcode_prefix": "067",
        "lat_min": 20.44,
        "lat_max": 20.48,
        "lon_min": 99.87,
        "lon_max": 99.91
      },
      {
        "city": "Kawlin",
        "state": "Sagaing Region",
        "state_abbr": "SGG",
        "postcode_prefix": "038",
        "lat_min": 23.52,
        "lat_max": 23.56,
        "lon_min": 95.82,
        "lon_max": 95.86
      },
      {
        "city": "Wundwin",
        "state": "Mandalay Region",
        "state_abbr": "MDY",
        "postcode_prefix": "058",
        "lat_min": 20.93,
        "lat_max": 20.97,
        "lon_min": 96.05,
        "lon_max": 96.09
      },
      {
        "city": "Wakema",
        "state": "Ayeyarwady Region",
        "state_abbr": "AYA",
        "postcode_prefix": "106",
        "lat_min": 16.6,
        "lat_max": 16.64,
        "lon_min": 95.18,
        "lon_max": 95.22
      },
      {
        "city": "Ye",
        "state": "Mon State",
        "state_abbr": "MON",
        "postcode_prefix": "127",
        "lat_min": 15.24,
        "lat_max": 15.28,
        "lon_min": 97.84,
        "lon_max": 97.88
      },
      {
        "city": "Kyaingtong",
        "state": "Shan State",
        "state_abbr": "SHN",
        "postcode_prefix": "068",
        "lat_min": 21.28,
        "lat_max": 21.32,
        "lon_min": 99.59,
        "lon_max": 99.63
      },
      {
        "city": "Thanbyuzayat",
        "state": "Mon State",
        "state_abbr": "MON",
        "postcode_prefix": "128",
        "lat_min": 16.01,
        "lat_max": 16.05,
        "lon_min": 97.73,
        "lon_max": 97.77
      }
    ]
  },
  "streets_by_city": {
    "Yangon": [
      "Anawrahta Road",
      "Bogyoke Aung San Road",
      "Mahabandoola Road",
      "Strand Road",
      "Sule Pagoda Road",
      "Shwedagon Pagoda Road",
      "Pyay Road",
      "Kaba Aye Pagoda Road",
      "University Avenue",
      "Inya Road",
      "Insein Road",
      "Dhammazedi Road",
      "U Wisara Road",
      "Lanmadaw Road",
      "Merchant Street",
      "Bo Aung Kyaw Street",
      "Pansodan Street",
      "Thakin Mya Park Road",
      "Hledan Road",
      "Bahan Road",
      "Min Ye Kyaw Swa Road",
      "Waizayanda Road",
      "No. 1 Industrial Road",
      "Bayint Naung Road",
      "Thanthumar Road"
    ],
    "Mandalay": [
      "66th Street",
      "78th Street",
      "80th Street",
      "84th Street",
      "26th Street",
      "35th Street",
      "62nd Street",
      "73rd Street",
      "Circular Road",
      "Strand Road",
      "Mandalay Hill Road",
      "Sagaing Bridge Road",
      "Amarapura Road",
      "Chan Mya Tharzi Road",
      "Theikdhi Road",
      "73rd Street between 30th and 31st",
      "Diamond Jubilee Hall Road",
      "58th Street",
      "Nadi Road",
      "Aung Myay Tharzan Road",
      "86th Street",
      "41st Street",
      "Chan Aye Tharzan Road",
      "88th Street",
      "Mingalar Road"
    ],
    "Naypyidaw": [
      "Yazathingaha Road",
      "Taw Win Road",
      "Pinlaung Road",
      "Zeyar Thiri Road",
      "Ottara Thiri Road",
      "Dekkhina Thiri Road",
      "Pyinmana Road",
      "Lewe Road",
      "Hotel Zone Road",
      "Fountain Park Road",
      "Yezin Road",
      "Uppatasanti Pagoda Road",
      "Thiri Yadana Road",
      "Council Road",
      "National Museum Road",
      "Safari Road",
      "Zabuthiri Road",
      "Pobbathiri Road",
      "Zeyathiri Road",
      "Tatkon Road",
      "Ngalaik Dam Road",
      "Shwe Nandaw Road",
      "Myoma Road",
      "Tharaphi Road",
      "Thiri Mandala Road"
    ],
    "Mawlamyine": [
      "Strand Road",
      "Lower Main Road",
      "Upper Main Road",
      "Kyaik Thanlan Road",
      "Bogyoke Road",
      "Dawei Jetty Road",
      "Myenigon Road",
      "Baho Road",
      "Zeigyo Road",
      "Market Road",
      "Attaran Bridge Road",
      "Mudon Road",
      "Than Lwin Road",
      "Pagoda Road",
      "Station Road",
      "Kyaikmaraw Road",
      "College Road",
      "Hospital Road",
      "Monastery Road",
      "U Nar Auk Road",
      "Taung Wine Road",
      "Hmyawlatt Road",
      "Gaungse Kyun Road",
      "Setse Road",
      "Ka Loe Htaw Road"
    ],
    "Bago": [
      "Hintha Road",
      "Shwemawdaw Pagoda Road",
      "Strand Road",
      "Bogyoke Road",
      "Pyay Road",
      "Station Road",
      "Market Road",
      "Kanbawzathadi Road",
      "Shwethalyaung Road",
      "Mahazedi Road",
      "Kyaik Pun Road",
      "Myo Taw Road",
      "Hospital Road",
      "Old Yangon Road",
      "Sittaung Road",
      "Yadana Road",
      "Nawarat Road",
      "Madaya Road",
      "Zabu Thiri Road",
      "Kalyani Road",
      "Mingalar Road",
      "Myo Thit Road",
      "Phone Gyi Road",
      "Hanthawaddy Road",
      "Nawaday Road"
    ],
    "Pathein": [
      "Strand Road",
      "Mahabandoola Road",
      "Bogyoke Road",
      "Shwemokehtaw Pagoda Road",
      "Custom Road",
      "Market Road",
      "Hospital Road",
      "Station Road",
      "Aye Yar Road",
      "Myat Lay Road",
      "Kannar Road",
      "Chaung tha Road",
      "Gwa Road",
      "Ngwe Saung Road",
      "Myo Thit Road",
      "Bayint Naung Road",
      "Thiri Mingalar Road",
      "Thein Phyu Road",
      "Zeya Thiri Road",
      "Zabu Thiri Road",
      "Yadana Road",
      "Lanmadaw Road",
      "Kan Nar Road",
      "Pyidawtha Road",
      "Innwa Road"
    ],
    "Taunggyi": [
      "Bogyoke Aung San Road",
      "Circular Road",
      "Market Road",
      "Hospital Road",
      "Station Road",
      "Myoma Road",
      "Shwe Nyaung Road",
      "Kakku Road",
      "Heho Airport Road",
      "Shan Yoma Road",
      "Inle Road",
      "Mingalar Road",
      "National Museum Road",
      "Stadium Road",
      "Baho Road",
      "University Road",
      "Aung Chan Tha Road",
      "Pine Hill Road",
      "Myo Thit Road",
      "Eastern View Road",
      "Yadana Road",
      "Zabu Thiri Road",
      "Naung Taw Road",
      "Ka Bar Aye Road",
      "Phone Gyi Road"
    ],
    "Monywa": [
      "Bogyoke Road",
      "Strand Road",
      "Market Road",
      "Station Road",
      "Hospital Road",
      "Shwezigon Road",
      "Thanboddhay Road",
      "Po Khin Road",
      "Chindwin River Road",
      "Aung Chan Tha Road",
      "Myo Thit Road",
      "Baho Road",
      "Mingalar Road",
      "Yadana Road",
      "Zabu Thiri Road",
      "Mya Taung Road",
      "Phone Gyi Road",
      "Sagaing Bridge Road",
      "Industrial Zone Road",
      "Shweba Road",
      "Shwe Sar Yan Road",
      "Parabaik Road",
      "Alodawpyi Road",
      "Budalin Road",
      "University Road"
    ],
    "Meiktila": [
      "Bogyoke Road",
      "Market Road",
      "Station Road",
      "Hospital Road",
      "Lake Road",
      "Myoma Road",
      "Myo Thit Road",
      "Mingalar Road",
      "Yadana Road",
      "Zabu Thiri Road",
      "Mandalay Road",
      "Thazi Road",
      "Wundwin Road",
      "Baho Road",
      "Phone Gyi Road",
      "Stadium Road",
      "University Road",
      "Industrial Zone Road",
      "Aung Chan Tha Road",
      "Naung Yoe Road",
      "Kyaukpadaung Road",
      "Pyawbwe Road",
      "Air Base Road",
      "Taw Win Road",
      "Kan Oo Road"
    ],
    "Myitkyina": [
      "Bogyoke Road",
      "Strand Road",
      "Station Road",
      "Market Road",
      "Hospital Road",
      "Airport Road",
      "Irrawaddy River Road",
      "Myoma Road",
      "Myo Thit Road",
      "Baho Road",
      "Mingalar Road",
      "Yadana Road",
      "Zabu Thiri Road",
      "Than Lwin Road",
      "Putao Road",
      "Bhamo Road",
      "Mogaung Road",
      "Waingmaw Road",
      "Tanai Road",
      "Ayeyarwady Road",
      "Phone Gyi Road",
      "Ohn Chaw Road",
      "Sitapu Road",
      "Jade Mine Road",
      "University Road"
    ],
    "Sittwe": [
      "Strand Road",
      "Market Road",
      "Main Road",
      "Hospital Road",
      "Station Road",
      "Airport Road",
      "Myoma Road",
      "Palace Road",
      "Pagoda Road",
      "University Road",
      "Fish Market Road",
      "Point Road",
      "Viewpoint Road",
      "Military Road",
      "Baho Road",
      "Myo Thit Road",
      "Beach Road",
      "Monastery Road",
      "Rakhine Yoma Road",
      "Mayu Road",
      "Mingalar Road",
      "Yadana Road",
      "Zabu Thiri Road",
      "Kaladan River Road",
      "Phone Gyi Road"
    ],
    "Magway": [
      "Bogyoke Road",
      "Market Road",
      "Station Road",
      "Hospital Road",
      "Strand Road",
      "Myoma Road",
      "Myo Thit Road",
      "Mingalar Road",
      "Yadana Road",
      "Zabu Thiri Road",
      "Baho Road",
      "Phone Gyi Road",
      "University Road",
      "Industrial Zone Road",
      "Oil Field Road",
      "Yenangyaung Road",
      "Saku Road",
      "Taungdwingyi Road",
      "Mann Chaung Road",
      "Stadium Road",
      "Aung Chan Tha Road",
      "Mya Taung Road",
      "Natmauk Road",
      "Mann Oil Road",
      "Airport Road"
    ],
    "Pyay": [
      "Bogyoke Road",
      "Market Road",
      "Station Road",
      "Hospital Road",
      "Strand Road",
      "Shwesandaw Pagoda Road",
      "Myoma Road",
      "Myo Thit Road",
      "Mingalar Road",
      "Yadana Road",
      "Sri Ksetra Road",
      "Zabu Thiri Road",
      "Baho Road",
      "Phone Gyi Road",
      "University Road",
      "Aung Chan Tha Road",
      "Nawin Road",
      "Tharyarwady Road",
      "Padaung Road",
      "Shwedaung Road",
      "Industrial Zone Road",
      "Ayeyarwady Road",
      "Stadium Road",
      "Aunglan Road",
      "Innwa Road"
    ],
    "Lashio": [
      "Bogyoke Road",
      "Market Road",
      "Station Road",
      "Hospital Road",
      "Myoma Road",
      "Myo Thit Road",
      "Mingalar Road",
      "Yadana Road",
      "Zabu Thiri Road",
      "Baho Road",
      "Phone Gyi Road",
      "Muse Road",
      "Hsipaw Road",
      "Mandalay Road",
      "Airport Road",
      "Theinni Road",
      "Mongyai Road",
      "University Road",
      "Stadium Road",
      "Quan Yin Road",
      "Chinese Quarter Road",
      "Aung Chan Tha Road",
      "Industrial Zone Road",
      "Hill Station Road",
      "Palaung Road"
    ],
    "Hpa-An": [
      "Bogyoke Road",
      "Market Road",
      "Station Road",
      "Hospital Road",
      "Strand Road",
      "Myoma Road",
      "Myo Thit Road",
      "Mingalar Road",
      "Yadana Road",
      "Zabu Thiri Road",
      "Baho Road",
      "Zwegabin Road",
      "Bat Cave Road",
      "Saddar Cave Road",
      "Thanlwin Bridge Road",
      "Kayin Road",
      "Kawkareik Road",
      "Than Lwin Road",
      "Phone Gyi Road",
      "Lumbini Garden Road",
      "University Road",
      "Kan Oo Road",
      "Kyondoe Road",
      "Eindu Road",
      "Stadium Road"
    ],
    "Sagaing": [
      "Bogyoke Road",
      "Market Road",
      "Hospital Road",
      "Myoma Road",
      "Sagaing Hill Road",
      "Kaunghmudaw Pagoda Road",
      "U Min Thonze Road",
      "Inn Wa Bridge Road",
      "Myo Thit Road",
      "Mingalar Road",
      "Yadana Road",
      "Zabu Thiri Road",
      "Baho Road",
      "Phone Gyi Road",
      "Ava Road",
      "Mingun Road",
      "Irrawaddy View Road",
      "Silver Monastery Road",
      "University Road",
      "Pottery Village Road",
      "Ancient City Road",
      "Strand Road",
      "Weaving Village Road",
      "Pagoda Row Road",
      "Market Lane Road"
    ],
    "Dawei": [
      "Strand Road",
      "Market Road",
      "Main Road",
      "Hospital Road",
      "Station Road",
      "Bogyoke Road",
      "Myoma Road",
      "Beach Road",
      "Myo Thit Road",
      "Mingalar Road",
      "Yadana Road",
      "Zabu Thiri Road",
      "Baho Road",
      "Phone Gyi Road",
      "Nabule Beach Road",
      "Maungmagan Road",
      "Airport Road",
      "University Road",
      "Stadium Road",
      "Thein Phyu Road",
      "Monastery Road",
      "Pagoda Road",
      "Aung Chan Tha Road",
      "Yay Phyu Road",
      "Port Road"
    ],
    "Myeik": [
      "Strand Road",
      "Market Road",
      "Main Road",
      "Hospital Road",
      "Bogyoke Road",
      "Myoma Road",
      "Theindawgyi Road",
      "Island View Road",
      "Myo Thit Road",
      "Mingalar Road",
      "Yadana Road",
      "Zabu Thiri Road",
      "Baho Road",
      "Phone Gyi Road",
      "Port Road",
      "Pearl Island Road",
      "Salon Road",
      "Airport Road",
      "University Road",
      "Stadium Road",
      "Monastery Road",
      "Pagoda Road",
      "Kan Oo Road",
      "Marina Road",
      "Archipelago Road"
    ],
    "Pakokku": [
      "Bogyoke Road",
      "Market Road",
      "Station Road",
      "Hospital Road",
      "Strand Road",
      "Myoma Road",
      "Thank Weaving Road",
      "Myo Thit Road",
      "Mingalar Road",
      "Yadana Road",
      "Zabu Thiri Road",
      "Baho Road",
      "Phone Gyi Road",
      "Thiho Road",
      "Tobacco Road",
      "University Road",
      "Stadium Road",
      "Pakhangyi Road",
      "Seikphyu Road",
      "Industrial Zone Road",
      "Pagoda Road",
      "Monastery Road",
      "Than Road",
      "Ayeyarwady Road",
      "Bagan Road"
    ],
    "Kalay": [
      "Bogyoke Road",
      "Market Road",
      "Station Road",
      "Hospital Road",
      "Myoma Road",
      "Myo Thit Road",
      "Mingalar Road",
      "Yadana Road",
      "Zabu Thiri Road",
      "Baho Road",
      "Phone Gyi Road",
      "Tamu Road",
      "Chin Hills Road",
      "Manipur Road",
      "Airport Road",
      "Industrial Zone Road",
      "Kennedy Peak Road",
      "University Road",
      "Stadium Road",
      "Baptist Church Road",
      "Mission Road",
      "River View Road",
      "Aung Chan Tha Road",
      "Valley Road",
      "Fortress Road"
    ],
    "Loikaw": [
      "Bogyoke Road",
      "Market Road",
      "Station Road",
      "Hospital Road",
      "Myoma Road",
      "Myo Thit Road",
      "Mingalar Road",
      "Yadana Road",
      "Zabu Thiri Road",
      "Baho Road",
      "Phone Gyi Road",
      "Taungkwe Road",
      "Kayah Road",
      "Demoso Road",
      "Shadaw Road",
      "University Road",
      "Stadium Road",
      "Seven Lake Road",
      "Htee Sekhoe Road",
      "Fire Pagoda Road",
      "Cathedral Road",
      "Baluchaung Road",
      "Airport Road",
      "Kantarawadi Road",
      "Dam Road"
    ],
    "Hakha": [
      "Bogyoke Road",
      "Market Road",
      "Station Road",
      "Hospital Road",
      "Strand Road",
      "Myoma Road",
      "Myo Thit Road",
      "Mingalar Road",
      "Yadana Road",
      "Zabu Thiri Road",
      "Baho Road",
      "Phone Gyi Road",
      "University Road",
      "Stadium Road",
      "Industrial Zone Road",
      "Airport Road",
      "Pagoda Road",
      "Monastery Road",
      "Aung Chan Tha Road",
      "Kan Oo Road",
      "Pakhangyi Road",
      "Sri Ksetra Road",
      "Nawin Road",
      "Tharyarwady Road",
      "Padaung Road"
    ],
    "Taungoo": [
      "Bogyoke Road",
      "Market Road",
      "Station Road",
      "Hospital Road",
      "Strand Road",
      "Myoma Road",
      "Myo Thit Road",
      "Mingalar Road",
      "Yadana Road",
      "Zabu Thiri Road",
      "Baho Road",
      "Phone Gyi Road",
      "University Road",
      "Stadium Road",
      "Industrial Zone Road",
      "Airport Road",
      "Pagoda Road",
      "Monastery Road",
      "Aung Chan Tha Road",
      "Kan Oo Road",
      "Shwesandaw Pagoda Road",
      "Mann Chaung Road",
      "Oil Road",
      "Saku Road",
      "Taungdwingyi Road"
    ],
    "Thaton": [
      "Bogyoke Road",
      "Market Road",
      "Station Road",
      "Hospital Road",
      "Strand Road",
      "Myoma Road",
      "Myo Thit Road",
      "Mingalar Road",
      "Yadana Road",
      "Zabu Thiri Road",
      "Baho Road",
      "Phone Gyi Road",
      "University Road",
      "Stadium Road",
      "Industrial Zone Road",
      "Airport Road",
      "Pagoda Road",
      "Monastery Road",
      "Aung Chan Tha Road",
      "Kan Oo Road",
      "Marina Road",
      "Archipelago Road",
      "Nabule Beach Road",
      "Maungmagan Road",
      "Yay Phyu Road"
    ],
    "Pyin Oo Lwin": [
      "Bogyoke Road",
      "Market Road",
      "Station Road",
      "Hospital Road",
      "Strand Road",
      "Myoma Road",
      "Myo Thit Road",
      "Mingalar Road",
      "Yadana Road",
      "Zabu Thiri Road",
      "Baho Road",
      "Phone Gyi Road",
      "University Road",
      "Stadium Road",
      "Industrial Zone Road",
      "Airport Road",
      "Pagoda Road",
      "Monastery Road",
      "Aung Chan Tha Road",
      "Kan Oo Road",
      "Baluchaung Road",
      "Cathedral Road",
      "Fire Pagoda Road",
      "Htee Sekhoe Road",
      "Seven Lake Road"
    ],
    "Mogok": [
      "Bogyoke Road",
      "Market Road",
      "Station Road",
      "Hospital Road",
      "Strand Road",
      "Myoma Road",
      "Myo Thit Road",
      "Mingalar Road",
      "Yadana Road",
      "Zabu Thiri Road",
      "Baho Road",
      "Phone Gyi Road",
      "University Road",
      "Stadium Road",
      "Industrial Zone Road",
      "Airport Road",
      "Pagoda Road",
      "Monastery Road",
      "Aung Chan Tha Road",
      "Kan Oo Road",
      "Shwe Sar Yan Road",
      "Parabaik Road",
      "Alodawpyi Road",
      "Oil Field Road",
      "Sagaing Road"
    ],
    "Nyaungshwe": [
      "Bogyoke Road",
      "Market Road",
      "Station Road",
      "Hospital Road",
      "Strand Road",
      "Myoma Road",
      "Myo Thit Road",
      "Mingalar Road",
      "Yadana Road",
      "Zabu Thiri Road",
      "Baho Road",
      "Phone Gyi Road",
      "University Road",
      "Stadium Road",
      "Industrial Zone Road",
      "Airport Road",
      "Pagoda Road",
      "Monastery Road",
      "Aung Chan Tha Road",
      "Kan Oo Road",
      "Kyondoe Road",
      "Eindu Road",
      "Pearl Island Road",
      "Salon Road",
      "Marina Road"
    ],
    "Kyaukphyu": [
      "Bogyoke Road",
      "Market Road",
      "Station Road",
      "Hospital Road",
      "Strand Road",
      "Myoma Road",
      "Myo Thit Road",
      "Mingalar Road",
      "Yadana Road",
      "Zabu Thiri Road",
      "Baho Road",
      "Phone Gyi Road",
      "University Road",
      "Stadium Road",
      "Industrial Zone Road",
      "Airport Road",
      "Pagoda Road",
      "Monastery Road",
      "Aung Chan Tha Road",
      "Kan Oo Road",
      "Market Lane Road",
      "Than Lwin Road",
      "Ayeyarwady Road",
      "Thanlwin Bridge Road",
      "Circular Road"
    ],
    "Kyaukse": [
      "Bogyoke Road",
      "Market Road",
      "Station Road",
      "Hospital Road",
      "Strand Road",
      "Myoma Road",
      "Myo Thit Road",
      "Mingalar Road",
      "Yadana Road",
      "Zabu Thiri Road",
      "Baho Road",
      "Phone Gyi Road",
      "University Road",
      "Stadium Road",
      "Industrial Zone Road",
      "Airport Road",
      "Pagoda Road",
      "Monastery Road",
      "Aung Chan Tha Road",
      "Kan Oo Road",
      "Shwesandaw Pagoda Road",
      "Mann Chaung Road",
      "Oil Road",
      "Saku Road",
      "Taungdwingyi Road"
    ],
    "Bhamo": [
      "Bogyoke Road",
      "Market Road",
      "Station Road",
      "Hospital Road",
      "Strand Road",
      "Myoma Road",
      "Myo Thit Road",
      "Mingalar Road",
      "Yadana Road",
      "Zabu Thiri Road",
      "Baho Road",
      "Phone Gyi Road",
      "University Road",
      "Stadium Road",
      "Industrial Zone Road",
      "Airport Road",
      "Pagoda Road",
      "Monastery Road",
      "Aung Chan Tha Road",
      "Kan Oo Road",
      "Pine Road",
      "Hanthawaddy Road",
      "Nawaday Road",
      "Nawarat Road",
      "Kalyani Road"
    ],
    "Muse": [
      "Bogyoke Road",
      "Market Road",
      "Station Road",
      "Hospital Road",
      "Strand Road",
      "Myoma Road",
      "Myo Thit Road",
      "Mingalar Road",
      "Yadana Road",
      "Zabu Thiri Road",
      "Baho Road",
      "Phone Gyi Road",
      "University Road",
      "Stadium Road",
      "Industrial Zone Road",
      "Airport Road",
      "Pagoda Road",
      "Monastery Road",
      "Aung Chan Tha Road",
      "Kan Oo Road",
      "Ava Road",
      "U Min Thonze Road",
      "Kaunghmudaw Pagoda Road",
      "Sagaing Hill Road",
      "Inn Wa Bridge Road"
    ],
    "Kengtung": [
      "Bogyoke Road",
      "Market Road",
      "Station Road",
      "Hospital Road",
      "Strand Road",
      "Myoma Road",
      "Myo Thit Road",
      "Mingalar Road",
      "Yadana Road",
      "Zabu Thiri Road",
      "Baho Road",
      "Phone Gyi Road",
      "University Road",
      "Stadium Road",
      "Industrial Zone Road",
      "Airport Road",
      "Pagoda Road",
      "Monastery Road",
      "Aung Chan Tha Road",
      "Kan Oo Road",
      "Yay Phyu Road",
      "Port Road",
      "Island View Road",
      "Theindawgyi Road",
      "Thank Weaving Road"
    ],
    "Myawaddy": [
      "Bogyoke Road",
      "Market Road",
      "Station Road",
      "Hospital Road",
      "Strand Road",
      "Myoma Road",
      "Myo Thit Road",
      "Mingalar Road",
      "Yadana Road",
      "Zabu Thiri Road",
      "Baho Road",
      "Phone Gyi Road",
      "University Road",
      "Stadium Road",
      "Industrial Zone Road",
      "Airport Road",
      "Pagoda Road",
      "Monastery Road",
      "Aung Chan Tha Road",
      "Kan Oo Road",
      "Padaung Road",
      "Shwedaung Road",
      "Aunglan Road",
      "Shwesandaw Pagoda Road",
      "Mann Chaung Road"
    ],
    "Thandwe": [
      "Bogyoke Road",
      "Market Road",
      "Station Road",
      "Hospital Road",
      "Strand Road",
      "Myoma Road",
      "Myo Thit Road",
      "Mingalar Road",
      "Yadana Road",
      "Zabu Thiri Road",
      "Baho Road",
      "Phone Gyi Road",
      "University Road",
      "Stadium Road",
      "Industrial Zone Road",
      "Airport Road",
      "Pagoda Road",
      "Monastery Road",
      "Aung Chan Tha Road",
      "Kan Oo Road",
      "Palaung Road",
      "Bat Cave Road",
      "Saddar Cave Road",
      "Lumbini Garden Road",
      "Zwegabin Road"
    ],
    "Shwebo": [
      "Bogyoke Road",
      "Market Road",
      "Station Road",
      "Hospital Road",
      "Strand Road",
      "Myoma Road",
      "Myo Thit Road",
      "Mingalar Road",
      "Yadana Road",
      "Zabu Thiri Road",
      "Baho Road",
      "Phone Gyi Road",
      "University Road",
      "Stadium Road",
      "Industrial Zone Road",
      "Airport Road",
      "Pagoda Road",
      "Monastery Road",
      "Aung Chan Tha Road",
      "Kan Oo Road",
      "Fortress Road",
      "Mission Road",
      "Baptist Church Road",
      "River View Road",
      "Pine Hill Road"
    ],
    "Yenangyaung": [
      "Bogyoke Road",
      "Market Road",
      "Station Road",
      "Hospital Road",
      "Strand Road",
      "Myoma Road",
      "Myo Thit Road",
      "Mingalar Road",
      "Yadana Road",
      "Zabu Thiri Road",
      "Baho Road",
      "Phone Gyi Road",
      "University Road",
      "Stadium Road",
      "Industrial Zone Road",
      "Airport Road",
      "Pagoda Road",
      "Monastery Road",
      "Aung Chan Tha Road",
      "Kan Oo Road",
      "Tanai Road",
      "Waingmaw Road",
      "Mogaung Road",
      "Putao Road",
      "Irrawaddy River Road"
    ],
    "Chauk": [
      "Bogyoke Road",
      "Market Road",
      "Station Road",
      "Hospital Road",
      "Strand Road",
      "Myoma Road",
      "Myo Thit Road",
      "Mingalar Road",
      "Yadana Road",
      "Zabu Thiri Road",
      "Baho Road",
      "Phone Gyi Road",
      "University Road",
      "Stadium Road",
      "Industrial Zone Road",
      "Airport Road",
      "Pagoda Road",
      "Monastery Road",
      "Aung Chan Tha Road",
      "Kan Oo Road",
      "Than Lwin Road",
      "Ayeyarwady Road",
      "Thanlwin Bridge Road",
      "Circular Road",
      "Lake Road"
    ],
    "Myingyan": [
      "Bogyoke Road",
      "Market Road",
      "Station Road",
      "Hospital Road",
      "Strand Road",
      "Myoma Road",
      "Myo Thit Road",
      "Mingalar Road",
      "Yadana Road",
      "Zabu Thiri Road",
      "Baho Road",
      "Phone Gyi Road",
      "University Road",
      "Stadium Road",
      "Industrial Zone Road",
      "Airport Road",
      "Pagoda Road",
      "Monastery Road",
      "Aung Chan Tha Road",
      "Kan Oo Road",
      "Palace Road",
      "Silver Monastery Road",
      "Dam Road",
      "Baluchaung Road",
      "Cathedral Road"
    ],
    "Aunglan": [
      "Bogyoke Road",
      "Market Road",
      "Station Road",
      "Hospital Road",
      "Strand Road",
      "Myoma Road",
      "Myo Thit Road",
      "Mingalar Road",
      "Yadana Road",
      "Zabu Thiri Road",
      "Baho Road",
      "Phone Gyi Road",
      "University Road",
      "Stadium Road",
      "Industrial Zone Road",
      "Airport Road",
      "Pagoda Road",
      "Monastery Road",
      "Aung Chan Tha Road",
      "Kan Oo Road",
      "Eindu Road",
      "Pearl Island Road",
      "Salon Road",
      "Marina Road",
      "Archipelago Road"
    ],
    "Kyaukpadaung": [
      "Bogyoke Road",
      "Market Road",
      "Station Road",
      "Hospital Road",
      "Strand Road",
      "Myoma Road",
      "Myo Thit Road",
      "Mingalar Road",
      "Yadana Road",
      "Zabu Thiri Road",
      "Baho Road",
      "Phone Gyi Road",
      "University Road",
      "Stadium Road",
      "Industrial Zone Road",
      "Airport Road",
      "Pagoda Road",
      "Monastery Road",
      "Aung Chan Tha Road",
      "Kan Oo Road",
      "Dam Road",
      "Baluchaung Road",
      "Cathedral Road",
      "Fire Pagoda Road",
      "Htee Sekhoe Road"
    ],
    "Kawthaung": [
      "Bogyoke Road",
      "Market Road",
      "Station Road",
      "Hospital Road",
      "Strand Road",
      "Myoma Road",
      "Myo Thit Road",
      "Mingalar Road",
      "Yadana Road",
      "Zabu Thiri Road",
      "Baho Road",
      "Phone Gyi Road",
      "University Road",
      "Stadium Road",
      "Industrial Zone Road",
      "Airport Road",
      "Pagoda Road",
      "Monastery Road",
      "Aung Chan Tha Road",
      "Kan Oo Road",
      "Ohn Chaw Road",
      "Tanai Road",
      "Waingmaw Road",
      "Mogaung Road",
      "Putao Road"
    ],
    "Hinthada": [
      "Bogyoke Road",
      "Market Road",
      "Station Road",
      "Hospital Road",
      "Strand Road",
      "Myoma Road",
      "Myo Thit Road",
      "Mingalar Road",
      "Yadana Road",
      "Zabu Thiri Road",
      "Baho Road",
      "Phone Gyi Road",
      "University Road",
      "Stadium Road",
      "Industrial Zone Road",
      "Airport Road",
      "Pagoda Road",
      "Monastery Road",
      "Aung Chan Tha Road",
      "Kan Oo Road",
      "Point Road",
      "Fish Market Road",
      "Palace Road",
      "Silver Monastery Road",
      "Dam Road"
    ],
    "Pyapon": [
      "Bogyoke Road",
      "Market Road",
      "Station Road",
      "Hospital Road",
      "Strand Road",
      "Myoma Road",
      "Myo Thit Road",
      "Mingalar Road",
      "Yadana Road",
      "Zabu Thiri Road",
      "Baho Road",
      "Phone Gyi Road",
      "University Road",
      "Stadium Road",
      "Industrial Zone Road",
      "Airport Road",
      "Pagoda Road",
      "Monastery Road",
      "Aung Chan Tha Road",
      "Kan Oo Road",
      "Ohn Chaw Road",
      "Tanai Road",
      "Waingmaw Road",
      "Mogaung Road",
      "Putao Road"
    ],
    "Bogale": [
      "Bogyoke Road",
      "Market Road",
      "Station Road",
      "Hospital Road",
      "Strand Road",
      "Myoma Road",
      "Myo Thit Road",
      "Mingalar Road",
      "Yadana Road",
      "Zabu Thiri Road",
      "Baho Road",
      "Phone Gyi Road",
      "University Road",
      "Stadium Road",
      "Industrial Zone Road",
      "Airport Road",
      "Pagoda Road",
      "Monastery Road",
      "Aung Chan Tha Road",
      "Kan Oo Road",
      "Saddar Cave Road",
      "Lumbini Garden Road",
      "Zwegabin Road",
      "Kayin Road",
      "Kawkareik Road"
    ],
    "Mudon": [
      "Bogyoke Road",
      "Market Road",
      "Station Road",
      "Hospital Road",
      "Strand Road",
      "Myoma Road",
      "Myo Thit Road",
      "Mingalar Road",
      "Yadana Road",
      "Zabu Thiri Road",
      "Baho Road",
      "Phone Gyi Road",
      "University Road",
      "Stadium Road",
      "Industrial Zone Road",
      "Airport Road",
      "Pagoda Road",
      "Monastery Road",
      "Aung Chan Tha Road",
      "Kan Oo Road",
      "Valley Road",
      "Fortress Road",
      "Mission Road",
      "Baptist Church Road",
      "River View Road"
    ],
    "Minbu": [
      "Bogyoke Road",
      "Market Road",
      "Station Road",
      "Hospital Road",
      "Strand Road",
      "Myoma Road",
      "Myo Thit Road",
      "Mingalar Road",
      "Yadana Road",
      "Zabu Thiri Road",
      "Baho Road",
      "Phone Gyi Road",
      "University Road",
      "Stadium Road",
      "Industrial Zone Road",
      "Airport Road",
      "Pagoda Road",
      "Monastery Road",
      "Aung Chan Tha Road",
      "Kan Oo Road",
      "Jade Mine Road",
      "Sitapu Road",
      "Ohn Chaw Road",
      "Tanai Road",
      "Waingmaw Road"
    ],
    "Myanaung": [
      "Bogyoke Road",
      "Market Road",
      "Station Road",
      "Hospital Road",
      "Strand Road",
      "Myoma Road",
      "Myo Thit Road",
      "Mingalar Road",
      "Yadana Road",
      "Zabu Thiri Road",
      "Baho Road",
      "Phone Gyi Road",
      "University Road",
      "Stadium Road",
      "Industrial Zone Road",
      "Airport Road",
      "Pagoda Road",
      "Monastery Road",
      "Aung Chan Tha Road",
      "Kan Oo Road",
      "Theinni Road",
      "Mongyai Road",
      "Quan Yin Road",
      "Chinese Quarter Road",
      "Palaung Road"
    ],
    "Letpadan": [
      "Bogyoke Road",
      "Market Road",
      "Station Road",
      "Hospital Road",
      "Strand Road",
      "Myoma Road",
      "Myo Thit Road",
      "Mingalar Road",
      "Yadana Road",
      "Zabu Thiri Road",
      "Baho Road",
      "Phone Gyi Road",
      "University Road",
      "Stadium Road",
      "Industrial Zone Road",
      "Airport Road",
      "Pagoda Road",
      "Monastery Road",
      "Aung Chan Tha Road",
      "Kan Oo Road",
      "Oil Field Road",
      "Sagaing Road",
      "Chin Hills Road",
      "Tamu Road",
      "Chindwin River Road"
    ],
    "Mrauk U": [
      "Bogyoke Road",
      "Market Road",
      "Station Road",
      "Hospital Road",
      "Strand Road",
      "Myoma Road",
      "Myo Thit Road",
      "Mingalar Road",
      "Yadana Road",
      "Zabu Thiri Road",
      "Baho Road",
      "Phone Gyi Road",
      "University Road",
      "Stadium Road",
      "Industrial Zone Road",
      "Airport Road",
      "Pagoda Road",
      "Monastery Road",
      "Aung Chan Tha Road",
      "Kan Oo Road",
      "Kayah Road",
      "Taungkwe Road",
      "Jade Mine Road",
      "Sitapu Road",
      "Ohn Chaw Road"
    ],
    "Putao": [
      "Bogyoke Road",
      "Market Road",
      "Station Road",
      "Hospital Road",
      "Strand Road",
      "Myoma Road",
      "Myo Thit Road",
      "Mingalar Road",
      "Yadana Road",
      "Zabu Thiri Road",
      "Baho Road",
      "Phone Gyi Road",
      "University Road",
      "Stadium Road",
      "Industrial Zone Road",
      "Airport Road",
      "Pagoda Road",
      "Monastery Road",
      "Aung Chan Tha Road",
      "Kan Oo Road",
      "Ancient City Road",
      "Weaving Village Road",
      "Beach Road",
      "Viewpoint Road",
      "Military Road"
    ],
    "Bagan": [
      "Bogyoke Road",
      "Market Road",
      "Station Road",
      "Hospital Road",
      "Strand Road",
      "Myoma Road",
      "Myo Thit Road",
      "Mingalar Road",
      "Yadana Road",
      "Zabu Thiri Road",
      "Baho Road",
      "Phone Gyi Road",
      "University Road",
      "Stadium Road",
      "Industrial Zone Road",
      "Airport Road",
      "Pagoda Road",
      "Monastery Road",
      "Aung Chan Tha Road",
      "Kan Oo Road",
      "Ayeyarwady Road",
      "Thanlwin Bridge Road",
      "Circular Road",
      "Lake Road",
      "Hill Road"
    ],
    "Hsipaw": [
      "Bogyoke Road",
      "Market Road",
      "Station Road",
      "Hospital Road",
      "Strand Road",
      "Myoma Road",
      "Myo Thit Road",
      "Mingalar Road",
      "Yadana Road",
      "Zabu Thiri Road",
      "Baho Road",
      "Phone Gyi Road",
      "University Road",
      "Stadium Road",
      "Industrial Zone Road",
      "Airport Road",
      "Pagoda Road",
      "Monastery Road",
      "Aung Chan Tha Road",
      "Kan Oo Road",
      "Theindawgyi Road",
      "Thank Weaving Road",
      "Tobacco Road",
      "Thiho Road",
      "Seikphyu Road"
    ],
    "Tamu": [
      "Bogyoke Road",
      "Market Road",
      "Station Road",
      "Hospital Road",
      "Strand Road",
      "Myoma Road",
      "Myo Thit Road",
      "Mingalar Road",
      "Yadana Road",
      "Zabu Thiri Road",
      "Baho Road",
      "Phone Gyi Road",
      "University Road",
      "Stadium Road",
      "Industrial Zone Road",
      "Airport Road",
      "Pagoda Road",
      "Monastery Road",
      "Aung Chan Tha Road",
      "Kan Oo Road",
      "Sagaing Road",
      "Chin Hills Road",
      "Tamu Road",
      "Chindwin River Road",
      "Valley Road"
    ],
    "Falam": [
      "Bogyoke Road",
      "Market Road",
      "Station Road",
      "Hospital Road",
      "Strand Road",
      "Myoma Road",
      "Myo Thit Road",
      "Mingalar Road",
      "Yadana Road",
      "Zabu Thiri Road",
      "Baho Road",
      "Phone Gyi Road",
      "University Road",
      "Stadium Road",
      "Industrial Zone Road",
      "Airport Road",
      "Pagoda Road",
      "Monastery Road",
      "Aung Chan Tha Road",
      "Kan Oo Road",
      "Hanthawaddy Road",
      "Nawaday Road",
      "Nawarat Road",
      "Kalyani Road",
      "Yadana Bon Road"
    ],
    "Tedim": [
      "Bogyoke Road",
      "Market Road",
      "Station Road",
      "Hospital Road",
      "Strand Road",
      "Myoma Road",
      "Myo Thit Road",
      "Mingalar Road",
      "Yadana Road",
      "Zabu Thiri Road",
      "Baho Road",
      "Phone Gyi Road",
      "University Road",
      "Stadium Road",
      "Industrial Zone Road",
      "Airport Road",
      "Pagoda Road",
      "Monastery Road",
      "Aung Chan Tha Road",
      "Kan Oo Road",
      "Marina Road",
      "Archipelago Road",
      "Nabule Beach Road",
      "Maungmagan Road",
      "Yay Phyu Road"
    ],
    "Demoso": [
      "Bogyoke Road",
      "Market Road",
      "Station Road",
      "Hospital Road",
      "Strand Road",
      "Myoma Road",
      "Myo Thit Road",
      "Mingalar Road",
      "Yadana Road",
      "Zabu Thiri Road",
      "Baho Road",
      "Phone Gyi Road",
      "University Road",
      "Stadium Road",
      "Industrial Zone Road",
      "Airport Road",
      "Pagoda Road",
      "Monastery Road",
      "Aung Chan Tha Road",
      "Kan Oo Road",
      "Putao Road",
      "Irrawaddy River Road",
      "Mandalay Road",
      "Theinni Road",
      "Mongyai Road"
    ],
    "Ngapali": [
      "Bogyoke Road",
      "Market Road",
      "Station Road",
      "Hospital Road",
      "Strand Road",
      "Myoma Road",
      "Myo Thit Road",
      "Mingalar Road",
      "Yadana Road",
      "Zabu Thiri Road",
      "Baho Road",
      "Phone Gyi Road",
      "University Road",
      "Stadium Road",
      "Industrial Zone Road",
      "Airport Road",
      "Pagoda Road",
      "Monastery Road",
      "Aung Chan Tha Road",
      "Kan Oo Road",
      "Rakhine Yoma Road",
      "Point Road",
      "Fish Market Road",
      "Palace Road",
      "Silver Monastery Road"
    ],
    "Indaw": [
      "Bogyoke Road",
      "Market Road",
      "Station Road",
      "Hospital Road",
      "Strand Road",
      "Myoma Road",
      "Myo Thit Road",
      "Mingalar Road",
      "Yadana Road",
      "Zabu Thiri Road",
      "Baho Road",
      "Phone Gyi Road",
      "University Road",
      "Stadium Road",
      "Industrial Zone Road",
      "Airport Road",
      "Pagoda Road",
      "Monastery Road",
      "Aung Chan Tha Road",
      "Kan Oo Road",
      "Valley Road",
      "Fortress Road",
      "Mission Road",
      "Baptist Church Road",
      "River View Road"
    ],
    "Nyaungdon": [
      "Bogyoke Road",
      "Market Road",
      "Station Road",
      "Hospital Road",
      "Strand Road",
      "Myoma Road",
      "Myo Thit Road",
      "Mingalar Road",
      "Yadana Road",
      "Zabu Thiri Road",
      "Baho Road",
      "Phone Gyi Road",
      "University Road",
      "Stadium Road",
      "Industrial Zone Road",
      "Airport Road",
      "Pagoda Road",
      "Monastery Road",
      "Aung Chan Tha Road",
      "Kan Oo Road",
      "Saku Road",
      "Taungdwingyi Road",
      "Natmauk Road",
      "Mingun Road",
      "Irrawaddy View Road"
    ],
    "Thanlyin": [
      "Bogyoke Road",
      "Market Road",
      "Station Road",
      "Hospital Road",
      "Strand Road",
      "Myoma Road",
      "Myo Thit Road",
      "Mingalar Road",
      "Yadana Road",
      "Zabu Thiri Road",
      "Baho Road",
      "Phone Gyi Road",
      "University Road",
      "Stadium Road",
      "Industrial Zone Road",
      "Airport Road",
      "Pagoda Road",
      "Monastery Road",
      "Aung Chan Tha Road",
      "Kan Oo Road",
      "Thank Weaving Road",
      "Tobacco Road",
      "Thiho Road",
      "Seikphyu Road",
      "Pakhangyi Road"
    ],
    "Hmawbi": [
      "Bogyoke Road",
      "Market Road",
      "Station Road",
      "Hospital Road",
      "Strand Road",
      "Myoma Road",
      "Myo Thit Road",
      "Mingalar Road",
      "Yadana Road",
      "Zabu Thiri Road",
      "Baho Road",
      "Phone Gyi Road",
      "University Road",
      "Stadium Road",
      "Industrial Zone Road",
      "Airport Road",
      "Pagoda Road",
      "Monastery Road",
      "Aung Chan Tha Road",
      "Kan Oo Road",
      "Silver Monastery Road",
      "Dam Road",
      "Baluchaung Road",
      "Cathedral Road",
      "Fire Pagoda Road"
    ],
    "Katha": [
      "Bogyoke Road",
      "Market Road",
      "Station Road",
      "Hospital Road",
      "Strand Road",
      "Myoma Road",
      "Myo Thit Road",
      "Mingalar Road",
      "Yadana Road",
      "Zabu Thiri Road",
      "Baho Road",
      "Phone Gyi Road",
      "University Road",
      "Stadium Road",
      "Industrial Zone Road",
      "Airport Road",
      "Pagoda Road",
      "Monastery Road",
      "Aung Chan Tha Road",
      "Kan Oo Road",
      "Hanthawaddy Road",
      "Nawaday Road",
      "Nawarat Road",
      "Kalyani Road",
      "Yadana Bon Road"
    ],
    "Namtu": [
      "Bogyoke Road",
      "Market Road",
      "Station Road",
      "Hospital Road",
      "Strand Road",
      "Myoma Road",
      "Myo Thit Road",
      "Mingalar Road",
      "Yadana Road",
      "Zabu Thiri Road",
      "Baho Road",
      "Phone Gyi Road",
      "University Road",
      "Stadium Road",
      "Industrial Zone Road",
      "Airport Road",
      "Pagoda Road",
      "Monastery Road",
      "Aung Chan Tha Road",
      "Kan Oo Road",
      "Chindwin River Road",
      "Valley Road",
      "Fortress Road",
      "Mission Road",
      "Baptist Church Road"
    ],
    "Tachileik": [
      "Bogyoke Road",
      "Market Road",
      "Station Road",
      "Hospital Road",
      "Strand Road",
      "Myoma Road",
      "Myo Thit Road",
      "Mingalar Road",
      "Yadana Road",
      "Zabu Thiri Road",
      "Baho Road",
      "Phone Gyi Road",
      "University Road",
      "Stadium Road",
      "Industrial Zone Road",
      "Airport Road",
      "Pagoda Road",
      "Monastery Road",
      "Aung Chan Tha Road",
      "Kan Oo Road",
      "Yay Phyu Road",
      "Port Road",
      "Island View Road",
      "Theindawgyi Road",
      "Thank Weaving Road"
    ],
    "Kawlin": [
      "Bogyoke Road",
      "Market Road",
      "Station Road",
      "Hospital Road",
      "Strand Road",
      "Myoma Road",
      "Myo Thit Road",
      "Mingalar Road",
      "Yadana Road",
      "Zabu Thiri Road",
      "Baho Road",
      "Phone Gyi Road",
      "University Road",
      "Stadium Road",
      "Industrial Zone Road",
      "Airport Road",
      "Pagoda Road",
      "Monastery Road",
      "Aung Chan Tha Road",
      "Kan Oo Road",
      "Chinese Quarter Road",
      "Palaung Road",
      "Bat Cave Road",
      "Saddar Cave Road",
      "Lumbini Garden Road"
    ],
    "Wundwin": [
      "Bogyoke Road",
      "Market Road",
      "Station Road",
      "Hospital Road",
      "Strand Road",
      "Myoma Road",
      "Myo Thit Road",
      "Mingalar Road",
      "Yadana Road",
      "Zabu Thiri Road",
      "Baho Road",
      "Phone Gyi Road",
      "University Road",
      "Stadium Road",
      "Industrial Zone Road",
      "Airport Road",
      "Pagoda Road",
      "Monastery Road",
      "Aung Chan Tha Road",
      "Kan Oo Road",
      "Ohn Chaw Road",
      "Tanai Road",
      "Waingmaw Road",
      "Mogaung Road",
      "Putao Road"
    ],
    "Wakema": [
      "Bogyoke Road",
      "Market Road",
      "Station Road",
      "Hospital Road",
      "Strand Road",
      "Myoma Road",
      "Myo Thit Road",
      "Mingalar Road",
      "Yadana Road",
      "Zabu Thiri Road",
      "Baho Road",
      "Phone Gyi Road",
      "University Road",
      "Stadium Road",
      "Industrial Zone Road",
      "Airport Road",
      "Pagoda Road",
      "Monastery Road",
      "Aung Chan Tha Road",
      "Kan Oo Road",
      "Aunglan Road",
      "Shwesandaw Pagoda Road",
      "Mann Chaung Road",
      "Oil Road",
      "Saku Road"
    ],
    "Ye": [
      "Bogyoke Road",
      "Market Road",
      "Station Road",
      "Hospital Road",
      "Strand Road",
      "Myoma Road",
      "Myo Thit Road",
      "Mingalar Road",
      "Yadana Road",
      "Zabu Thiri Road",
      "Baho Road",
      "Phone Gyi Road",
      "University Road",
      "Stadium Road",
      "Industrial Zone Road",
      "Airport Road",
      "Pagoda Road",
      "Monastery Road",
      "Aung Chan Tha Road",
      "Kan Oo Road",
      "Fortress Road",
      "Mission Road",
      "Baptist Church Road",
      "River View Road",
      "Pine Hill Road"
    ],
    "Kyaingtong": [
      "Bogyoke Road",
      "Market Road",
      "Station Road",
      "Hospital Road",
      "Strand Road",
      "Myoma Road",
      "Myo Thit Road",
      "Mingalar Road",
      "Yadana Road",
      "Zabu Thiri Road",
      "Baho Road",
      "Phone Gyi Road",
      "University Road",
      "Stadium Road",
      "Industrial Zone Road",
      "Airport Road",
      "Pagoda Road",
      "Monastery Road",
      "Aung Chan Tha Road",
      "Kan Oo Road",
      "Aunglan Road",
      "Shwesandaw Pagoda Road",
      "Mann Chaung Road",
      "Oil Road",
      "Saku Road"
    ],
    "Thanbyuzayat": [
      "Bogyoke Road",
      "Market Road",
      "Station Road",
      "Hospital Road",
      "Strand Road",
      "Myoma Road",
      "Myo Thit Road",
      "Mingalar Road",
      "Yadana Road",
      "Zabu Thiri Road",
      "Baho Road",
      "Phone Gyi Road",
      "University Road",
      "Stadium Road",
      "Industrial Zone Road",
      "Airport Road",
      "Pagoda Road",
      "Monastery Road",
      "Aung Chan Tha Road",
      "Kan Oo Road",
      "Cathedral Road",
      "Fire Pagoda Road",
      "Htee Sekhoe Road",
      "Seven Lake Road",
      "Kayah Road"
    ]
  },
  "postcode_format": "#####",
  "address_formats": [
    "{building_number}, {street}, {city}",
    "{building_number} {street}, {city}",
    "{building_number}, {street}, {city}, {state}"
  ],
  "country": "Myanmar",
  "country_code": "MM",
  "phone_area_codes": {
    "Yangon": [
      "1"
    ],
    "Mandalay": [
      "2"
    ],
    "Naypyidaw": [
      "67"
    ],
    "Mawlamyine": [
      "57"
    ],
    "Bago": [
      "52"
    ],
    "Pathein": [
      "42"
    ],
    "Taunggyi": [
      "81"
    ],
    "Monywa": [
      "71"
    ],
    "Meiktila": [
      "2"
    ],
    "Myitkyina": [
      "74"
    ],
    "Sittwe": [
      "43"
    ],
    "Magway": [
      "63"
    ],
    "Pyay": [
      "52"
    ],
    "Lashio": [
      "81"
    ],
    "Hpa-An": [
      "58"
    ],
    "Sagaing": [
      "71"
    ],
    "Dawei": [
      "59"
    ],
    "Myeik": [
      "59"
    ],
    "Pakokku": [
      "63"
    ],
    "Kalay": [
      "71"
    ],
    "Loikaw": [
      "83"
    ],
    "Hakha": [
      "70"
    ],
    "Taungoo": [
      "52"
    ],
    "Thaton": [
      "57"
    ],
    "Pyin Oo Lwin": [
      "2"
    ],
    "Mogok": [
      "2"
    ],
    "Nyaungshwe": [
      "81"
    ],
    "Kyaukphyu": [
      "43"
    ],
    "Kyaukse": [
      "2"
    ],
    "Bhamo": [
      "74"
    ],
    "Muse": [
      "81"
    ],
    "Kengtung": [
      "81"
    ],
    "Myawaddy": [
      "58"
    ],
    "Thandwe": [
      "43"
    ],
    "Shwebo": [
      "71"
    ],
    "Yenangyaung": [
      "63"
    ],
    "Chauk": [
      "63"
    ],
    "Myingyan": [
      "2"
    ],
    "Aunglan": [
      "63"
    ],
    "Kyaukpadaung": [
      "2"
    ],
    "Kawthaung": [
      "59"
    ],
    "Hinthada": [
      "42"
    ],
    "Pyapon": [
      "42"
    ],
    "Bogale": [
      "42"
    ],
    "Mudon": [
      "57"
    ],
    "Minbu": [
      "63"
    ],
    "Myanaung": [
      "42"
    ],
    "Letpadan": [
      "52"
    ],
    "Mrauk U": [
      "43"
    ],
    "Putao": [
      "74"
    ],
    "Bagan": [
      "2"
    ],
    "Hsipaw": [
      "81"
    ],
    "Tamu": [
      "71"
    ],
    "Falam": [
      "70"
    ],
    "Tedim": [
      "70"
    ],
    "Demoso": [
      "83"
    ],
    "Ngapali": [
      "43"
    ],
    "Indaw": [
      "71"
    ],
    "Nyaungdon": [
      "42"
    ],
    "Thanlyin": [
      "1"
    ],
    "Hmawbi": [
      "1"
    ],
    "Katha": [
      "71"
    ],
    "Namtu": [
      "81"
    ],
    "Tachileik": [
      "81"
    ],
    "Kawlin": [
      "71"
    ],
    "Wundwin": [
      "2"
    ],
    "Wakema": [
      "42"
    ],
    "Ye": [
      "57"
    ],
    "Kyaingtong": [
      "81"
    ],
    "Thanbyuzayat": [
      "57"
    ]
  }
}
