{
  "locations": {
    "very_common": [
      {"city": "Kathmandu", "state": "Bagmati", "state_abbr": "BA", "postcode_prefix": "44", "lat_min": 27.68, "lat_max": 27.73, "lon_min": 85.30, "lon_max": 85.35},
      {"city": "Pokhara", "state": "Gandaki", "state_abbr": "GA", "postcode_prefix": "33", "lat_min": 28.19, "lat_max": 28.24, "lon_min": 83.96, "lon_max": 84.01},
      {"city": "Lalitpur", "state": "Bagmati", "state_abbr": "BA", "postcode_prefix": "44", "lat_min": 27.66, "lat_max": 27.68, "lon_min": 85.31, "lon_max": 85.34},
      {"city": "Biratnagar", "state": "Koshi", "state_abbr": "KO", "postcode_prefix": "56", "lat_min": 26.44, "lat_max": 26.49, "lon_min": 87.26, "lon_max": 87.30},
      {"city": "Bharatpur", "state": "Bagmati", "state_abbr": "BA", "postcode_prefix": "44", "lat_min": 27.66, "lat_max": 27.69, "lon_min": 84.42, "lon_max": 84.45},
      {"city": "Birgunj", "state": "Madhesh", "state_abbr": "MA", "postcode_prefix": "44", "lat_min": 27.00, "lat_max": 27.02, "lon_min": 84.87, "lon_max": 84.89},
      {"city": "Butwal", "state": "Lumbini", "state_abbr": "LU", "postcode_prefix": "32", "lat_min": 27.69, "lat_max": 27.71, "lon_min": 83.44, "lon_max": 83.47},
      {"city": "Dharan", "state": "Koshi", "state_abbr": "KO", "postcode_prefix": "56", "lat_min": 26.80, "lat_max": 26.83, "lon_min": 87.27, "lon_max": 87.30},
      {"city": "Bhaktapur", "state": "Bagmati", "state_abbr": "BA", "postcode_prefix": "44", "lat_min": 27.67, "lat_max": 27.68, "lon_min": 85.42, "lon_max": 85.44},
      {"city": "Hetauda", "state": "Bagmati", "state_abbr": "BA", "postcode_prefix": "44", "lat_min": 27.42, "lat_max": 27.44, "lon_min": 85.02, "lon_max": 85.04}
    ],
    "common": [
      {"city": "Dhangadhi", "state": "Sudurpashchim", "state_abbr": "SU", "postcode_prefix": "10", "lat_min": 28.68, "lat_max": 28.71, "lon_min": 80.58, "lon_max": 80.61},
      {"city": "Janakpur", "state": "Madhesh", "state_abbr": "MA", "postcode_prefix": "45", "lat_min": 26.71, "lat_max": 26.73, "lon_min": 85.91, "lon_max": 85.94},
      {"city": "Nepalgunj", "state": "Lumbini", "state_abbr": "LU", "postcode_prefix": "21", "lat_min": 28.04, "lat_max": 28.06, "lon_min": 81.61, "lon_max": 81.63},
      {"city": "Itahari", "state": "Koshi", "state_abbr": "KO", "postcode_prefix": "56", "lat_min": 26.66, "lat_max": 26.68, "lon_min": 87.27, "lon_max": 87.29},
      {"city": "Siddharthanagar", "state": "Lumbini", "state_abbr": "LU", "postcode_prefix": "32", "lat_min": 27.48, "lat_max": 27.50, "lon_min": 83.45, "lon_max": 83.47},
      {"city": "Tulsipur", "state": "Lumbini", "state_abbr": "LU", "postcode_prefix": "22", "lat_min": 28.12, "lat_max": 28.14, "lon_min": 82.29, "lon_max": 82.31},
      {"city": "Damak", "state": "Koshi", "state_abbr": "KO", "postcode_prefix": "57", "lat_min": 26.65, "lat_max": 26.67, "lon_min": 87.69, "lon_max": 87.71},
      {"city": "Ghorahi", "state": "Lumbini", "state_abbr": "LU", "postcode_prefix": "22", "lat_min": 28.03, "lat_max": 28.05, "lon_min": 82.48, "lon_max": 82.50},
      {"city": "Kirtipur", "state": "Bagmati", "state_abbr": "BA", "postcode_prefix": "44", "lat_min": 27.67, "lat_max": 27.68, "lon_min": 85.27, "lon_max": 85.29},
      {"city": "Lahan", "state": "Madhesh", "state_abbr": "MA", "postcode_prefix": "56", "lat_min": 26.72, "lat_max": 26.73, "lon_min": 86.47, "lon_max": 86.49},
      {"city": "Rajbiraj", "state": "Madhesh", "state_abbr": "MA", "postcode_prefix": "56", "lat_min": 26.53, "lat_max": 26.55, "lon_min": 86.73, "lon_max": 86.75},
      {"city": "Tansen", "state": "Lumbini", "state_abbr": "LU", "postcode_prefix": "32", "lat_min": 27.86, "lat_max": 27.88, "lon_min": 83.54, "lon_max": 83.56},
      {"city": "Gorkha", "state": "Gandaki", "state_abbr": "GA", "postcode_prefix": "36", "lat_min": 28.00, "lat_max": 28.01, "lon_min": 84.62, "lon_max": 84.63},
      {"city": "Lumbini", "state": "Lumbini", "state_abbr": "LU", "postcode_prefix": "32", "lat_min": 27.47, "lat_max": 27.48, "lon_min": 83.27, "lon_max": 83.28},
      {"city": "Ilam", "state": "Koshi", "state_abbr": "KO", "postcode_prefix": "57", "lat_min": 26.90, "lat_max": 26.92, "lon_min": 87.92, "lon_max": 87.94},
      {"city": "Dhulikhel", "state": "Bagmati", "state_abbr": "BA", "postcode_prefix": "45", "lat_min": 27.61, "lat_max": 27.62, "lon_min": 85.55, "lon_max": 85.56},
      {"city": "Banepa", "state": "Bagmati", "state_abbr": "BA", "postcode_prefix": "45", "lat_min": 27.62, "lat_max": 27.63, "lon_min": 85.52, "lon_max": 85.53},
      {"city": "Dailekh", "state": "Karnali", "state_abbr": "KA", "postcode_prefix": "21", "lat_min": 28.84, "lat_max": 28.86, "lon_min": 81.71, "lon_max": 81.73},
      {"city": "Jhapa", "state": "Koshi", "state_abbr": "KO", "postcode_prefix": "57", "lat_min": 26.53, "lat_max": 26.55, "lon_min": 87.87, "lon_max": 87.89},
      {"city": "Surkhet", "state": "Karnali", "state_abbr": "KA", "postcode_prefix": "21", "lat_min": 28.59, "lat_max": 28.61, "lon_min": 81.61, "lon_max": 81.63}
    ],
    "uncommon": [
      {"city": "Palpa", "state": "Lumbini", "state_abbr": "LU", "postcode_prefix": "32", "lat_min": 27.87, "lat_max": 27.88, "lon_min": 83.54, "lon_max": 83.55},
      {"city": "Baglung", "state": "Gandaki", "state_abbr": "GA", "postcode_prefix": "33", "lat_min": 28.27, "lat_max": 28.28, "lon_min": 83.59, "lon_max": 83.60},
      {"city": "Dhankuta", "state": "Koshi", "state_abbr": "KO", "postcode_prefix": "56", "lat_min": 26.98, "lat_max": 26.99, "lon_min": 87.34, "lon_max": 87.35},
      {"city": "Panauti", "state": "Bagmati", "state_abbr": "BA", "postcode_prefix": "45", "lat_min": 27.58, "lat_max": 27.59, "lon_min": 85.51, "lon_max": 85.52},
      {"city": "Bandipur", "state": "Gandaki", "state_abbr": "GA", "postcode_prefix": "36", "lat_min": 27.93, "lat_max": 27.94, "lon_min": 84.40, "lon_max": 84.41},
      {"city": "Birganj", "state": "Madhesh", "state_abbr": "MA", "postcode_prefix": "44", "lat_min": 27.01, "lat_max": 27.02, "lon_min": 84.88, "lon_max": 84.89},
      {"city": "Bhojpur", "state": "Koshi", "state_abbr": "KO", "postcode_prefix": "56", "lat_min": 27.17, "lat_max": 27.18, "lon_min": 87.05, "lon_max": 87.06},
      {"city": "Jumla", "state": "Karnali", "state_abbr": "KA", "postcode_prefix": "21", "lat_min": 29.27, "lat_max": 29.28, "lon_min": 82.18, "lon_max": 82.19},
      {"city": "Chainpur", "state": "Koshi", "state_abbr": "KO", "postcode_prefix": "56", "lat_min": 27.28, "lat_max": 27.29, "lon_min": 87.33, "lon_max": 87.34},
      {"city": "Dipayal", "state": "Sudurpashchim", "state_abbr": "SU", "postcode_prefix": "10", "lat_min": 29.24, "lat_max": 29.25, "lon_min": 80.94, "lon_max": 80.95},
      {"city": "Narayan", "state": "Bagmati", "state_abbr": "BA", "postcode_prefix": "44", "lat_min": 27.70, "lat_max": 27.71, "lon_min": 84.43, "lon_max": 84.44},
      {"city": "Bhadrapur", "state": "Koshi", "state_abbr": "KO", "postcode_prefix": "57", "lat_min": 26.54, "lat_max": 26.55, "lon_min": 88.08, "lon_max": 88.09},
      {"city": "Kalaiya", "state": "Madhesh", "state_abbr": "MA", "postcode_prefix": "44", "lat_min": 27.03, "lat_max": 27.04, "lon_min": 85.00, "lon_max": 85.01},
      {"city": "Malangwa", "state": "Madhesh", "state_abbr": "MA", "postcode_prefix": "45", "lat_min": 26.86, "lat_max": 26.87, "lon_min": 85.56, "lon_max": 85.57},
      {"city": "Gaur", "state": "Madhesh", "state_abbr": "MA", "postcode_prefix": "44", "lat_min": 26.76, "lat_max": 26.77, "lon_min": 85.28, "lon_max": 85.29},
      {"city": "Besisahar", "state": "Gandaki", "state_abbr": "GA", "postcode_prefix": "35", "lat_min": 28.23, "lat_max": 28.24, "lon_min": 84.38, "lon_max": 84.39},
      {"city": "Syangja", "state": "Gandaki", "state_abbr": "GA", "postcode_prefix": "33", "lat_min": 28.10, "lat_max": 28.11, "lon_min": 83.88, "lon_max": 83.89},
      {"city": "Nawalparasi", "state": "Lumbini", "state_abbr": "LU", "postcode_prefix": "33", "lat_min": 27.57, "lat_max": 27.58, "lon_min": 83.63, "lon_max": 83.64},
      {"city": "Ramechhap", "state": "Bagmati", "state_abbr": "BA", "postcode_prefix": "45", "lat_min": 27.44, "lat_max": 27.45, "lon_min": 86.09, "lon_max": 86.10},
      {"city": "Taplejung", "state": "Koshi", "state_abbr": "KO", "postcode_prefix": "57", "lat_min": 27.35, "lat_max": 27.36, "lon_min": 87.66, "lon_max": 87.67}
    ],
    "rare": [
      {"city": "Namche Bazaar", "state": "Koshi", "state_abbr": "KO", "postcode_prefix": "56", "lat_min": 27.80, "lat_max": 27.81, "lon_min": 86.71, "lon_max": 86.72},
      {"city": "Jomsom", "state": "Gandaki", "state_abbr": "GA", "postcode_prefix": "33", "lat_min": 28.78, "lat_max": 28.79, "lon_min": 83.73, "lon_max": 83.74},
      {"city": "Lukla", "state": "Koshi", "state_abbr": "KO", "postcode_prefix": "56", "lat_min": 27.68, "lat_max": 27.69, "lon_min": 86.72, "lon_max": 86.73},
      {"city": "Manang", "state": "Gandaki", "state_abbr": "GA", "postcode_prefix": "35", "lat_min": 28.66, "lat_max": 28.67, "lon_min": 84.01, "lon_max": 84.02},
      {"city": "Darchula", "state": "Sudurpashchim", "state_abbr": "SU", "postcode_prefix": "10", "lat_min": 29.84, "lat_max": 29.85, "lon_min": 80.55, "lon_max": 80.56},
      {"city": "Dolpo", "state": "Karnali", "state_abbr": "KA", "postcode_prefix": "21", "lat_min": 29.05, "lat_max": 29.06, "lon_min": 83.05, "lon_max": 83.06},
      {"city": "Humla", "state": "Karnali", "state_abbr": "KA", "postcode_prefix": "21", "lat_min": 29.97, "lat_max": 29.98, "lon_min": 81.90, "lon_max": 81.91},
      {"city": "Solukhumbu", "state": "Koshi", "state_abbr": "KO", "postcode_prefix": "56", "lat_min": 27.79, "lat_max": 27.80, "lon_min": 86.67, "lon_max": 86.68},
      {"city": "Mustang", "state": "Gandaki", "state_abbr": "GA", "postcode_prefix": "33", "lat_min": 28.99, "lat_max": 29.00, "lon_min": 83.86, "lon_max": 83.87},
      {"city": "Bajura", "state": "Sudurpashchim", "state_abbr": "SU", "postcode_prefix": "10", "lat_min": 29.52, "lat_max": 29.53, "lon_min": 81.33, "lon_max": 81.34},
      {"city": "Mugu", "state": "Karnali", "state_abbr": "KA", "postcode_prefix": "21", "lat_min": 29.50, "lat_max": 29.51, "lon_min": 82.09, "lon_max": 82.10},
      {"city": "Bajhang", "state": "Sudurpashchim", "state_abbr": "SU", "postcode_prefix": "10", "lat_min": 29.52, "lat_max": 29.53, "lon_min": 81.18, "lon_max": 81.19},
      {"city": "Kalikot", "state": "Karnali", "state_abbr": "KA", "postcode_prefix": "21", "lat_min": 29.13, "lat_max": 29.14, "lon_min": 81.62, "lon_max": 81.63},
      {"city": "Phidim", "state": "Koshi", "state_abbr": "KO", "postcode_prefix": "57", "lat_min": 27.15, "lat_max": 27.16, "lon_min": 87.75, "lon_max": 87.76},
      {"city": "Okhaldhunga", "state": "Koshi", "state_abbr": "KO", "postcode_prefix": "56", "lat_min": 27.31, "lat_max": 27.32, "lon_min": 86.50, "lon_max": 86.51},
      {"city": "Sankhuwasabha", "state": "Koshi", "state_abbr": "KO", "postcode_prefix": "56", "lat_min": 27.37, "lat_max": 27.38, "lon_min": 87.20, "lon_max": 87.21},
      {"city": "Dolakha", "state": "Bagmati", "state_abbr": "BA", "postcode_prefix": "45", "lat_min": 27.64, "lat_max": 27.65, "lon_min": 86.07, "lon_max": 86.08},
      {"city": "Rukum", "state": "Lumbini", "state_abbr": "LU", "postcode_prefix": "22", "lat_min": 28.62, "lat_max": 28.63, "lon_min": 82.61, "lon_max": 82.62},
      {"city": "Rolpa", "state": "Lumbini", "state_abbr": "LU", "postcode_prefix": "22", "lat_min": 28.55, "lat_max": 28.56, "lon_min": 82.65, "lon_max": 82.66},
      {"city": "Pyuthan", "state": "Lumbini", "state_abbr": "LU", "postcode_prefix": "22", "lat_min": 28.10, "lat_max": 28.11, "lon_min": 82.85, "lon_max": 82.86}
    ]
  },
  "streets_by_city": {
    "Kathmandu": ["Durbar Marg", "New Road", "Kantipath", "Lazimpat", "Thamel Marg", "Putalisadak", "Tripureshwor Marg", "Kalanki Road", "Baluwatar Road", "Maharajgunj Road", "Chabahil Road", "Bauddha Road", "Jawalakhel Road", "Kupandole Road", "Baneshwor Road", "Koteshwor Road", "Gaushala Road", "Singha Durbar Road", "Kalimati Road", "Naya Baneshwor Road", "Basantapur Road", "Asan Tole", "Indrachowk Road", "Swayambhu Road", "Sorakhutte Road"],
    "Pokhara": ["Lakeside Road", "Baidam Road", "Chipledhunga Road", "Prithvi Highway", "Mahendrapul Road", "Nayabazar Road", "Srijana Chowk Road", "Airport Road", "Phewa Lake Road", "Khahare Road", "Mustang Chowk Road", "Bindabasini Road", "Bagar Road", "Nadipur Road", "Parsyang Road", "Rambazar Road", "Masbar Road", "Gairapatan Road", "Simalchaur Road", "Ranipauwa Road", "Chhorepatan Road", "Devi Falls Road", "Sarangkot Road", "Matepani Road", "Lamachaur Road"],
    "Lalitpur": ["Pulchowk Road", "Jawalakhel Road", "Kumaripati Road", "Mangal Bazar", "Dhobighat Road", "Satdobato Road", "Imadol Road", "Lagankhel Road", "Khumaltar Road", "Ekantakuna Road", "Sanepa Road", "Tikabhairab Road", "Nakkhu Road", "Godawari Road", "Lubhu Road", "Gwarko Road", "Balkumari Road", "Patan Durbar Road", "Sundhara Road", "Durbar Square Road", "Mahalaxmisthan Road", "Bhanimandal Road", "Hattiban Road", "Bagdol Road", "Thasikhel Road"],
    "Biratnagar": ["Main Road", "Mahendra Chowk Road", "Jogbani Road", "Rani Road", "Traffic Chowk Road", "Bargachhi Road", "Powerhouse Road", "Tankisinwari Road", "Mill Road", "Ganeshman Chowk Road", "Hanuman Nagar Road", "Rudrapur Road", "Airport Road", "Koshi Highway Road", "Tintoliya Road", "Panbari Road", "Narsing Chowk Road", "Dhanpat Path", "Chatramarg", "Ramnagar Road", "Bishalnagar Road", "Adarsha Tole Road", "Ghopa Camp Road", "Sunsari Road", "Morang Road"],
    "Bharatpur": ["Narayangadh Road", "Shahid Chowk Road", "Pulchowk Road", "Chitwan Road", "Ratna Highway", "Sauraha Road", "Devghat Road", "Airport Road", "Bharatpur Chowk Road", "Tandi Road", "Byas Road", "Parsa Road", "Tikauli Road", "Meghauli Road", "Bagauda Road", "Rapti Road", "Nawalpur Road", "Bachhauli Road", "Kumroj Road", "Khairhani Road", "Lothar Road", "Jutpani Road", "Shaktikhor Road", "Mugling Road", "Chanauli Road"],
    "Birgunj": ["Adarshnagar Road", "Ghantaghar Road", "Maisthan Road", "Powerhouse Road", "Buspark Road", "Birta Road", "Murali Road", "Chhapkaiya Road", "Gujara Road", "Collegiya Road", "Raniganj Road", "Parwanipur Road", "Link Road", "Bhawanipur Road", "Panitanki Road", "Birgunj Main Road", "Simara Road", "ICD Road", "Jeetpur Road", "Gandak Road", "Parsa Road", "Sahajpur Road", "Madanpur Road", "Pipara Road", "Narayani Road"],
    "Butwal": ["Milanchowk Road", "Golpark Road", "Tamnagar Road", "Deepnagar Road", "Buspark Road", "Kalikanagar Road", "Yogikuti Road", "Devinagar Road", "Sukkhanagar Road", "Traffic Chowk Road", "Amarnagar Road", "Purwanchal Road", "Siddhartha Highway", "Belbas Road", "Amar Path", "Devdaha Road", "Tilottama Road", "Sainamaina Road", "Manigram Road", "Butwal Main Road", "Sunauli Road", "Motipur Road", "Nayaroad", "Murgiya Road", "Rampur Road"],
    "Dharan": ["Putali Line Road", "Bhanu Chowk Road", "Chatara Road", "Main Road", "Panbari Road", "Buspark Road", "Campus Road", "Bhanuchowk Road", "Dharan Main Road", "Sangita Chowk Road", "Bijayapur Road", "Sunsari Road", "Bhedetar Road", "Simal Road", "Koshi Road", "Gaida Chowk Road", "Chhata Chowk Road", "Shantinagar Road", "Panchthar Road", "Dantakali Road", "Chulachuli Road", "Rajarani Road", "Hospital Road", "Dharan Ring Road", "Milan Chowk Road"],
    "Bhaktapur": ["Durbar Square Road", "Dattatreya Road", "Suryamadhi Road", "Nyatapola Road", "Kamalbinayak Road", "Taumadhi Road", "Bhaktapur Main Road", "Siddha Pokhari Road", "Kamal Pokhari Road", "Sallaghari Road", "Nagarkot Road", "Changunarayan Road", "Thimi Road", "Libali Road", "Dudhpati Road", "Golmadhi Road", "Bhelukhel Road", "Pottery Square Road", "Byasi Road", "Sukuldhoka Road", "Laaku Road", "Itachhen Road", "Guhepukhu Road", "Chandeswori Road", "Khwopa Road"],
    "Hetauda": ["Hetauda Main Road", "Buspark Road", "Sahid Chowk Road", "Makwanpur Road", "Industrial Road", "Tribhuvan Highway", "Chattiwan Road", "Sitapaila Road", "Simara Road", "Manahari Road", "Churiya Road", "Rapti Road", "Campus Road", "Hospital Road", "Jalpa Road", "Hanuman Nagar Road", "Narayani Road", "Basamadi Road", "Hatiya Road", "Bazar Road", "Bhimphedi Road", "Palung Road", "Kulekhani Road", "Gadhi Road", "Hetauda Ring Road"],
    "Dhangadhi": ["Dhangadhi Main Road", "Airport Road", "Buspark Road", "Chauraha Road", "Campus Road", "Hospital Road", "Attariya Road", "Mahendranagar Road", "Mohana Road", "Seti Road", "Kailali Road", "Lamki Road", "Tikapur Road", "Godawari Road", "Hasuliya Road", "Krishnapur Road", "Gauriganga Road", "Bhajani Road", "Chaumala Road", "Dhangarhi Ring Road", "Joshipur Road", "Patabhar Road", "Sudurpashchim Road", "Geta Road", "Malakheti Road"],
    "Janakpur": ["Janakpur Main Road", "Station Road", "Bhanu Chowk Road", "Ram Mandir Road", "Janaki Mandir Road", "Ramanand Chowk Road", "Murli Chowk Road", "Pidari Chowk Road", "Janakpur Ring Road", "Maithili Road", "Dhanusha Road", "Railway Road", "Bishnupad Road", "Jaleshwar Road", "Laxmi Chowk Road", "Malangawa Road", "Nagrain Road", "Airport Road", "Kuwa Road", "Janakpur Hospital Road", "Bhawanipur Road", "Parikar Road", "Parsa Road", "Campus Road", "Bazar Road"],
    "Nepalgunj": ["Nepalgunj Main Road", "Tribhuvan Chowk Road", "Birendra Chowk Road", "Surkhet Road", "Airport Road", "Bheri Road", "Banke Road", "Buspark Road", "Kohalpur Road", "Campus Road", "Hospital Road", "Khajura Road", "Baijapur Road", "Rapti Road", "Industrial Road", "Nepalgunj Ring Road", "Amiliya Road", "Jamunaha Road", "Atipur Road", "Holiya Road", "Baishakhali Road", "Bankatti Road", "Dumkalini Road", "Rajhena Road", "Saigha Road"],
    "Itahari": ["Itahari Main Road", "Biratnagar Road", "Dharan Road", "BP Highway Road", "Buspark Road", "Koshi Road", "Sunsari Road", "Tarahara Road", "Duhabi Road", "Campus Road", "Hospital Road", "Morang Road", "Anarmani Road", "Tinpaini Road", "Laukahi Road", "Bageshwari Road", "Sundarpur Road", "Industrial Road", "Bazar Road", "Hatiya Road", "Ring Road", "Airport Road", "Kanchanbari Road", "Hanuman Nagar Road", "Sunaulo Road"],
    "Siddharthanagar": ["Siddharthanagar Main Road", "Butwal Road", "Kapilvastu Road", "Sunauli Road", "Buspark Road", "Lumbini Road", "Bhairahawa Road", "Airport Road", "Campus Road", "Hospital Road", "Buddha Road", "Niglihawa Road", "Tilaurakot Road", "Taulihawa Road", "Bazar Road", "Manigram Road", "Siyari Road", "Bank Road", "Devdaha Road", "Stadium Road", "Parasi Road", "Nawalpur Road", "Siddhartha Highway", "Motipur Road", "Nayaroad"],
    "Tulsipur": ["Tulsipur Main Road", "Dang Road", "Ghorahi Road", "Rapti Highway", "Buspark Road", "Campus Road", "Hospital Road", "Bazar Road", "Lamahi Road", "Sisahaniya Road", "Duruwa Road", "Gadhawa Road", "Narayanpur Road", "Tarigaun Road", "Industrial Road", "Ring Road", "Koilabas Road", "Saudiyar Road", "Rajpur Road", "Satbariya Road", "Laxmipur Road", "Purandhara Road", "Hapure Road", "Bhaluwang Road", "Tulasipur Road"],
    "Damak": ["Damak Main Road", "Birtamod Road", "Bhadrapur Road", "Buspark Road", "Jhapa Road", "Campus Road", "Hospital Road", "Bazar Road", "Urlabari Road", "Surunga Road", "Gauriganj Road", "Kankai Road", "Charaali Road", "Topgachhi Road", "Industrial Road", "Mechinagar Road", "Maheshpur Road", "Shivasatakshi Road", "Ring Road", "Arjundhara Road", "Kamal Road", "Gaurigunj Road", "Kechana Road", "Pathamari Road", "Sanischare Road"],
    "Ghorahi": ["Ghorahi Main Road", "Tulsipur Road", "Buspark Road", "Campus Road", "Hospital Road", "Dang Road", "Rapti Road", "Lamahi Road", "Bazar Road", "Industrial Road", "Ring Road", "Saudiyar Road", "Narayanpur Road", "Satbariya Road", "Gadawa Road", "Rajpur Road", "Sisahaniya Road", "Duruwa Road", "Laxmipur Road", "Koilabas Road", "Bank Road", "Airport Road", "Stadium Road", "Highway Road", "Deukhari Road"],
    "Kirtipur": ["Kirtipur Main Road", "Naya Bazar Road", "Uma Maheshwor Road", "Bagh Bhairav Road", "Tribhuvan University Road", "Chilancho Road", "Panga Road", "Nagaon Road", "Itagol Road", "Tyagal Road", "Layaku Road", "Devdhoka Road", "Chobhar Road", "Machha Narayan Road", "Chochhe Road", "Kvache Road", "Tinthana Road", "Balkhu Road", "Sanepa Road", "Dahachowk Road", "Bhajangal Road", "Bhaktamadhi Road", "Lokanthali Road", "Champi Road", "Khasi Bazar Road"],
    "Lahan": ["Lahan Main Road", "Siraha Road", "Rajbiraj Road", "Buspark Road", "Campus Road", "Hospital Road", "Bazar Road", "Sagarmatha Road", "Golbazar Road", "Mirchaiya Road", "Lohajara Road", "Dhangadhimai Road", "Bariyarpatti Road", "Industrial Road", "Kalyanpur Road", "Bhagwanpur Road", "Sukhipur Road", "Ring Road", "Highway Road", "Stadium Road", "Bank Road", "Airport Road", "Hatiya Road", "Janaki Road", "Maithili Road"],
    "Rajbiraj": ["Rajbiraj Main Road", "Saptari Road", "Buspark Road", "Campus Road", "Hospital Road", "Bazar Road", "Lahan Road", "Kanchanrup Road", "Hanumannagar Road", "Balan Road", "Dakneshwori Road", "Tilathi Road", "Bodebarsain Road", "Shambhunath Road", "Rupani Road", "Industrial Road", "Ring Road", "Highway Road", "Stadium Road", "Koshi Road", "Bank Road", "Airport Road", "Hatiya Road", "Mithila Road", "Maithili Road"],
    "Tansen": ["Tansen Main Road", "Palpa Road", "Amar Narayan Road", "Buspark Road", "Srinagar Road", "Hospital Road", "Campus Road", "Bazar Road", "Hatti Sar Road", "Gorkha Gate Road", "Bhagawati Road", "Siddhababa Road", "Tamghas Road", "Ridi Road", "Tansen Durbar Road", "Bank Road", "Stadium Road", "Industrial Road", "Ranighat Road", "Bagnaskali Road", "Madan Path", "Shreenagar Road", "Jyoti Path", "Makhan Tole", "Bhetghat Road"],
    "Gorkha": ["Gorkha Main Road", "Durbar Road", "Buspark Road", "Campus Road", "Hospital Road", "Bazar Road", "Manakamana Road", "Abu Khaireni Road", "Palungtar Road", "Prithvi Highway Road", "Ghairung Road", "Arughat Road", "Barpak Road", "Laprak Road", "Saurpani Road", "Industrial Road", "Ring Road", "Bank Road", "Stadium Road", "Aarukharka Road", "Taklung Road", "Siranchowk Road", "Ajirkot Road", "Dharche Road", "Gorkha Bazaar Road"],
    "Lumbini": ["Lumbini Main Road", "Maya Devi Road", "Sacred Garden Road", "Monastery Road", "Peace Road", "Ashoka Pillar Road", "Kapilvastu Road", "Tilaurakot Road", "Cultural Heritage Road", "Buspark Road", "Niglihawa Road", "Ramagrama Road", "World Peace Pagoda Road", "Crane Sanctuary Road", "Devdaha Road", "Museum Road", "Meditation Road", "Bodhi Tree Road", "Mayadevi Temple Road", "Kudan Road", "Gotihawa Road", "Sagarhawa Road", "Sunuwal Road", "Parasi Road", "Buddha Marg"],
    "Ilam": ["Ilam Main Road", "Buspark Road", "Campus Road", "Hospital Road", "Bazar Road", "Tea Garden Road", "Kanyam Road", "Mai Road", "Godak Road", "Barbote Road", "Fikkal Road", "Mangalbare Road", "Phikkal Road", "Chulachuli Road", "Industrial Road", "Ring Road", "Bank Road", "Stadium Road", "Jhapa Road", "Panchthar Road", "Sandakpur Road", "Mai Pokhari Road", "Antu Danda Road", "Suryodaya Road", "Deumai Road"],
    "Dhulikhel": ["Dhulikhel Main Road", "Arniko Highway", "Hospital Road", "Campus Road", "Bazar Road", "Namobuddha Road", "Panauti Road", "Banepa Road", "Koshi Road", "Kavre Road", "Panorama Road", "Mountain View Road", "Shiva Temple Road", "Kali Temple Road", "Bhagawati Road", "Nala Road", "Dapcha Road", "Kuntabesi Road", "Patlekhet Road", "Khadpu Road", "Devisthan Road", "Chandeshwori Road", "Heritage Road", "Ring Road", "Lodge Road"],
    "Banepa": ["Banepa Main Road", "Arniko Highway", "Dhulikhel Road", "Panauti Road", "Buspark Road", "Campus Road", "Hospital Road", "Bazar Road", "Chandeshwori Road", "Nala Road", "Kavre Road", "Sanga Road", "Industrial Road", "Ring Road", "Bank Road", "Heritage Road", "Khopasi Road", "Lamasanghu Road", "Dolalghat Road", "Sindhupalchok Road", "Maha Laxmi Road", "Shiva Road", "Bhagawati Road", "Museum Road", "Library Road"],
    "Dailekh": ["Dailekh Main Road", "Dullu Road", "Buspark Road", "Campus Road", "Hospital Road", "Bazar Road", "Narayan Road", "Chamunda Road", "Karnali Road", "Surkhet Road", "Industrial Road", "Ring Road", "Bank Road", "Stadium Road", "Jumla Road", "Airport Road", "Hatiya Road", "Bheri Road", "Mugu Road", "Humla Road", "Sinja Road", "Panchthar Road", "Heritage Road", "Dullu Fort Road", "Devisthan Road"],
    "Jhapa": ["Jhapa Main Road", "Birtamod Road", "Damak Road", "Bhadrapur Road", "Buspark Road", "Campus Road", "Hospital Road", "Bazar Road", "Mechinagar Road", "Kakkarvitta Road", "Chandragadhi Road", "Kankai Road", "Industrial Road", "Ring Road", "Bank Road", "Stadium Road", "Airport Road", "Hatiya Road", "Koshi Road", "Mechi Road", "Border Road", "Highway Road", "Charali Road", "Surunga Road", "Sanischare Road"],
    "Surkhet": ["Surkhet Main Road", "Birendranagar Road", "Buspark Road", "Campus Road", "Hospital Road", "Bazar Road", "Airport Road", "Bheri Road", "Karnali Road", "Nepalgunj Road", "Dailekh Road", "Jumla Road", "Industrial Road", "Ring Road", "Bank Road", "Stadium Road", "Chhinchu Road", "Gurbhakot Road", "Lekbesi Road", "Barahtal Road", "Sahare Road", "Kunathari Road", "Lekhparajul Road", "Simta Road", "Babai Road"],
    "Palpa": ["Palpa Main Road", "Tansen Road", "Buspark Road", "Campus Road", "Hospital Road", "Bazar Road", "Siddhartha Highway", "Tanhun Road", "Ridi Road", "Tamghas Road", "Industrial Road", "Ring Road", "Bank Road", "Stadium Road", "Heritage Road", "Ranighat Road", "Bagnaskali Road", "Rampur Road", "Chhahara Road", "Argali Road", "Bhumahi Road", "Madanpokhara Road", "Hungi Road", "Deurali Road", "Mathagadhi Road"],
    "Baglung": ["Baglung Main Road", "Kusma Road", "Buspark Road", "Campus Road", "Hospital Road", "Bazar Road", "Beni Road", "Dhaulagiri Road", "Myagdi Road", "Parbat Road", "Industrial Road", "Ring Road", "Bank Road", "Stadium Road", "Kaligandaki Road", "Bhurjung Road", "Balewa Road", "Hatiya Road", "Nisi Road", "Galkot Road", "Jaimini Road", "Dhorpatan Road", "Bobang Road", "Bareng Road", "Taman Road"],
    "Dhankuta": ["Dhankuta Main Road", "Hile Road", "Buspark Road", "Campus Road", "Hospital Road", "Bazar Road", "Dharan Road", "Koshi Road", "Bhojpur Road", "Tehrathum Road", "Industrial Road", "Ring Road", "Bank Road", "Stadium Road", "Tamor Road", "Chhintang Road", "Sabhapokhari Road", "Chungmang Road", "Arkhaule Road", "Hatiya Road", "Khalsa Road", "Tankhuwa Road", "Pakhribas Road", "Bhedetar Road", "Murmidanda Road"],
    "Panauti": ["Panauti Main Road", "Banepa Road", "Dhulikhel Road", "Heritage Road", "Temple Road", "Campus Road", "Hospital Road", "Bazar Road", "Khopasi Road", "Godawari Road", "Roshi Road", "Nala Road", "Shiva Temple Road", "Brahmayani Road", "Indreshwor Road", "Bank Road", "Ring Road", "Tribeni Road", "Sanga Road", "Chandeshwori Road", "Industrial Road", "Tindhara Road", "Library Road", "Museum Road", "Garden Road"],
    "Bandipur": ["Bandipur Main Road", "Silk Road", "Heritage Road", "Tundikhel Road", "Buspark Road", "Campus Road", "Hospital Road", "Bazar Road", "Temple Road", "Siddha Cave Road", "Dumre Road", "Damauli Road", "View Point Road", "Museum Road", "Bank Road", "Ring Road", "Narayani Road", "Devghat Road", "Gorkha Road", "Tanahun Road", "Ratna Highway", "Viewtower Road", "Thani Mai Road", "Library Road", "Garden Road"],
    "Birganj": ["Birganj Main Road", "Adarshnagar Road", "Ghantaghar Road", "Buspark Road", "Campus Road", "Hospital Road", "Bazar Road", "Birgunj Road", "Parsa Road", "Simara Road", "Industrial Road", "Ring Road", "Bank Road", "Stadium Road", "ICD Road", "Narayani Road", "Makwanpur Road", "Highway Road", "Border Road", "Hatiya Road", "Powerhouse Road", "Railway Road", "Airport Road", "Birta Road", "Murali Road"],
    "Bhojpur": ["Bhojpur Main Road", "Buspark Road", "Campus Road", "Hospital Road", "Bazar Road", "Dhankuta Road", "Khandbari Road", "Diktel Road", "Koshi Road", "Industrial Road", "Ring Road", "Bank Road", "Stadium Road", "Hatiya Road", "Arun Road", "Tyamke Road", "Bhojpur Bazaar Road", "Shadanand Road", "Airport Road", "Heritage Road", "Temple Road", "Garden Road", "Library Road", "Museum Road", "View Road"],
    "Jumla": ["Jumla Main Road", "Khalanga Road", "Buspark Road", "Campus Road", "Hospital Road", "Bazar Road", "Karnali Road", "Airport Road", "Surkhet Road", "Dolpo Road", "Mugu Road", "Industrial Road", "Ring Road", "Bank Road", "Stadium Road", "Sinja Road", "Heritage Road", "Temple Road", "Chandan Nath Road", "Rara Road", "Humla Road", "Kalikot Road", "Dailekh Road", "Hatiya Road", "Garden Road"],
    "Chainpur": ["Chainpur Main Road", "Buspark Road", "Campus Road", "Hospital Road", "Bazar Road", "Sankhuwasabha Road", "Khandbari Road", "Tumlingtar Road", "Industrial Road", "Ring Road", "Bank Road", "Stadium Road", "Hatiya Road", "Arun Road", "Airport Road", "Heritage Road", "Temple Road", "Garden Road", "Library Road", "Museum Road", "View Road", "Makalu Road", "Mountain Road", "Valley Road", "River Road"],
    "Dipayal": ["Dipayal Main Road", "Silgadhi Road", "Buspark Road", "Campus Road", "Hospital Road", "Bazar Road", "Seti Road", "Dadeldhura Road", "Doti Road", "Darchula Road", "Industrial Road", "Ring Road", "Bank Road", "Stadium Road", "Airport Road", "Hatiya Road", "Highway Road", "Border Road", "Heritage Road", "Temple Road", "Garden Road", "Library Road", "Museum Road", "View Road", "River Road"],
    "Narayan": ["Narayan Main Road", "Bharatpur Road", "Buspark Road", "Campus Road", "Hospital Road", "Bazar Road", "Chitwan Road", "Rapti Road", "Industrial Road", "Ring Road", "Bank Road", "Stadium Road", "National Park Road", "Sauraha Road", "Jagatpur Road", "Meghauli Road", "Khairhani Road", "Jutpani Road", "Rampur Road", "Devghat Road", "Heritage Road", "Temple Road", "Garden Road", "Library Road", "Museum Road"],
    "Bhadrapur": ["Bhadrapur Main Road", "Buspark Road", "Campus Road", "Hospital Road", "Bazar Road", "Damak Road", "Birtamod Road", "Jhapa Road", "Mechinagar Road", "Kakkarvitta Road", "Industrial Road", "Ring Road", "Bank Road", "Stadium Road", "Airport Road", "Hatiya Road", "Highway Road", "Border Road", "Kankai Road", "Mechi Road", "Chandragadhi Road", "Heritage Road", "Temple Road", "Garden Road", "Library Road"],
    "Kalaiya": ["Kalaiya Main Road", "Buspark Road", "Campus Road", "Hospital Road", "Bazar Road", "Birgunj Road", "Bara Road", "Simara Road", "Industrial Road", "Ring Road", "Bank Road", "Stadium Road", "Highway Road", "Hatiya Road", "Narayani Road", "Parsa Road", "Makwanpur Road", "Border Road", "Heritage Road", "Temple Road", "Garden Road", "Railway Road", "Airport Road", "Library Road", "Museum Road"],
    "Malangwa": ["Malangwa Main Road", "Buspark Road", "Campus Road", "Hospital Road", "Bazar Road", "Sarlahi Road", "Janakpur Road", "Lahan Road", "Industrial Road", "Ring Road", "Bank Road", "Stadium Road", "Highway Road", "Hatiya Road", "Siraha Road", "Maithili Road", "Heritage Road", "Temple Road", "Airport Road", "Garden Road", "Library Road", "Museum Road", "River Road", "Border Road", "View Road"],
    "Gaur": ["Gaur Main Road", "Buspark Road", "Campus Road", "Hospital Road", "Bazar Road", "Rautahat Road", "Birgunj Road", "Chandrapur Road", "Industrial Road", "Ring Road", "Bank Road", "Stadium Road", "Highway Road", "Hatiya Road", "Narayani Road", "Border Road", "Heritage Road", "Temple Road", "Airport Road", "Garden Road", "Library Road", "Museum Road", "Railway Road", "Garuda Road", "Madhesh Road"],
    "Besisahar": ["Besisahar Main Road", "Annapurna Road", "Buspark Road", "Campus Road", "Hospital Road", "Bazar Road", "Lamjung Road", "Gorkha Road", "Industrial Road", "Ring Road", "Bank Road", "Stadium Road", "Marsyangdi Road", "Manang Road", "Heritage Road", "Temple Road", "Trekking Road", "Mountain Road", "Garden Road", "Library Road", "Khudi Road", "Bhulbhule Road", "Sundarbazar Road", "Airport Road", "River Road"],
    "Syangja": ["Syangja Main Road", "Waling Road", "Buspark Road", "Campus Road", "Hospital Road", "Bazar Road", "Pokhara Road", "Palpa Road", "Industrial Road", "Ring Road", "Bank Road", "Stadium Road", "Kaligandaki Road", "Heritage Road", "Temple Road", "Airport Road", "Garden Road", "Library Road", "Museum Road", "Putalibazar Road", "Galyang Road", "Arjunchaupari Road", "Bhirkot Road", "Chapakot Road", "View Road"],
    "Nawalparasi": ["Nawalparasi Main Road", "Buspark Road", "Campus Road", "Hospital Road", "Bazar Road", "Butwal Road", "Bharatpur Road", "East West Highway", "Industrial Road", "Ring Road", "Bank Road", "Stadium Road", "Narayani Road", "Kawasoti Road", "Gaindakot Road", "Parasi Road", "Ramgram Road", "Sunwal Road", "Devchuli Road", "Pragatinagar Road", "Heritage Road", "Temple Road", "Airport Road", "Garden Road", "Library Road"],
    "Ramechhap": ["Ramechhap Main Road", "Manthali Road", "Buspark Road", "Campus Road", "Hospital Road", "Bazar Road", "Dolakha Road", "Sindhuli Road", "Industrial Road", "Ring Road", "Bank Road", "Stadium Road", "Heritage Road", "Temple Road", "Airport Road", "Garden Road", "Library Road", "Museum Road", "River Road", "Mountain Road", "Tamakoshi Road", "Doramba Road", "Khandadevi Road", "Gelu Road", "View Road"],
    "Taplejung": ["Taplejung Main Road", "Fungling Road", "Buspark Road", "Campus Road", "Hospital Road", "Bazar Road", "Kanchenjunga Road", "Ilam Road", "Industrial Road", "Ring Road", "Bank Road", "Stadium Road", "Heritage Road", "Temple Road", "Airport Road", "Garden Road", "Library Road", "Museum Road", "River Road", "Mountain Road", "Trekking Road", "Mechi Road", "Phungling Road", "Hangdewa Road", "View Road"],
    "Namche Bazaar": ["Namche Main Road", "Everest Road", "Sherpa Road", "Market Road", "Lodge Road", "Trekking Road", "Khumbu Road", "Panorama Road", "Mountain View Road", "Monastery Road", "Museum Road", "Bakery Road", "Heritage Road", "Bank Road", "Hospital Road", "Sagarmatha Road", "Hillary Road", "Tenzing Road", "Base Camp Road", "Syangboche Road", "Thame Road", "Phortse Road", "Gokyo Road", "Lobuche Road", "Tengboche Road"],
    "Jomsom": ["Jomsom Main Road", "Airport Road", "Muktinath Road", "Buspark Road", "Hospital Road", "Bazar Road", "Mustang Road", "Kaligandaki Road", "Annapurna Road", "Trekking Road", "Lodge Road", "Heritage Road", "Bank Road", "Museum Road", "Monastery Road", "Mountain View Road", "River Road", "Garden Road", "Panorama Road", "Marpha Road", "Kagbeni Road", "Lubra Road", "Tukuche Road", "Dhaulagiri Road", "Wind Road"],
    "Lukla": ["Lukla Main Road", "Airport Road", "Trekking Road", "Everest Road", "Lodge Road", "Bazar Road", "Hospital Road", "Khumbu Road", "Sagarmatha Road", "Monastery Road", "Sherpa Road", "Mountain View Road", "Heritage Road", "Market Road", "Namche Road", "Phakding Road", "Chaurikharka Road", "Bank Road", "Camp Road", "Hillary Road", "Tenzing Road", "Base Camp Road", "Panorama Road", "River Road", "Garden Road"],
    "Manang": ["Manang Main Road", "Trekking Road", "Circuit Road", "Lodge Road", "Bazar Road", "Hospital Road", "Monastery Road", "Heritage Road", "Bank Road", "Mountain View Road", "Annapurna Road", "Marsyangdi Road", "Lake Road", "Ice Lake Road", "Gangapurna Road", "Tilicho Road", "Braga Road", "Pisang Road", "Chame Road", "Panorama Road", "Garden Road", "Camp Road", "Prayer Flag Road", "Valley Road", "Pass Road"],
    "Darchula": ["Darchula Main Road", "Buspark Road", "Campus Road", "Hospital Road", "Bazar Road", "Baitadi Road", "Mahakali Road", "Industrial Road", "Ring Road", "Bank Road", "Stadium Road", "Heritage Road", "Temple Road", "Airport Road", "Garden Road", "Library Road", "Museum Road", "River Road", "Mountain Road", "Border Road", "Api Road", "Khalanga Road", "Ghusa Road", "Trekking Road", "View Road"],
    "Dolpo": ["Dolpo Main Road", "Dunai Road", "Buspark Road", "Hospital Road", "Bazar Road", "Juphal Road", "Airport Road", "Heritage Road", "Lake Road", "Phoksundo Road", "Monastery Road", "Trekking Road", "Mountain View Road", "Bank Road", "Camp Road", "Karnali Road", "Jumla Road", "Shey Road", "Crystal Road", "Ring Road", "Valley Road", "River Road", "Pass Road", "Garden Road", "View Road"],
    "Humla": ["Humla Main Road", "Simikot Road", "Airport Road", "Hospital Road", "Bazar Road", "Karnali Road", "Border Road", "Heritage Road", "Monastery Road", "Trekking Road", "Mountain View Road", "Bank Road", "Camp Road", "Jumla Road", "Lake Road", "Mugu Road", "Tibet Road", "Pass Road", "Valley Road", "River Road", "Temple Road", "Ring Road", "Garden Road", "Library Road", "View Road"],
    "Solukhumbu": ["Solukhumbu Main Road", "Salleri Road", "Buspark Road", "Hospital Road", "Bazar Road", "Namche Road", "Lukla Road", "Everest Road", "Heritage Road", "Monastery Road", "Trekking Road", "Bank Road", "Campus Road", "Ring Road", "Phaplu Road", "Junbesi Road", "Nuntala Road", "Kharikhola Road", "Sagarmatha Road", "Mountain View Road", "Sherpa Road", "River Road", "Garden Road", "Museum Road", "Valley Road"],
    "Mustang": ["Mustang Main Road", "Lo Manthang Road", "Jomsom Road", "Heritage Road", "Monastery Road", "Trekking Road", "Mountain View Road", "Bank Road", "Hospital Road", "Bazar Road", "Kagbeni Road", "Marpha Road", "Muktinath Road", "Palace Road", "Cave Road", "Kaligandaki Road", "Annapurna Road", "Pass Road", "Valley Road", "River Road", "Garden Road", "Museum Road", "Wind Road", "Camp Road", "View Road"],
    "Bajura": ["Bajura Main Road", "Martadi Road", "Buspark Road", "Hospital Road", "Bazar Road", "Bajhang Road", "Seti Road", "Heritage Road", "Temple Road", "Bank Road", "Campus Road", "Ring Road", "Stadium Road", "Airport Road", "Mountain Road", "River Road", "Garden Road", "Library Road", "Museum Road", "Industrial Road", "Hatiya Road", "Trekking Road", "Valley Road", "Pass Road", "View Road"],
    "Mugu": ["Mugu Main Road", "Gamgadhi Road", "Airport Road", "Hospital Road", "Bazar Road", "Karnali Road", "Rara Road", "Heritage Road", "Lake Road", "Trekking Road", "Mountain View Road", "Bank Road", "Ring Road", "Jumla Road", "Dolpo Road", "Humla Road", "Temple Road", "River Road", "Valley Road", "Pass Road", "Garden Road", "Camp Road", "Library Road", "Museum Road", "View Road"],
    "Bajhang": ["Bajhang Main Road", "Chainpur Road", "Buspark Road", "Hospital Road", "Bazar Road", "Bajura Road", "Seti Road", "Heritage Road", "Temple Road", "Bank Road", "Campus Road", "Ring Road", "Stadium Road", "Airport Road", "Mountain Road", "River Road", "Garden Road", "Library Road", "Museum Road", "Industrial Road", "Hatiya Road", "Trekking Road", "Valley Road", "Pass Road", "View Road"],
    "Kalikot": ["Kalikot Main Road", "Manma Road", "Buspark Road", "Hospital Road", "Bazar Road", "Karnali Road", "Jumla Road", "Heritage Road", "Temple Road", "Bank Road", "Campus Road", "Ring Road", "Stadium Road", "Airport Road", "Mountain Road", "River Road", "Dailekh Road", "Surkhet Road", "Garden Road", "Library Road", "Industrial Road", "Hatiya Road", "Valley Road", "Pass Road", "View Road"],
    "Phidim": ["Phidim Main Road", "Buspark Road", "Campus Road", "Hospital Road", "Bazar Road", "Panchthar Road", "Ilam Road", "Taplejung Road", "Heritage Road", "Temple Road", "Bank Road", "Ring Road", "Stadium Road", "Mountain Road", "River Road", "Garden Road", "Library Road", "Tea Garden Road", "Kanchenjunga Road", "Mechi Road", "Valley Road", "Hatiya Road", "Industrial Road", "Airport Road", "View Road"],
    "Okhaldhunga": ["Okhaldhunga Main Road", "Buspark Road", "Campus Road", "Hospital Road", "Bazar Road", "Solukhumbu Road", "Khotang Road", "Heritage Road", "Temple Road", "Bank Road", "Ring Road", "Stadium Road", "Mountain Road", "River Road", "Garden Road", "Library Road", "Rumjatar Road", "Airport Road", "Sagarmatha Road", "Everest Road", "Valley Road", "Hatiya Road", "Industrial Road", "Trekking Road", "View Road"],
    "Sankhuwasabha": ["Sankhuwasabha Main Road", "Khandbari Road", "Buspark Road", "Campus Road", "Hospital Road", "Bazar Road", "Chainpur Road", "Tumlingtar Road", "Heritage Road", "Temple Road", "Bank Road", "Ring Road", "Stadium Road", "Airport Road", "Mountain Road", "River Road", "Arun Road", "Makalu Road", "Garden Road", "Library Road", "Trekking Road", "Valley Road", "Hatiya Road", "Industrial Road", "View Road"],
    "Dolakha": ["Dolakha Main Road", "Charikot Road", "Buspark Road", "Campus Road", "Hospital Road", "Bazar Road", "Ramechhap Road", "Sindhupalchok Road", "Heritage Road", "Temple Road", "Bank Road", "Ring Road", "Stadium Road", "Tamakoshi Road", "Mountain Road", "River Road", "Jiri Road", "Gaurishankar Road", "Garden Road", "Library Road", "Rolwaling Road", "Valley Road", "Hatiya Road", "Industrial Road", "View Road"],
    "Rukum": ["Rukum Main Road", "Musikot Road", "Buspark Road", "Campus Road", "Hospital Road", "Bazar Road", "Rolpa Road", "Salyan Road", "Heritage Road", "Temple Road", "Bank Road", "Ring Road", "Stadium Road", "Airport Road", "Mountain Road", "River Road", "Garden Road", "Library Road", "Sisne Road", "Lukumkot Road", "Valley Road", "Hatiya Road", "Industrial Road", "Trekking Road", "View Road"],
    "Rolpa": ["Rolpa Main Road", "Libang Road", "Buspark Road", "Campus Road", "Hospital Road", "Bazar Road", "Rukum Road", "Pyuthan Road", "Heritage Road", "Temple Road", "Bank Road", "Ring Road", "Stadium Road", "Mountain Road", "River Road", "Garden Road", "Library Road", "Liwang Road", "Rapti Road", "Thawang Road", "Valley Road", "Hatiya Road", "Industrial Road", "Trekking Road", "View Road"],
    "Pyuthan": ["Pyuthan Main Road", "Khalanga Road", "Buspark Road", "Campus Road", "Hospital Road", "Bazar Road", "Rolpa Road", "Dang Road", "Heritage Road", "Temple Road", "Bank Road", "Ring Road", "Stadium Road", "Mountain Road", "River Road", "Garden Road", "Library Road", "Bijuwar Road", "Swargadwari Road", "Jhimruk Road", "Valley Road", "Hatiya Road", "Industrial Road", "Trekking Road", "View Road"]
  },
  "postcode_format": "#####",
  "address_formats": [
    "{street}, {city}-{postcode}, {state}",
    "{street}, {city}, {state} {postcode}"
  ],
  "country": "Nepal",
  "country_code": "NP",
  "phone_area_codes": {
    "Kathmandu": ["1"],
    "Pokhara": ["61"],
    "Lalitpur": ["1"],
    "Biratnagar": ["21"],
    "Bharatpur": ["56"],
    "Birgunj": ["51"],
    "Butwal": ["71"],
    "Dharan": ["25"],
    "Bhaktapur": ["1"],
    "Hetauda": ["57"]
  }
}
