{
  "locations": {
    "very_common": [
      {"city": "Kingston", "state": "Kingston", "state_abbr": "KN", "postcode_prefix": "KGN", "lat_min": 17.97, "lat_max": 18.00, "lon_min": -76.81, "lon_max": -76.77},
      {"city": "New Kingston", "state": "St. Andrew", "state_abbr": "SA", "postcode_prefix": "KGN", "lat_min": 18.00, "lat_max": 18.02, "lon_min": -76.80, "lon_max": -76.78},
      {"city": "Half Way Tree", "state": "St. Andrew", "state_abbr": "SA", "postcode_prefix": "KGN", "lat_min": 18.01, "lat_max": 18.02, "lon_min": -76.79, "lon_max": -76.78},
      {"city": "Spanish Town", "state": "St. Catherine", "state_abbr": "SC", "postcode_prefix": "SPC", "lat_min": 17.99, "lat_max": 18.01, "lon_min": -76.96, "lon_max": -76.94},
      {"city": "Montego Bay", "state": "St. James", "state_abbr": "SJ", "postcode_prefix": "MOB", "lat_min": 18.47, "lat_max": 18.49, "lon_min": -77.93, "lon_max": -77.91},
      {"city": "Portmore", "state": "St. Catherine", "state_abbr": "SC", "postcode_prefix": "PRT", "lat_min": 17.94, "lat_max": 17.97, "lon_min": -76.88, "lon_max": -76.86},
      {"city": "Mandeville", "state": "Manchester", "state_abbr": "MN", "postcode_prefix": "MAN", "lat_min": 18.04, "lat_max": 18.05, "lon_min": -77.50, "lon_max": -77.49},
      {"city": "May Pen", "state": "Clarendon", "state_abbr": "CL", "postcode_prefix": "MAP", "lat_min": 17.97, "lat_max": 17.98, "lon_min": -77.24, "lon_max": -77.23},
      {"city": "Ocho Rios", "state": "St. Ann", "state_abbr": "AN", "postcode_prefix": "OCR", "lat_min": 18.40, "lat_max": 18.41, "lon_min": -77.11, "lon_max": -77.10},
      {"city": "Savanna-la-Mar", "state": "Westmoreland", "state_abbr": "WM", "postcode_prefix": "SAV", "lat_min": 18.22, "lat_max": 18.23, "lon_min": -78.13, "lon_max": -78.12}
    ],
    "common": [
      {"city": "Linstead", "state": "St. Catherine", "state_abbr": "SC", "postcode_prefix": "LIN", "lat_min": 18.13, "lat_max": 18.14, "lon_min": -77.03, "lon_max": -77.02},
      {"city": "Old Harbour", "state": "St. Catherine", "state_abbr": "SC", "postcode_prefix": "OHB", "lat_min": 17.94, "lat_max": 17.95, "lon_min": -77.11, "lon_max": -77.10},
      {"city": "Morant Bay", "state": "St. Thomas", "state_abbr": "ST", "postcode_prefix": "MOR", "lat_min": 17.88, "lat_max": 17.89, "lon_min": -76.41, "lon_max": -76.40},
      {"city": "Port Antonio", "state": "Portland", "state_abbr": "PD", "postcode_prefix": "PAN", "lat_min": 18.17, "lat_max": 18.18, "lon_min": -76.45, "lon_max": -76.44},
      {"city": "Falmouth", "state": "Trelawny", "state_abbr": "TR", "postcode_prefix": "FAL", "lat_min": 18.49, "lat_max": 18.50, "lon_min": -77.66, "lon_max": -77.65},
      {"city": "Lucea", "state": "Hanover", "state_abbr": "HN", "postcode_prefix": "LUC", "lat_min": 18.44, "lat_max": 18.45, "lon_min": -78.17, "lon_max": -78.16},
      {"city": "Black River", "state": "St. Elizabeth", "state_abbr": "SE", "postcode_prefix": "BLR", "lat_min": 18.02, "lat_max": 18.03, "lon_min": -77.85, "lon_max": -77.84},
      {"city": "St. Ann's Bay", "state": "St. Ann", "state_abbr": "AN", "postcode_prefix": "SAB", "lat_min": 18.43, "lat_max": 18.44, "lon_min": -77.20, "lon_max": -77.19},
      {"city": "Bull Bay", "state": "St. Andrew", "state_abbr": "SA", "postcode_prefix": "BUL", "lat_min": 17.93, "lat_max": 17.94, "lon_min": -76.69, "lon_max": -76.68},
      {"city": "Negril", "state": "Westmoreland", "state_abbr": "WM", "postcode_prefix": "NEG", "lat_min": 18.27, "lat_max": 18.28, "lon_min": -78.35, "lon_max": -78.34},
      {"city": "Christiana", "state": "Manchester", "state_abbr": "MN", "postcode_prefix": "CHR", "lat_min": 18.18, "lat_max": 18.19, "lon_min": -77.49, "lon_max": -77.48},
      {"city": "Chapelton", "state": "Clarendon", "state_abbr": "CL", "postcode_prefix": "CHP", "lat_min": 18.07, "lat_max": 18.08, "lon_min": -77.27, "lon_max": -77.26},
      {"city": "Port Maria", "state": "St. Mary", "state_abbr": "SM", "postcode_prefix": "PMR", "lat_min": 18.37, "lat_max": 18.38, "lon_min": -76.89, "lon_max": -76.88},
      {"city": "Brown's Town", "state": "St. Ann", "state_abbr": "AN", "postcode_prefix": "BRT", "lat_min": 18.40, "lat_max": 18.41, "lon_min": -77.29, "lon_max": -77.28},
      {"city": "Bog Walk", "state": "St. Catherine", "state_abbr": "SC", "postcode_prefix": "BOG", "lat_min": 18.10, "lat_max": 18.11, "lon_min": -76.99, "lon_max": -76.98},
      {"city": "Runaway Bay", "state": "St. Ann", "state_abbr": "AN", "postcode_prefix": "RUB", "lat_min": 18.45, "lat_max": 18.46, "lon_min": -77.33, "lon_max": -77.32},
      {"city": "Ewarton", "state": "St. Catherine", "state_abbr": "SC", "postcode_prefix": "EWR", "lat_min": 18.18, "lat_max": 18.19, "lon_min": -77.09, "lon_max": -77.08},
      {"city": "Junction", "state": "St. Elizabeth", "state_abbr": "SE", "postcode_prefix": "JCN", "lat_min": 18.00, "lat_max": 18.01, "lon_min": -77.61, "lon_max": -77.60},
      {"city": "Santa Cruz", "state": "St. Elizabeth", "state_abbr": "SE", "postcode_prefix": "SAC", "lat_min": 18.05, "lat_max": 18.06, "lon_min": -77.73, "lon_max": -77.72},
      {"city": "Lionel Town", "state": "Clarendon", "state_abbr": "CL", "postcode_prefix": "LIT", "lat_min": 17.88, "lat_max": 17.89, "lon_min": -77.21, "lon_max": -77.20}
    ],
    "uncommon": [
      {"city": "Highgate", "state": "St. Mary", "state_abbr": "SM", "postcode_prefix": "HIG", "lat_min": 18.30, "lat_max": 18.31, "lon_min": -76.87, "lon_max": -76.86},
      {"city": "Buff Bay", "state": "Portland", "state_abbr": "PD", "postcode_prefix": "BFB", "lat_min": 18.23, "lat_max": 18.24, "lon_min": -76.67, "lon_max": -76.66},
      {"city": "Duncans", "state": "Trelawny", "state_abbr": "TR", "postcode_prefix": "DUN", "lat_min": 18.47, "lat_max": 18.48, "lon_min": -77.53, "lon_max": -77.52},
      {"city": "Yallahs", "state": "St. Thomas", "state_abbr": "ST", "postcode_prefix": "YAL", "lat_min": 17.88, "lat_max": 17.89, "lon_min": -76.55, "lon_max": -76.54},
      {"city": "Albert Town", "state": "Trelawny", "state_abbr": "TR", "postcode_prefix": "ALT", "lat_min": 18.29, "lat_max": 18.30, "lon_min": -77.57, "lon_max": -77.56},
      {"city": "Annotto Bay", "state": "St. Mary", "state_abbr": "SM", "postcode_prefix": "ANB", "lat_min": 18.27, "lat_max": 18.28, "lon_min": -76.77, "lon_max": -76.76},
      {"city": "Treasure Beach", "state": "St. Elizabeth", "state_abbr": "SE", "postcode_prefix": "TRB", "lat_min": 17.87, "lat_max": 17.88, "lon_min": -77.72, "lon_max": -77.71},
      {"city": "Balaclava", "state": "St. Elizabeth", "state_abbr": "SE", "postcode_prefix": "BAL", "lat_min": 18.14, "lat_max": 18.15, "lon_min": -77.64, "lon_max": -77.63},
      {"city": "Spaldings", "state": "Clarendon", "state_abbr": "CL", "postcode_prefix": "SPL", "lat_min": 18.15, "lat_max": 18.16, "lon_min": -77.37, "lon_max": -77.36},
      {"city": "Frankfield", "state": "Clarendon", "state_abbr": "CL", "postcode_prefix": "FRK", "lat_min": 18.12, "lat_max": 18.13, "lon_min": -77.20, "lon_max": -77.19},
      {"city": "Porus", "state": "Manchester", "state_abbr": "MN", "postcode_prefix": "POR", "lat_min": 18.04, "lat_max": 18.05, "lon_min": -77.41, "lon_max": -77.40},
      {"city": "Richmond", "state": "St. Mary", "state_abbr": "SM", "postcode_prefix": "RCH", "lat_min": 18.31, "lat_max": 18.32, "lon_min": -76.76, "lon_max": -76.75},
      {"city": "Cross Roads", "state": "St. Andrew", "state_abbr": "SA", "postcode_prefix": "CRS", "lat_min": 17.99, "lat_max": 18.00, "lon_min": -76.79, "lon_max": -76.78},
      {"city": "Constant Spring", "state": "St. Andrew", "state_abbr": "SA", "postcode_prefix": "CSP", "lat_min": 18.03, "lat_max": 18.04, "lon_min": -76.79, "lon_max": -76.78},
      {"city": "Hope Bay", "state": "Portland", "state_abbr": "PD", "postcode_prefix": "HPB", "lat_min": 18.18, "lat_max": 18.19, "lon_min": -76.55, "lon_max": -76.54},
      {"city": "Cambridge", "state": "St. James", "state_abbr": "SJ", "postcode_prefix": "CAM", "lat_min": 18.33, "lat_max": 18.34, "lon_min": -77.90, "lon_max": -77.89},
      {"city": "Kellits", "state": "Clarendon", "state_abbr": "CL", "postcode_prefix": "KEL", "lat_min": 18.15, "lat_max": 18.16, "lon_min": -77.09, "lon_max": -77.08},
      {"city": "Gayle", "state": "St. Mary", "state_abbr": "SM", "postcode_prefix": "GAY", "lat_min": 18.35, "lat_max": 18.36, "lon_min": -76.98, "lon_max": -76.97},
      {"city": "Green Island", "state": "Hanover", "state_abbr": "HN", "postcode_prefix": "GRI", "lat_min": 18.40, "lat_max": 18.41, "lon_min": -78.29, "lon_max": -78.28},
      {"city": "Sandy Bay", "state": "Hanover", "state_abbr": "HN", "postcode_prefix": "SDB", "lat_min": 18.43, "lat_max": 18.44, "lon_min": -78.21, "lon_max": -78.20}
    ],
    "rare": [
      {"city": "Accompong", "state": "St. Elizabeth", "state_abbr": "SE", "postcode_prefix": "ACC", "lat_min": 18.20, "lat_max": 18.21, "lon_min": -77.76, "lon_max": -77.75},
      {"city": "Bath", "state": "St. Thomas", "state_abbr": "ST", "postcode_prefix": "BAT", "lat_min": 17.97, "lat_max": 17.98, "lon_min": -76.37, "lon_max": -76.36},
      {"city": "Bluefields", "state": "Westmoreland", "state_abbr": "WM", "postcode_prefix": "BLF", "lat_min": 18.17, "lat_max": 18.18, "lon_min": -78.04, "lon_max": -78.03},
      {"city": "Content", "state": "Clarendon", "state_abbr": "CL", "postcode_prefix": "CON", "lat_min": 18.09, "lat_max": 18.10, "lon_min": -77.31, "lon_max": -77.30},
      {"city": "Alligator Pond", "state": "Manchester", "state_abbr": "MN", "postcode_prefix": "ALP", "lat_min": 17.87, "lat_max": 17.88, "lon_min": -77.57, "lon_max": -77.56},
      {"city": "Golden Grove", "state": "St. Thomas", "state_abbr": "ST", "postcode_prefix": "GGR", "lat_min": 17.93, "lat_max": 17.94, "lon_min": -76.35, "lon_max": -76.34},
      {"city": "Mavis Bank", "state": "St. Andrew", "state_abbr": "SA", "postcode_prefix": "MVB", "lat_min": 18.06, "lat_max": 18.07, "lon_min": -76.64, "lon_max": -76.63},
      {"city": "Port Royal", "state": "Kingston", "state_abbr": "KN", "postcode_prefix": "PRL", "lat_min": 17.94, "lat_max": 17.95, "lon_min": -76.84, "lon_max": -76.83},
      {"city": "Moore Town", "state": "Portland", "state_abbr": "PD", "postcode_prefix": "MOT", "lat_min": 18.14, "lat_max": 18.15, "lon_min": -76.44, "lon_max": -76.43},
      {"city": "Long Bay", "state": "Portland", "state_abbr": "PD", "postcode_prefix": "LGB", "lat_min": 18.11, "lat_max": 18.12, "lon_min": -76.30, "lon_max": -76.29},
      {"city": "Cascade", "state": "Hanover", "state_abbr": "HN", "postcode_prefix": "CSD", "lat_min": 18.37, "lat_max": 18.38, "lon_min": -78.28, "lon_max": -78.27},
      {"city": "Wait-a-Bit", "state": "Trelawny", "state_abbr": "TR", "postcode_prefix": "WAB", "lat_min": 18.29, "lat_max": 18.30, "lon_min": -77.62, "lon_max": -77.61},
      {"city": "Rock River", "state": "Clarendon", "state_abbr": "CL", "postcode_prefix": "ROC", "lat_min": 18.07, "lat_max": 18.08, "lon_min": -77.34, "lon_max": -77.33},
      {"city": "Seaford Town", "state": "Westmoreland", "state_abbr": "WM", "postcode_prefix": "SFT", "lat_min": 18.20, "lat_max": 18.21, "lon_min": -77.97, "lon_max": -77.96},
      {"city": "Nine Miles", "state": "St. Ann", "state_abbr": "AN", "postcode_prefix": "NIM", "lat_min": 18.34, "lat_max": 18.35, "lon_min": -77.35, "lon_max": -77.34},
      {"city": "Discovery Bay", "state": "St. Ann", "state_abbr": "AN", "postcode_prefix": "DSC", "lat_min": 18.46, "lat_max": 18.47, "lon_min": -77.40, "lon_max": -77.39},
      {"city": "Mile Gully", "state": "Manchester", "state_abbr": "MN", "postcode_prefix": "MLG", "lat_min": 18.10, "lat_max": 18.11, "lon_min": -77.55, "lon_max": -77.54},
      {"city": "Whitehouse", "state": "Westmoreland", "state_abbr": "WM", "postcode_prefix": "WHT", "lat_min": 18.15, "lat_max": 18.16, "lon_min": -78.07, "lon_max": -78.06},
      {"city": "Malvern", "state": "St. Elizabeth", "state_abbr": "SE", "postcode_prefix": "MAL", "lat_min": 18.09, "lat_max": 18.10, "lon_min": -77.77, "lon_max": -77.76},
      {"city": "Stony Hill", "state": "St. Andrew", "state_abbr": "SA", "postcode_prefix": "STH", "lat_min": 18.06, "lat_max": 18.07, "lon_min": -76.76, "lon_max": -76.75}
    ]
  },
  "streets_by_city": {
    "Kingston": ["King Street", "Duke Street", "Orange Street", "East Street", "Tower Street", "Harbour Street", "Port Royal Street", "Barry Street", "Princess Street", "Church Street", "Beeston Street", "West Street", "North Street", "South Street", "Spanish Town Road", "Windward Road", "Mountain View Avenue", "Slipe Road", "Maxfield Avenue", "Waltham Park Road", "Red Hills Road", "Molynes Road", "Hagley Park Road", "Hope Road", "Old Hope Road"],
    "New Kingston": ["Knutsford Boulevard", "Trafalgar Road", "Hope Road", "Waterloo Road", "Oxford Road", "Dominica Drive", "Trinidad Terrace", "Barbados Avenue", "Grenada Way", "Antigua Avenue", "Jamaica Boulevard", "Montego Way", "Portland Place", "Devon Road", "Chelsea Avenue", "Norbrook Road", "Lady Musgrave Road", "Ruthven Road", "Caledonia Avenue", "Braemar Avenue", "Hillcrest Avenue", "St. Lucia Avenue", "Tobago Way", "Lucia Crescent", "Montrose Road"],
    "Half Way Tree": ["Half Way Tree Road", "Constant Spring Road", "Hope Road", "Eastwood Park Road", "Dunrobin Avenue", "Belmont Road", "Burlington Avenue", "Marescaux Road", "Deanery Road", "South Avenue", "West Avenue", "East Kings House Road", "Liguanea Avenue", "Barbican Road", "Olivier Road", "Shortwood Road", "Manor Park Avenue", "Paddington Terrace", "Chelsea Avenue", "Lyndhurst Road", "Hillcrest Avenue", "Waltham Drive", "Forest Hill Drive", "Rugby Road", "Kirkland Close"],
    "Spanish Town": ["Burke Road", "Wellington Street", "Brunswick Street", "White Church Street", "King Street", "Queen Street", "William Street", "Constitution Street", "Young Street", "Monk Street", "Laws Street", "Windsor Avenue", "Barrett Street", "Adelaide Street", "Ellis Street", "Market Street", "French Street", "Church Street", "Oxford Road", "Manchester Avenue", "Railway Walk", "Hospital Road", "Bourkes Road", "Hampton Court Road", "Jobs Lane"],
    "Montego Bay": ["Sam Sharpe Square", "Union Street", "St. James Street", "Church Street", "Market Street", "Howard Cooke Boulevard", "Barnett Street", "Queen's Drive", "Fort Street", "King Street", "Creek Street", "Dome Street", "Harbour Street", "Cornwall Road", "Alice Eldemire Drive", "Gloucester Avenue", "Kent Avenue", "Sunset Boulevard", "Rose Hall Road", "Ironshore Drive", "Half Moon Road", "Bayshore Road", "Marine Parade", "Albion Road", "Orange Street"],
    "Portmore": ["Ruthven Road", "West Trade Way", "Portmore Parkway", "Braeton Drive", "Waterford Drive", "Cumberland Drive", "Gregory Park Road", "Passage Fort Drive", "Newland Road", "Bridgeport Drive", "Independence Boulevard", "Hellshire Road", "Caymanas Drive", "Dyke Road", "Southern Boulevard", "Northern Boulevard", "Eastern Avenue", "Western Avenue", "Central Drive", "Palm Drive", "Sunset Drive", "Marina Crescent", "Harbour View Drive", "Ocean Drive", "Coral Close"],
    "Mandeville": ["Main Street", "Ward Avenue", "Manchester Road", "Caledonia Road", "Perth Road", "Victoria Crescent", "Hargreaves Avenue", "Winston Jones Highway", "Brumalia Road", "Hatfield Road", "Bloomfield Road", "Church Street", "Market Street", "Park Crescent", "North Racecourse Road", "South Racecourse Road", "George's Valley Road", "Greenvale Road", "Villa Road", "New Green Road", "Ingleside Road", "Kirkvine Road", "Royal Flat Road", "Old England Road", "Grove Road"],
    "May Pen": ["Main Street", "Frankfield Road", "Manchester Avenue", "Toll Gate Road", "Hayes Road", "Denbigh Road", "Race Course Road", "Palmer's Cross Road", "Longville Park Road", "Church Street", "Market Street", "Victoria Avenue", "Portland Avenue", "Paisley Avenue", "Clarendon Park Road", "Sevens Road", "Thompson Town Road", "Osborne Store Road", "Water Lane", "Milk River Road", "Salt River Road", "Hill Side Road", "Valley Road", "West End Road", "East End Road"],
    "Ocho Rios": ["Main Street", "DaCosta Drive", "Milford Road", "Beach Road", "James Avenue", "Turtle Beach Road", "Shaw Park Road", "Tower Isle Road", "Mammee Bay Road", "Eden Bower Road", "Hermitage Road", "Fern Gully Road", "Coconut Grove Drive", "Market Street", "Church Street", "Marina Drive", "Bay View Avenue", "Ocean Drive", "Sunset Drive", "Palm Drive", "Coral Close", "Mountain View Road", "Harbour Street", "River Road", "Paradise Drive"],
    "Savanna-la-Mar": ["Great George Street", "Main Street", "Barracks Road", "Fort Street", "Church Street", "Market Street", "Beckford Street", "Darling Street", "Watson Taylor Drive", "Llandilo Road", "Petersfield Road", "Ferris Cross Road", "George's Plain Road", "Rose Hill Road", "Bluefields Road", "Ramble Road", "Seaside Drive", "Harbour Avenue", "Bridge Street", "King Street", "Queen Street", "Union Street", "Riverside Drive", "Garden Street", "Victoria Avenue"],
    "Linstead": ["King Street", "Church Street", "Market Street", "Brunswick Avenue", "Railway Lane", "Victoria Avenue", "Gordon Road", "Kellits Road", "Ewarton Road", "Bog Walk Road", "Cross Roads", "Water Lane", "Back Road", "Hill Road", "East Street", "West Street", "Main Street", "Bybrook Road", "Troja Road", "Green Bottom Road", "Spring Garden Road", "Factory Road", "Parade Lane", "Orange Lane", "Mango Walk"],
    "Old Harbour": ["Main Street", "Church Street", "Market Street", "East Street", "West Street", "South Street", "North Street", "Bridge Street", "Victoria Ave", "Back Road", "Factory Road", "Railway Lane", "Banana Walk", "Colbeck Road", "Sandy Bay Road", "Bushy Park Road", "Great Goat Island Road", "Water Lane", "Hill Road", "Bay Road", "Harbour View", "Estate Road", "Garden Lane", "Palm Lane", "Salt River Road"],
    "Morant Bay": ["Queen Street", "Church Street", "South Street", "East Street", "West Street", "Main Street", "Market Street", "Bridge Street", "Retreat Road", "Stony Gut Road", "Bath Road", "Port Morant Road", "Duckenfield Road", "Windward Road", "Lyssons Road", "Prospect Road", "Leith Hall Road", "Golden Grove Road", "White Horses Road", "Seaforth Road", "Richmond Gap", "Grant's Pen Road", "Cemetery Road", "Jail Road", "Bay Road"],
    "Port Antonio": ["West Street", "Harbour Street", "West Palm Avenue", "Allan Avenue", "Bridge Street", "Fort George Street", "Portland Road", "Boundbrook Road", "East Harbour Drive", "Folly Road", "Marina Drive", "Red Hassel Road", "San San Road", "Drapers Road", "Somerset Road", "Musgrave Street", "Church Street", "Market Street", "Queen Street", "King Street", "Orange Street", "East Street", "Navy Island Road", "Bonnie View Road", "Richmond Hill"],
    "Falmouth": ["Market Street", "Duke Street", "Lower Harbour Street", "Cornwall Street", "Seaboard Street", "George Street", "Pitt Street", "Rodney Street", "Tharp Street", "Church Street", "Water Square", "Queen Street", "King Street", "Albert Street", "Fort Dundas Road", "Hague Road", "Martha Brae Road", "Duncans Road", "Rock Road", "Salt Marsh Road", "Main Street", "Bridge Street", "Harbour Drive", "Wharf Street", "East Street"],
    "Lucea": ["Main Street", "Church Street", "Market Street", "Fort Charlotte Road", "Hopewell Road", "Sandy Bay Road", "Green Island Road", "Mosquito Cove Road", "Orange Bay Road", "Bridge Street", "School Road", "Hospital Road", "King Street", "Queen Street", "Water Lane", "Hill Road", "East Street", "West Street", "Bay View Road", "Harbour Drive", "Davis Cove Road", "Retirement Road", "Dias Road", "Hanover Road", "Court House Road"],
    "Black River": ["High Street", "North Street", "Market Street", "Church Street", "Temple Lane", "Crane Road", "School Row", "Bridge Street", "Pedro Plains Road", "Lacovia Road", "Southfield Road", "Middle Quarters Road", "Riverside Drive", "Harbour Street", "East Street", "West Street", "King Street", "Queen Street", "Bay View Road", "Parottee Road", "Holland Road", "Fullersfield Road", "Myersville Road", "Elim Road", "Victoria Avenue"],
    "St. Ann's Bay": ["Main Street", "Bravo Street", "Market Street", "Church Street", "Seville Road", "Fort Haldane Road", "Priory Road", "Drax Hall Road", "Calderwood Road", "Discovery Bay Road", "Bridge Street", "King Street", "Queen Street", "Hospital Road", "School Road", "East Street", "West Street", "Harbour Drive", "Bay View Road", "Richmond Road", "Chesterfield Road", "Content Road", "Moneague Road", "Cedar Valley Road", "Exchange Road"],
    "Bull Bay": ["Bull Bay Main Road", "Seven Mile Road", "Cable Hut Road", "Guinea Corn Road", "Harbour View Road", "East Road", "Beach Road", "Coast Road", "Mountain Road", "Village Road", "Church Road", "School Road", "Market Road", "River Road", "Bridge Road", "Coconut Walk", "Palm Drive", "Sea View Drive", "Sunrise Lane", "Hillside Road", "Valley Road", "Garden Lane", "Pine Close", "Mango Lane", "Banana Walk"],
    "Negril": ["Norman Manley Boulevard", "West End Road", "Sheffield Road", "Bloody Bay Road", "Red Ground Road", "Whitehall Road", "Orange Hill Road", "Beach Road", "Lighthouse Road", "Rick's Cafe Road", "One Love Drive", "Sunrise Drive", "Sunset Drive", "Coral Drive", "Palm Drive", "Coconut Lane", "Reggae Lane", "Seven Mile Beach Road", "Ocean Drive", "Marina Drive", "Paradise Lane", "Tropical Drive", "Island Drive", "Seaside Road", "Beach Walk"],
    "Christiana": ["Main Street", "Market Street", "Church Street", "Coleyville Road", "Albert Town Road", "Spaldings Road", "Devon Road", "Bethany Road", "School Road", "Hospital Road", "East Street", "West Street", "King Street", "Queen Street", "Bridge Street", "Hill Road", "Valley Road", "Garden Lane", "Victoria Avenue", "Manchester Road", "Goshen Road", "Craig Head Road", "Grantham Road", "Retirement Road", "Walk Good Lane"],
    "Chapelton": ["Main Street", "Market Street", "Church Street", "Frankfield Road", "May Pen Road", "Trout Hall Road", "Rock River Road", "School Road", "Hospital Road", "East Street", "West Street", "Back Road", "Bridge Street", "Hill Road", "Valley Road", "Victoria Avenue", "King Street", "Queen Street", "Garden Lane", "Plantation Road", "Racing Road", "Estate Road", "Factory Road", "River Road", "Mountain View"],
    "Port Maria": ["Main Street", "Market Street", "Church Street", "Pagee Road", "Trinity Road", "Highgate Road", "Annotto Bay Road", "Fort Haldane Road", "School Road", "Hospital Road", "East Street", "West Street", "Harbour Street", "King Street", "Queen Street", "Bridge Street", "Bay View Road", "Hill Road", "Valley Road", "Garden Lane", "Back Road", "Seaside Drive", "Plantation Road", "Estate Road", "River Road"],
    "Brown's Town": ["Main Street", "Market Street", "Church Street", "Moneague Road", "Discovery Bay Road", "Retreat Road", "School Road", "Hospital Road", "East Street", "West Street", "King Street", "Queen Street", "Bridge Street", "Hill Road", "Valley Road", "Garden Lane", "Back Road", "Victoria Avenue", "Plantation Road", "Estate Road", "Spring Road", "River Road", "Mountain View", "Farm Road", "Cedar Close"],
    "Bog Walk": ["Main Street", "Market Street", "Church Street", "Spanish Town Road", "Linstead Road", "Flat Bridge Road", "School Road", "Back Road", "East Street", "West Street", "Bridge Street", "River Road", "Valley Road", "Hill Road", "Factory Road", "Railway Lane", "Gorge Road", "King Street", "Queen Street", "Garden Lane", "Plantation Road", "Estate Road", "Spring Lane", "Water Lane", "Mountain View"],
    "Runaway Bay": ["Main Street", "Cardiff Hall Road", "Runaway Bay Drive", "Salem Road", "Discovery Bay Road", "School Road", "Church Road", "Market Road", "Beach Road", "Golf Course Road", "Harbour View", "Resort Drive", "Bay View Road", "Coral Drive", "Palm Drive", "Coconut Lane", "Ocean Drive", "Marina Drive", "Sunset Drive", "Hill Road", "Valley Road", "Garden Lane", "East Road", "West Road", "Bridge Road"],
    "Ewarton": ["Main Street", "Market Street", "Church Street", "Charlemont Road", "Linstead Road", "St. Catherine Road", "School Road", "Hospital Road", "Back Road", "East Street", "West Street", "Bridge Street", "Hill Road", "Valley Road", "Factory Road", "Railway Lane", "King Street", "Queen Street", "Garden Lane", "Plantation Road", "Estate Road", "River Road", "Mountain View", "Water Lane", "Spring Road"],
    "Junction": ["Main Street", "Market Street", "Church Street", "Lacovia Road", "Malvern Road", "Spur Tree Road", "School Road", "Back Road", "East Street", "West Street", "Bridge Street", "Hill Road", "Valley Road", "Garden Lane", "King Street", "Queen Street", "Plantation Road", "Estate Road", "River Road", "Mountain View", "Water Lane", "Spring Road", "Farm Road", "Cedar Close", "Victoria Avenue"],
    "Santa Cruz": ["Main Street", "Market Street", "Church Street", "Lacovia Road", "Junction Road", "Malvern Road", "School Road", "Hospital Road", "East Street", "West Street", "Back Road", "Bridge Street", "Hill Road", "Valley Road", "King Street", "Queen Street", "Garden Lane", "Plantation Road", "Estate Road", "River Road", "Mountain View", "Water Lane", "Victoria Avenue", "Manchester Road", "Farm Road"],
    "Lionel Town": ["Main Street", "Market Street", "Church Street", "May Pen Road", "Vere Road", "School Road", "Back Road", "East Street", "West Street", "Bridge Street", "Hill Road", "Valley Road", "King Street", "Queen Street", "Garden Lane", "Plantation Road", "Estate Road", "River Road", "Factory Road", "Water Lane", "Victoria Avenue", "Spring Road", "Farm Road", "Mountain View", "Salt River Road"],
    "Highgate": ["Main Street", "Market Street", "Church Street", "Port Maria Road", "Richmond Road", "School Road", "Back Road", "East Street", "West Street", "Bridge Street", "Hill Road", "Valley Road", "King Street", "Queen Street", "Garden Lane", "Estate Road", "River Road", "Mountain View", "Water Lane", "Spring Road", "Farm Road", "Plantation Road", "Victoria Avenue", "Cedar Close", "Manor Road"],
    "Buff Bay": ["Main Street", "Market Street", "Church Street", "Port Antonio Road", "Annotto Bay Road", "School Road", "Back Road", "East Street", "West Street", "Bridge Street", "Hill Road", "Valley Road", "Beach Road", "King Street", "Queen Street", "Garden Lane", "River Road", "Mountain View", "Water Lane", "Spring Road", "Farm Road", "Estate Road", "Bay View Road", "Cocoa Walk", "Banana Walk"],
    "Duncans": ["Main Street", "Market Street", "Church Street", "Falmouth Road", "Rio Bueno Road", "School Road", "Back Road", "East Street", "West Street", "Bridge Street", "Hill Road", "Valley Road", "King Street", "Queen Street", "Garden Lane", "Estate Road", "Plantation Road", "River Road", "Farm Road", "Mountain View", "Water Lane", "Spring Road", "Victoria Avenue", "Cedar Close", "Harbour Road"],
    "Yallahs": ["Main Street", "Market Street", "Church Street", "Morant Bay Road", "Bull Bay Road", "School Road", "Back Road", "East Street", "West Street", "Bridge Street", "Hill Road", "Valley Road", "Beach Road", "River Road", "King Street", "Queen Street", "Garden Lane", "Mountain View", "Water Lane", "Cedar Close", "Farm Road", "Estate Road", "Bay View Road", "Spring Road", "Windward Road"],
    "Albert Town": ["Main Street", "Market Street", "Church Street", "Christiana Road", "Duncans Road", "School Road", "Back Road", "East Street", "West Street", "Hill Road", "Valley Road", "Bridge Street", "King Street", "Queen Street", "Garden Lane", "Farm Road", "Estate Road", "River Road", "Mountain View", "Water Lane", "Spring Road", "Victoria Avenue", "Cedar Close", "Plantation Road", "Grove Road"],
    "Annotto Bay": ["Main Street", "Market Street", "Church Street", "Port Maria Road", "Buff Bay Road", "School Road", "Back Road", "East Street", "West Street", "Bridge Street", "Hill Road", "Valley Road", "Beach Road", "River Road", "King Street", "Queen Street", "Garden Lane", "Mountain View", "Water Lane", "Spring Road", "Farm Road", "Estate Road", "Bay View Road", "Harbour Street", "Banana Walk"],
    "Treasure Beach": ["Great Bay Road", "Calabash Bay Road", "Frenchman's Bay Road", "Billy's Bay Road", "Jack Sprat Road", "Beach Road", "Main Road", "Church Road", "School Road", "Farm Road", "Hill Road", "Valley Road", "Sea View Drive", "Sunset Lane", "Coral Drive", "Palm Drive", "Fishermen's Lane", "Pedro Road", "Estate Road", "Garden Lane", "Spring Road", "River Road", "Mountain View", "Cedar Close", "Seaside Lane"],
    "Balaclava": ["Main Street", "Market Street", "Church Street", "Black River Road", "Appleton Road", "School Road", "Back Road", "East Street", "West Street", "Bridge Street", "Hill Road", "Valley Road", "King Street", "Queen Street", "Garden Lane", "Farm Road", "Estate Road", "River Road", "Mountain View", "Water Lane", "Spring Road", "Victoria Avenue", "Plantation Road", "Cedar Close", "Manor Road"],
    "Spaldings": ["Main Street", "Market Street", "Church Street", "Christiana Road", "Chapelton Road", "School Road", "Back Road", "East Street", "West Street", "Bridge Street", "Hill Road", "Valley Road", "King Street", "Queen Street", "Garden Lane", "Farm Road", "Estate Road", "River Road", "Mountain View", "Water Lane", "Spring Road", "Victoria Avenue", "Cedar Close", "Plantation Road", "Grove Road"],
    "Frankfield": ["Main Street", "Market Street", "Church Street", "Chapelton Road", "Kellits Road", "School Road", "Back Road", "East Street", "West Street", "Bridge Street", "Hill Road", "Valley Road", "King Street", "Queen Street", "Garden Lane", "Farm Road", "Estate Road", "River Road", "Mountain View", "Water Lane", "Spring Road", "Victoria Avenue", "Cedar Close", "Plantation Road", "Grove Road"],
    "Porus": ["Main Street", "Market Street", "Church Street", "Mandeville Road", "Williamsfield Road", "School Road", "Back Road", "East Street", "West Street", "Bridge Street", "Hill Road", "Valley Road", "King Street", "Queen Street", "Garden Lane", "Farm Road", "Estate Road", "River Road", "Mountain View", "Water Lane", "Spring Road", "Victoria Avenue", "Cedar Close", "Plantation Road", "Factory Road"],
    "Richmond": ["Main Street", "Market Street", "Church Street", "Port Maria Road", "Highgate Road", "School Road", "Back Road", "East Street", "West Street", "Bridge Street", "Hill Road", "Valley Road", "King Street", "Queen Street", "Garden Lane", "Farm Road", "Estate Road", "River Road", "Mountain View", "Water Lane", "Spring Road", "Victoria Avenue", "Cedar Close", "Plantation Road", "Grove Road"],
    "Cross Roads": ["Slipe Road", "Maxfield Avenue", "South Camp Road", "Mountain View Avenue", "Windward Road", "East Street", "Church Street", "Market Lane", "Rose Lane", "King Street", "Back Road", "Bridge Street", "Hill Road", "Valley Road", "Queen Street", "Garden Lane", "Farm Road", "Estate Road", "River Road", "Mountain View", "Water Lane", "Factory Road", "Victoria Avenue", "Cedar Close", "Main Street"],
    "Constant Spring": ["Constant Spring Road", "Manor Park Boulevard", "Barbican Road", "Stony Hill Road", "Red Hills Road", "Shortwood Road", "Church Road", "School Lane", "Arcadia Road", "Jack's Hill Road", "Cherry Garden Avenue", "Norbrook Drive", "Golden Spring Road", "Mountain View", "Valley Road", "East Avenue", "West Avenue", "Hill Road", "Bridge Street", "Garden Lane", "Farm Road", "Estate Road", "River Road", "Cedar Close", "Spring Lane"],
    "Hope Bay": ["Main Street", "Market Street", "Church Street", "Port Antonio Road", "Buff Bay Road", "School Road", "Back Road", "East Street", "West Street", "Bridge Street", "Hill Road", "Valley Road", "Beach Road", "River Road", "King Street", "Queen Street", "Garden Lane", "Mountain View", "Water Lane", "Spring Road", "Farm Road", "Estate Road", "Bay View Road", "Harbour Road", "Coconut Walk"],
    "Cambridge": ["Main Street", "Market Street", "Church Street", "Montego Bay Road", "Shettlewood Road", "School Road", "Back Road", "East Street", "West Street", "Bridge Street", "Hill Road", "Valley Road", "King Street", "Queen Street", "Garden Lane", "Farm Road", "Estate Road", "River Road", "Mountain View", "Water Lane", "Spring Road", "Victoria Avenue", "Plantation Road", "Cedar Close", "Grove Road"],
    "Kellits": ["Main Street", "Market Street", "Church Street", "Frankfield Road", "Spaldings Road", "School Road", "Back Road", "East Street", "West Street", "Bridge Street", "Hill Road", "Valley Road", "King Street", "Queen Street", "Garden Lane", "Farm Road", "Estate Road", "River Road", "Mountain View", "Water Lane", "Spring Road", "Victoria Avenue", "Cedar Close", "Plantation Road", "Grove Road"],
    "Gayle": ["Main Street", "Market Street", "Church Street", "Port Maria Road", "Ocho Rios Road", "School Road", "Back Road", "East Street", "West Street", "Bridge Street", "Hill Road", "Valley Road", "King Street", "Queen Street", "Garden Lane", "Farm Road", "Estate Road", "River Road", "Mountain View", "Water Lane", "Spring Road", "Victoria Avenue", "Cedar Close", "Bay View Road", "Seaside Lane"],
    "Green Island": ["Main Street", "Market Street", "Church Street", "Lucea Road", "Negril Road", "School Road", "Back Road", "East Street", "West Street", "Bridge Street", "Hill Road", "Valley Road", "Beach Road", "King Street", "Queen Street", "Garden Lane", "Farm Road", "Estate Road", "River Road", "Mountain View", "Water Lane", "Spring Road", "Bay View Road", "Harbour Road", "Seaside Lane"],
    "Sandy Bay": ["Main Street", "Market Street", "Church Street", "Lucea Road", "Montego Bay Road", "School Road", "Back Road", "East Street", "West Street", "Bridge Street", "Hill Road", "Valley Road", "Beach Road", "King Street", "Queen Street", "Garden Lane", "Farm Road", "Estate Road", "River Road", "Mountain View", "Water Lane", "Spring Road", "Bay View Road", "Harbour Road", "Seaside Lane"],
    "Accompong": ["Main Street", "Maroon Road", "Church Street", "School Road", "Market Road", "Community Road", "Heritage Road", "Peace Trail", "Festival Lane", "Mountain Path", "Valley Road", "Hill Road", "Plantation Road", "Estate Road", "Farm Road", "Water Lane", "Spring Road", "Cedar Close", "Garden Lane", "Cultural Lane", "Back Road", "East Street", "West Street", "Bridge Street", "Freedom Road"],
    "Bath": ["Main Street", "Market Street", "Church Street", "Hot Springs Road", "School Road", "Hospital Road", "East Street", "West Street", "Bridge Street", "Hill Road", "Valley Road", "River Road", "Garden Lane", "Spring Lane", "King Street", "Queen Street", "Back Road", "Estate Road", "Farm Road", "Mountain View", "Water Lane", "Plantation Road", "Cedar Close", "Victoria Avenue", "Bath Road"],
    "Bluefields": ["Main Street", "Beach Road", "Church Street", "School Road", "Market Road", "Belmont Road", "Peter Tosh Lane", "Fishermen's Lane", "Seaside Drive", "Hill Road", "Valley Road", "Bridge Street", "Garden Lane", "Farm Road", "Estate Road", "River Road", "Mountain View", "Water Lane", "Spring Road", "Cedar Close", "Plantation Road", "Bay View Road", "Harbour Road", "Coastal Road", "Mangrove Lane"],
    "Content": ["Main Street", "Market Street", "Church Street", "School Road", "Back Road", "East Street", "West Street", "Bridge Street", "Hill Road", "Valley Road", "King Street", "Queen Street", "Garden Lane", "Farm Road", "Estate Road", "River Road", "Mountain View", "Water Lane", "Spring Road", "Victoria Avenue", "Cedar Close", "Plantation Road", "Grove Road", "Frankfield Road", "Rock River Road"],
    "Alligator Pond": ["Main Street", "Beach Road", "Church Road", "School Road", "Market Road", "Fishermen's Lane", "Seaside Drive", "Hill Road", "Valley Road", "Bridge Road", "Garden Lane", "Farm Road", "Estate Road", "River Road", "Mountain View", "Water Lane", "Spring Road", "Cedar Close", "Bay View Road", "Coastal Road", "Harbour Lane", "Mangrove Road", "East Road", "West Road", "Back Road"],
    "Golden Grove": ["Main Street", "Market Street", "Church Street", "School Road", "Morant Bay Road", "Back Road", "East Street", "West Street", "Bridge Street", "Hill Road", "Valley Road", "River Road", "Garden Lane", "Farm Road", "Estate Road", "Mountain View", "Water Lane", "Spring Road", "King Street", "Queen Street", "Plantation Road", "Cedar Close", "Victoria Avenue", "Factory Road", "Grove Road"],
    "Mavis Bank": ["Main Street", "Church Street", "School Road", "Blue Mountain Road", "Coffee Trail", "Back Road", "East Street", "West Street", "Hill Road", "Valley Road", "River Road", "Bridge Street", "Garden Lane", "Farm Road", "Estate Road", "Mountain View", "Spring Lane", "Water Lane", "Cedar Close", "Plantation Road", "Peak Road", "Forest Lane", "Nature Trail", "Mist Lane", "Heritage Road"],
    "Port Royal": ["Queen Street", "Church Street", "Fort Charles Road", "Morgan's Lane", "High Street", "Lime Street", "Fisher Lane", "Tower Street", "Fort Street", "Harbour Street", "Wharf Road", "Museum Road", "Naval Road", "Market Lane", "East Street", "West Street", "Bay View Road", "Seaside Drive", "Bridge Street", "King Street", "Garden Lane", "Cannon Lane", "Ship Lane", "Admiralty Road", "Pirate Cove"],
    "Moore Town": ["Main Road", "Maroon Road", "Heritage Trail", "Church Road", "School Road", "Community Road", "River Road", "Mountain Path", "Valley Road", "Hill Road", "Bridge Road", "Garden Lane", "Farm Road", "Spring Lane", "Water Lane", "Forest Road", "Cultural Lane", "Peace Trail", "Freedom Road", "Cedar Close", "Nature Trail", "Back Road", "East Road", "West Road", "Estate Road"],
    "Long Bay": ["Beach Road", "Main Road", "Church Road", "School Road", "Market Road", "Seaside Drive", "Hill Road", "Valley Road", "Bridge Road", "River Road", "Garden Lane", "Farm Road", "Estate Road", "Mountain View", "Water Lane", "Spring Road", "Cedar Close", "Fishermen's Lane", "Bay View Road", "Coastal Road", "Surf Drive", "Coral Lane", "Coconut Walk", "Palm Drive", "East Road"],
    "Cascade": ["Main Road", "Church Road", "School Road", "Market Road", "Seaside Drive", "Hill Road", "Valley Road", "Bridge Road", "River Road", "Garden Lane", "Farm Road", "Estate Road", "Mountain View", "Water Lane", "Spring Road", "Cedar Close", "East Road", "West Road", "Beach Road", "Back Road", "Coconut Walk", "Palm Drive", "Bay View Road", "Plantation Road", "Heritage Lane"],
    "Wait-a-Bit": ["Main Street", "Church Street", "School Road", "Market Road", "Back Road", "Hill Road", "Valley Road", "Bridge Street", "River Road", "Garden Lane", "Farm Road", "Estate Road", "Mountain View", "Water Lane", "Spring Road", "Cedar Close", "East Street", "West Street", "King Street", "Queen Street", "Plantation Road", "Victoria Avenue", "Grove Road", "Heritage Lane", "Nature Trail"],
    "Rock River": ["Main Street", "Church Street", "School Road", "Market Road", "Back Road", "Hill Road", "Valley Road", "Bridge Street", "River Road", "Garden Lane", "Farm Road", "Estate Road", "Mountain View", "Water Lane", "Spring Road", "Cedar Close", "East Street", "West Street", "King Street", "Queen Street", "Chapelton Road", "Frankfield Road", "Plantation Road", "Victoria Avenue", "Grove Road"],
    "Seaford Town": ["Main Street", "Church Street", "School Road", "German Settlement Road", "Market Road", "Back Road", "Hill Road", "Valley Road", "Bridge Street", "River Road", "Garden Lane", "Farm Road", "Estate Road", "Mountain View", "Water Lane", "Spring Road", "Cedar Close", "East Street", "West Street", "Heritage Road", "Cultural Lane", "Plantation Road", "Victoria Avenue", "Settlement Road", "Grove Road"],
    "Nine Miles": ["Main Road", "Bob Marley Road", "Church Road", "School Road", "Market Road", "Heritage Road", "Mountain Road", "Valley Road", "Hill Road", "Farm Road", "River Road", "Garden Lane", "Estate Road", "Bridge Road", "Water Lane", "Spring Road", "Cedar Close", "Back Road", "East Road", "West Road", "Cultural Lane", "Nature Trail", "Peace Lane", "Freedom Road", "Reggae Lane"],
    "Discovery Bay": ["Main Street", "Beach Road", "Church Road", "School Road", "Market Road", "Columbus Drive", "Bay View Road", "Harbour Drive", "Seaside Drive", "Hill Road", "Valley Road", "Bridge Road", "River Road", "Garden Lane", "Farm Road", "Estate Road", "Mountain View", "Spring Road", "Cedar Close", "Coral Drive", "Palm Drive", "Ocean Lane", "Coast Road", "Resort Drive", "Marina Lane"],
    "Mile Gully": ["Main Street", "Church Street", "School Road", "Market Road", "Back Road", "Hill Road", "Valley Road", "Bridge Street", "River Road", "Garden Lane", "Farm Road", "Estate Road", "Mountain View", "Water Lane", "Spring Road", "Cedar Close", "East Street", "West Street", "King Street", "Queen Street", "Plantation Road", "Mandeville Road", "Victoria Avenue", "Grove Road", "Heritage Lane"],
    "Whitehouse": ["Main Street", "Beach Road", "Church Road", "School Road", "Market Road", "Seaside Drive", "Hill Road", "Valley Road", "Bridge Road", "River Road", "Garden Lane", "Farm Road", "Estate Road", "Mountain View", "Water Lane", "Spring Road", "Cedar Close", "East Road", "West Road", "Fishermen's Lane", "Bay View Road", "Coastal Road", "Palm Drive", "Harbour Lane", "Mangrove Road"],
    "Malvern": ["Main Street", "Church Street", "School Road", "Market Road", "Black River Road", "Back Road", "Hill Road", "Valley Road", "Bridge Street", "River Road", "Garden Lane", "Farm Road", "Estate Road", "Mountain View", "Water Lane", "Spring Road", "Cedar Close", "East Street", "West Street", "Spur Tree Road", "Plantation Road", "Victoria Avenue", "King Street", "Queen Street", "Heritage Lane"],
    "Stony Hill": ["Stony Hill Road", "Church Road", "School Road", "Market Road", "Constant Spring Road", "Jack's Hill Road", "Maryland Road", "Gordon Town Road", "Red Hills Road", "Hill Road", "Valley Road", "Bridge Road", "River Road", "Garden Lane", "Farm Road", "Estate Road", "Mountain View", "Spring Lane", "Cedar Close", "Cherry Garden Road", "Pine Road", "Mango Walk", "Water Lane", "Heritage Drive", "Nature Lane"]
  },
  "postcode_format": "??####",
  "address_formats": [
    "{building_number} {street}, {city} {postcode}",
    "{street}, {city}, {state}"
  ],
  "country": "Jamaica",
  "country_code": "JM",
  "phone_area_codes": {
    "Kingston": ["876"],
    "Montego Bay": ["876"],
    "Spanish Town": ["876"],
    "Mandeville": ["876"],
    "May Pen": ["876"],
    "Ocho Rios": ["876"],
    "Port Antonio": ["876"],
    "Falmouth": ["876"],
    "Savanna-la-Mar": ["876"],
    "Negril": ["876"]
  }
}
