{
    "locations": [
        {
            "city": "Tokyo",
            "state": "Tokyo",
            "state_abbr": "Tokyo",
            "postcode_prefix": "100",
            "lat_min": 35.52,
            "lat_max": 35.82,
            "lon_min": 139.56,
            "lon_max": 139.92
        },
        {
            "city": "Shinjuku",
            "state": "Tokyo",
            "state_abbr": "Tokyo",
            "postcode_prefix": "160",
            "lat_min": 35.68,
            "lat_max": 35.72,
            "lon_min": 139.68,
            "lon_max": 139.72
        },
        {
            "city": "Shibuya",
            "state": "Tokyo",
            "state_abbr": "Tokyo",
            "postcode_prefix": "150",
            "lat_min": 35.64,
            "lat_max": 35.68,
            "lon_min": 139.68,
            "lon_max": 139.72
        },
        {
            "city": "Shinagawa",
            "state": "Tokyo",
            "state_abbr": "Tokyo",
            "postcode_prefix": "140",
            "lat_min": 35.6,
            "lat_max": 35.64,
            "lon_min": 139.72,
            "lon_max": 139.76
        },
        {
            "city": "Ikebukuro",
            "state": "Tokyo",
            "state_abbr": "Tokyo",
            "postcode_prefix": "171",
            "lat_min": 35.72,
            "lat_max": 35.75,
            "lon_min": 139.7,
            "lon_max": 139.73
        },
        {
            "city": "Ueno",
            "state": "Tokyo",
            "state_abbr": "Tokyo",
            "postcode_prefix": "110",
            "lat_min": 35.7,
            "lat_max": 35.73,
            "lon_min": 139.77,
            "lon_max": 139.8
        },
        {
            "city": "Ginza",
            "state": "Tokyo",
            "state_abbr": "Tokyo",
            "postcode_prefix": "104",
            "lat_min": 35.66,
            "lat_max": 35.68,
            "lon_min": 139.76,
            "lon_max": 139.78
        },
        {
            "city": "Akihabara",
            "state": "Tokyo",
            "state_abbr": "Tokyo",
            "postcode_prefix": "101",
            "lat_min": 35.69,
            "lat_max": 35.71,
            "lon_min": 139.77,
            "lon_max": 139.79
        },
        {
            "city": "Roppongi",
            "state": "Tokyo",
            "state_abbr": "Tokyo",
            "postcode_prefix": "106",
            "lat_min": 35.65,
            "lat_max": 35.67,
            "lon_min": 139.72,
            "lon_max": 139.74
        },
        {
            "city": "Nakano",
            "state": "Tokyo",
            "state_abbr": "Tokyo",
            "postcode_prefix": "164",
            "lat_min": 35.7,
            "lat_max": 35.72,
            "lon_min": 139.66,
            "lon_max": 139.68
        },
        {
            "city": "Kichijoji",
            "state": "Tokyo",
            "state_abbr": "Tokyo",
            "postcode_prefix": "180",
            "lat_min": 35.7,
            "lat_max": 35.72,
            "lon_min": 139.57,
            "lon_max": 139.6
        },
        {
            "city": "Hachioji",
            "state": "Tokyo",
            "state_abbr": "Tokyo",
            "postcode_prefix": "192",
            "lat_min": 35.63,
            "lat_max": 35.68,
            "lon_min": 139.3,
            "lon_max": 139.38
        },
        {
            "city": "Machida",
            "state": "Tokyo",
            "state_abbr": "Tokyo",
            "postcode_prefix": "194",
            "lat_min": 35.53,
            "lat_max": 35.58,
            "lon_min": 139.43,
            "lon_max": 139.48
        },
        {
            "city": "Tachikawa",
            "state": "Tokyo",
            "state_abbr": "Tokyo",
            "postcode_prefix": "190",
            "lat_min": 35.68,
            "lat_max": 35.72,
            "lon_min": 139.4,
            "lon_max": 139.44
        },
        {
            "city": "Yokohama",
            "state": "Kanagawa",
            "state_abbr": "Kanagawa",
            "postcode_prefix": "220",
            "lat_min": 35.38,
            "lat_max": 35.52,
            "lon_min": 139.58,
            "lon_max": 139.75
        },
        {
            "city": "Kawasaki",
            "state": "Kanagawa",
            "state_abbr": "Kanagawa",
            "postcode_prefix": "210",
            "lat_min": 35.5,
            "lat_max": 35.58,
            "lon_min": 139.68,
            "lon_max": 139.78
        },
        {
            "city": "Sagamihara",
            "state": "Kanagawa",
            "state_abbr": "Kanagawa",
            "postcode_prefix": "252",
            "lat_min": 35.53,
            "lat_max": 35.6,
            "lon_min": 139.33,
            "lon_max": 139.43
        },
        {
            "city": "Fujisawa",
            "state": "Kanagawa",
            "state_abbr": "Kanagawa",
            "postcode_prefix": "251",
            "lat_min": 35.33,
            "lat_max": 35.38,
            "lon_min": 139.45,
            "lon_max": 139.52
        },
        {
            "city": "Yokosuka",
            "state": "Kanagawa",
            "state_abbr": "Kanagawa",
            "postcode_prefix": "238",
            "lat_min": 35.25,
            "lat_max": 35.32,
            "lon_min": 139.65,
            "lon_max": 139.72
        },
        {
            "city": "Hiratsuka",
            "state": "Kanagawa",
            "state_abbr": "Kanagawa",
            "postcode_prefix": "254",
            "lat_min": 35.32,
            "lat_max": 35.37,
            "lon_min": 139.33,
            "lon_max": 139.38
        },
        {
            "city": "Chigasaki",
            "state": "Kanagawa",
            "state_abbr": "Kanagawa",
            "postcode_prefix": "253",
            "lat_min": 35.32,
            "lat_max": 35.35,
            "lon_min": 139.4,
            "lon_max": 139.43
        },
        {
            "city": "Kamakura",
            "state": "Kanagawa",
            "state_abbr": "Kanagawa",
            "postcode_prefix": "248",
            "lat_min": 35.3,
            "lat_max": 35.35,
            "lon_min": 139.52,
            "lon_max": 139.58
        },
        {
            "city": "Osaka",
            "state": "Osaka",
            "state_abbr": "Osaka",
            "postcode_prefix": "530",
            "lat_min": 34.58,
            "lat_max": 34.78,
            "lon_min": 135.4,
            "lon_max": 135.58
        },
        {
            "city": "Umeda",
            "state": "Osaka",
            "state_abbr": "Osaka",
            "postcode_prefix": "530",
            "lat_min": 34.7,
            "lat_max": 34.72,
            "lon_min": 135.48,
            "lon_max": 135.5
        },
        {
            "city": "Namba",
            "state": "Osaka",
            "state_abbr": "Osaka",
            "postcode_prefix": "542",
            "lat_min": 34.66,
            "lat_max": 34.68,
            "lon_min": 135.5,
            "lon_max": 135.52
        },
        {
            "city": "Shinsaibashi",
            "state": "Osaka",
            "state_abbr": "Osaka",
            "postcode_prefix": "542",
            "lat_min": 34.67,
            "lat_max": 34.69,
            "lon_min": 135.49,
            "lon_max": 135.51
        },
        {
            "city": "Tennoji",
            "state": "Osaka",
            "state_abbr": "Osaka",
            "postcode_prefix": "543",
            "lat_min": 34.64,
            "lat_max": 34.66,
            "lon_min": 135.51,
            "lon_max": 135.53
        },
        {
            "city": "Sakai",
            "state": "Osaka",
            "state_abbr": "Osaka",
            "postcode_prefix": "590",
            "lat_min": 34.53,
            "lat_max": 34.6,
            "lon_min": 135.45,
            "lon_max": 135.52
        },
        {
            "city": "Higashiosaka",
            "state": "Osaka",
            "state_abbr": "Osaka",
            "postcode_prefix": "577",
            "lat_min": 34.65,
            "lat_max": 34.7,
            "lon_min": 135.57,
            "lon_max": 135.63
        },
        {
            "city": "Hirakata",
            "state": "Osaka",
            "state_abbr": "Osaka",
            "postcode_prefix": "573",
            "lat_min": 34.8,
            "lat_max": 34.85,
            "lon_min": 135.63,
            "lon_max": 135.68
        },
        {
            "city": "Toyonaka",
            "state": "Osaka",
            "state_abbr": "Osaka",
            "postcode_prefix": "560",
            "lat_min": 34.77,
            "lat_max": 34.82,
            "lon_min": 135.45,
            "lon_max": 135.5
        },
        {
            "city": "Suita",
            "state": "Osaka",
            "state_abbr": "Osaka",
            "postcode_prefix": "564",
            "lat_min": 34.75,
            "lat_max": 34.8,
            "lon_min": 135.5,
            "lon_max": 135.55
        },
        {
            "city": "Takatsuki",
            "state": "Osaka",
            "state_abbr": "Osaka",
            "postcode_prefix": "569",
            "lat_min": 34.83,
            "lat_max": 34.87,
            "lon_min": 135.6,
            "lon_max": 135.65
        },
        {
            "city": "Nagoya",
            "state": "Aichi",
            "state_abbr": "Aichi",
            "postcode_prefix": "450",
            "lat_min": 35.1,
            "lat_max": 35.25,
            "lon_min": 136.85,
            "lon_max": 137.02
        },
        {
            "city": "Sakae",
            "state": "Aichi",
            "state_abbr": "Aichi",
            "postcode_prefix": "460",
            "lat_min": 35.16,
            "lat_max": 35.18,
            "lon_min": 136.9,
            "lon_max": 136.92
        },
        {
            "city": "Toyota",
            "state": "Aichi",
            "state_abbr": "Aichi",
            "postcode_prefix": "471",
            "lat_min": 35.05,
            "lat_max": 35.12,
            "lon_min": 137.13,
            "lon_max": 137.2
        },
        {
            "city": "Okazaki",
            "state": "Aichi",
            "state_abbr": "Aichi",
            "postcode_prefix": "444",
            "lat_min": 34.93,
            "lat_max": 35.0,
            "lon_min": 137.15,
            "lon_max": 137.22
        },
        {
            "city": "Ichinomiya",
            "state": "Aichi",
            "state_abbr": "Aichi",
            "postcode_prefix": "491",
            "lat_min": 35.28,
            "lat_max": 35.33,
            "lon_min": 136.78,
            "lon_max": 136.83
        },
        {
            "city": "Toyohashi",
            "state": "Aichi",
            "state_abbr": "Aichi",
            "postcode_prefix": "440",
            "lat_min": 34.75,
            "lat_max": 34.82,
            "lon_min": 137.37,
            "lon_max": 137.45
        },
        {
            "city": "Kasugai",
            "state": "Aichi",
            "state_abbr": "Aichi",
            "postcode_prefix": "486",
            "lat_min": 35.23,
            "lat_max": 35.28,
            "lon_min": 136.95,
            "lon_max": 137.0
        },
        {
            "city": "Anjo",
            "state": "Aichi",
            "state_abbr": "Aichi",
            "postcode_prefix": "446",
            "lat_min": 34.95,
            "lat_max": 35.0,
            "lon_min": 137.07,
            "lon_max": 137.12
        },
        {
            "city": "Sapporo",
            "state": "Hokkaido",
            "state_abbr": "Hokkaido",
            "postcode_prefix": "060",
            "lat_min": 42.97,
            "lat_max": 43.15,
            "lon_min": 141.22,
            "lon_max": 141.48
        },
        {
            "city": "Susukino",
            "state": "Hokkaido",
            "state_abbr": "Hokkaido",
            "postcode_prefix": "064",
            "lat_min": 43.05,
            "lat_max": 43.07,
            "lon_min": 141.35,
            "lon_max": 141.37
        },
        {
            "city": "Hakodate",
            "state": "Hokkaido",
            "state_abbr": "Hokkaido",
            "postcode_prefix": "040",
            "lat_min": 41.75,
            "lat_max": 41.82,
            "lon_min": 140.72,
            "lon_max": 140.78
        },
        {
            "city": "Asahikawa",
            "state": "Hokkaido",
            "state_abbr": "Hokkaido",
            "postcode_prefix": "070",
            "lat_min": 43.75,
            "lat_max": 43.82,
            "lon_min": 142.35,
            "lon_max": 142.42
        },
        {
            "city": "Obihiro",
            "state": "Hokkaido",
            "state_abbr": "Hokkaido",
            "postcode_prefix": "080",
            "lat_min": 42.9,
            "lat_max": 42.95,
            "lon_min": 143.18,
            "lon_max": 143.23
        },
        {
            "city": "Kushiro",
            "state": "Hokkaido",
            "state_abbr": "Hokkaido",
            "postcode_prefix": "085",
            "lat_min": 42.97,
            "lat_max": 43.02,
            "lon_min": 144.37,
            "lon_max": 144.42
        },
        {
            "city": "Otaru",
            "state": "Hokkaido",
            "state_abbr": "Hokkaido",
            "postcode_prefix": "047",
            "lat_min": 43.18,
            "lat_max": 43.22,
            "lon_min": 140.98,
            "lon_max": 141.02
        },
        {
            "city": "Kitami",
            "state": "Hokkaido",
            "state_abbr": "Hokkaido",
            "postcode_prefix": "090",
            "lat_min": 43.8,
            "lat_max": 43.85,
            "lon_min": 143.88,
            "lon_max": 143.93
        },
        {
            "city": "Tomakomai",
            "state": "Hokkaido",
            "state_abbr": "Hokkaido",
            "postcode_prefix": "053",
            "lat_min": 42.62,
            "lat_max": 42.67,
            "lon_min": 141.58,
            "lon_max": 141.63
        },
        {
            "city": "Fukuoka",
            "state": "Fukuoka",
            "state_abbr": "Fukuoka",
            "postcode_prefix": "810",
            "lat_min": 33.55,
            "lat_max": 33.7,
            "lon_min": 130.32,
            "lon_max": 130.48
        },
        {
            "city": "Tenjin",
            "state": "Fukuoka",
            "state_abbr": "Fukuoka",
            "postcode_prefix": "810",
            "lat_min": 33.58,
            "lat_max": 33.6,
            "lon_min": 130.38,
            "lon_max": 130.4
        },
        {
            "city": "Hakata",
            "state": "Fukuoka",
            "state_abbr": "Fukuoka",
            "postcode_prefix": "812",
            "lat_min": 33.58,
            "lat_max": 33.62,
            "lon_min": 130.4,
            "lon_max": 130.44
        },
        {
            "city": "Kitakyushu",
            "state": "Fukuoka",
            "state_abbr": "Fukuoka",
            "postcode_prefix": "802",
            "lat_min": 33.85,
            "lat_max": 33.95,
            "lon_min": 130.82,
            "lon_max": 130.92
        },
        {
            "city": "Kurume",
            "state": "Fukuoka",
            "state_abbr": "Fukuoka",
            "postcode_prefix": "830",
            "lat_min": 33.3,
            "lat_max": 33.35,
            "lon_min": 130.5,
            "lon_max": 130.55
        },
        {
            "city": "Iizuka",
            "state": "Fukuoka",
            "state_abbr": "Fukuoka",
            "postcode_prefix": "820",
            "lat_min": 33.63,
            "lat_max": 33.67,
            "lon_min": 130.68,
            "lon_max": 130.72
        },
        {
            "city": "Omuta",
            "state": "Fukuoka",
            "state_abbr": "Fukuoka",
            "postcode_prefix": "836",
            "lat_min": 33.02,
            "lat_max": 33.07,
            "lon_min": 130.43,
            "lon_max": 130.47
        },
        {
            "city": "Kasuga",
            "state": "Fukuoka",
            "state_abbr": "Fukuoka",
            "postcode_prefix": "816",
            "lat_min": 33.52,
            "lat_max": 33.55,
            "lon_min": 130.47,
            "lon_max": 130.5
        },
        {
            "city": "Kyoto",
            "state": "Kyoto",
            "state_abbr": "Kyoto",
            "postcode_prefix": "600",
            "lat_min": 34.93,
            "lat_max": 35.08,
            "lon_min": 135.7,
            "lon_max": 135.82
        },
        {
            "city": "Gion",
            "state": "Kyoto",
            "state_abbr": "Kyoto",
            "postcode_prefix": "605",
            "lat_min": 35.0,
            "lat_max": 35.02,
            "lon_min": 135.77,
            "lon_max": 135.79
        },
        {
            "city": "Arashiyama",
            "state": "Kyoto",
            "state_abbr": "Kyoto",
            "postcode_prefix": "616",
            "lat_min": 35.01,
            "lat_max": 35.03,
            "lon_min": 135.67,
            "lon_max": 135.69
        },
        {
            "city": "Uji",
            "state": "Kyoto",
            "state_abbr": "Kyoto",
            "postcode_prefix": "611",
            "lat_min": 34.88,
            "lat_max": 34.92,
            "lon_min": 135.78,
            "lon_max": 135.82
        },
        {
            "city": "Kameoka",
            "state": "Kyoto",
            "state_abbr": "Kyoto",
            "postcode_prefix": "621",
            "lat_min": 35.0,
            "lat_max": 35.05,
            "lon_min": 135.57,
            "lon_max": 135.62
        },
        {
            "city": "Maizuru",
            "state": "Kyoto",
            "state_abbr": "Kyoto",
            "postcode_prefix": "625",
            "lat_min": 35.45,
            "lat_max": 35.5,
            "lon_min": 135.35,
            "lon_max": 135.4
        },
        {
            "city": "Fukuchiyama",
            "state": "Kyoto",
            "state_abbr": "Kyoto",
            "postcode_prefix": "620",
            "lat_min": 35.28,
            "lat_max": 35.32,
            "lon_min": 135.1,
            "lon_max": 135.15
        },
        {
            "city": "Kobe",
            "state": "Hyogo",
            "state_abbr": "Hyogo",
            "postcode_prefix": "650",
            "lat_min": 34.65,
            "lat_max": 34.75,
            "lon_min": 135.1,
            "lon_max": 135.25
        },
        {
            "city": "Sannomiya",
            "state": "Hyogo",
            "state_abbr": "Hyogo",
            "postcode_prefix": "651",
            "lat_min": 34.68,
            "lat_max": 34.7,
            "lon_min": 135.18,
            "lon_max": 135.2
        },
        {
            "city": "Himeji",
            "state": "Hyogo",
            "state_abbr": "Hyogo",
            "postcode_prefix": "670",
            "lat_min": 34.82,
            "lat_max": 34.87,
            "lon_min": 134.68,
            "lon_max": 134.73
        },
        {
            "city": "Nishinomiya",
            "state": "Hyogo",
            "state_abbr": "Hyogo",
            "postcode_prefix": "662",
            "lat_min": 34.72,
            "lat_max": 34.77,
            "lon_min": 135.32,
            "lon_max": 135.37
        },
        {
            "city": "Amagasaki",
            "state": "Hyogo",
            "state_abbr": "Hyogo",
            "postcode_prefix": "660",
            "lat_min": 34.7,
            "lat_max": 34.75,
            "lon_min": 135.4,
            "lon_max": 135.45
        },
        {
            "city": "Akashi",
            "state": "Hyogo",
            "state_abbr": "Hyogo",
            "postcode_prefix": "673",
            "lat_min": 34.63,
            "lat_max": 34.68,
            "lon_min": 134.97,
            "lon_max": 135.02
        },
        {
            "city": "Kakogawa",
            "state": "Hyogo",
            "state_abbr": "Hyogo",
            "postcode_prefix": "675",
            "lat_min": 34.75,
            "lat_max": 34.8,
            "lon_min": 134.83,
            "lon_max": 134.88
        },
        {
            "city": "Takarazuka",
            "state": "Hyogo",
            "state_abbr": "Hyogo",
            "postcode_prefix": "665",
            "lat_min": 34.78,
            "lat_max": 34.82,
            "lon_min": 135.33,
            "lon_max": 135.38
        },
        {
            "city": "Hiroshima",
            "state": "Hiroshima",
            "state_abbr": "Hiroshima",
            "postcode_prefix": "730",
            "lat_min": 34.35,
            "lat_max": 34.48,
            "lon_min": 132.4,
            "lon_max": 132.52
        },
        {
            "city": "Fukuyama",
            "state": "Hiroshima",
            "state_abbr": "Hiroshima",
            "postcode_prefix": "720",
            "lat_min": 34.47,
            "lat_max": 34.52,
            "lon_min": 133.35,
            "lon_max": 133.4
        },
        {
            "city": "Kure",
            "state": "Hiroshima",
            "state_abbr": "Hiroshima",
            "postcode_prefix": "737",
            "lat_min": 34.23,
            "lat_max": 34.27,
            "lon_min": 132.55,
            "lon_max": 132.6
        },
        {
            "city": "Higashihiroshima",
            "state": "Hiroshima",
            "state_abbr": "Hiroshima",
            "postcode_prefix": "739",
            "lat_min": 34.4,
            "lat_max": 34.45,
            "lon_min": 132.72,
            "lon_max": 132.77
        },
        {
            "city": "Onomichi",
            "state": "Hiroshima",
            "state_abbr": "Hiroshima",
            "postcode_prefix": "722",
            "lat_min": 34.4,
            "lat_max": 34.43,
            "lon_min": 133.18,
            "lon_max": 133.22
        },
        {
            "city": "Mihara",
            "state": "Hiroshima",
            "state_abbr": "Hiroshima",
            "postcode_prefix": "723",
            "lat_min": 34.38,
            "lat_max": 34.42,
            "lon_min": 133.07,
            "lon_max": 133.12
        },
        {
            "city": "Sendai",
            "state": "Miyagi",
            "state_abbr": "Miyagi",
            "postcode_prefix": "980",
            "lat_min": 38.22,
            "lat_max": 38.32,
            "lon_min": 140.83,
            "lon_max": 140.95
        },
        {
            "city": "Ishinomaki",
            "state": "Miyagi",
            "state_abbr": "Miyagi",
            "postcode_prefix": "986",
            "lat_min": 38.42,
            "lat_max": 38.47,
            "lon_min": 141.28,
            "lon_max": 141.33
        },
        {
            "city": "Osaki",
            "state": "Miyagi",
            "state_abbr": "Miyagi",
            "postcode_prefix": "989",
            "lat_min": 38.57,
            "lat_max": 38.62,
            "lon_min": 140.95,
            "lon_max": 141.0
        },
        {
            "city": "Natori",
            "state": "Miyagi",
            "state_abbr": "Miyagi",
            "postcode_prefix": "981",
            "lat_min": 38.17,
            "lat_max": 38.2,
            "lon_min": 140.88,
            "lon_max": 140.92
        },
        {
            "city": "Kesennuma",
            "state": "Miyagi",
            "state_abbr": "Miyagi",
            "postcode_prefix": "988",
            "lat_min": 38.9,
            "lat_max": 38.95,
            "lon_min": 141.55,
            "lon_max": 141.6
        },
        {
            "city": "Saitama",
            "state": "Saitama",
            "state_abbr": "Saitama",
            "postcode_prefix": "330",
            "lat_min": 35.85,
            "lat_max": 35.95,
            "lon_min": 139.6,
            "lon_max": 139.72
        },
        {
            "city": "Kawagoe",
            "state": "Saitama",
            "state_abbr": "Saitama",
            "postcode_prefix": "350",
            "lat_min": 35.9,
            "lat_max": 35.95,
            "lon_min": 139.47,
            "lon_max": 139.52
        },
        {
            "city": "Kawaguchi",
            "state": "Saitama",
            "state_abbr": "Saitama",
            "postcode_prefix": "332",
            "lat_min": 35.8,
            "lat_max": 35.85,
            "lon_min": 139.72,
            "lon_max": 139.77
        },
        {
            "city": "Koshigaya",
            "state": "Saitama",
            "state_abbr": "Saitama",
            "postcode_prefix": "343",
            "lat_min": 35.88,
            "lat_max": 35.92,
            "lon_min": 139.78,
            "lon_max": 139.82
        },
        {
            "city": "Tokorozawa",
            "state": "Saitama",
            "state_abbr": "Saitama",
            "postcode_prefix": "359",
            "lat_min": 35.78,
            "lat_max": 35.82,
            "lon_min": 139.45,
            "lon_max": 139.5
        },
        {
            "city": "Kasukabe",
            "state": "Saitama",
            "state_abbr": "Saitama",
            "postcode_prefix": "344",
            "lat_min": 35.97,
            "lat_max": 36.0,
            "lon_min": 139.75,
            "lon_max": 139.8
        },
        {
            "city": "Soka",
            "state": "Saitama",
            "state_abbr": "Saitama",
            "postcode_prefix": "340",
            "lat_min": 35.82,
            "lat_max": 35.85,
            "lon_min": 139.8,
            "lon_max": 139.83
        },
        {
            "city": "Kumagaya",
            "state": "Saitama",
            "state_abbr": "Saitama",
            "postcode_prefix": "360",
            "lat_min": 36.13,
            "lat_max": 36.17,
            "lon_min": 139.37,
            "lon_max": 139.42
        },
        {
            "city": "Chiba",
            "state": "Chiba",
            "state_abbr": "Chiba",
            "postcode_prefix": "260",
            "lat_min": 35.58,
            "lat_max": 35.68,
            "lon_min": 140.08,
            "lon_max": 140.18
        },
        {
            "city": "Funabashi",
            "state": "Chiba",
            "state_abbr": "Chiba",
            "postcode_prefix": "273",
            "lat_min": 35.68,
            "lat_max": 35.72,
            "lon_min": 139.98,
            "lon_max": 140.03
        },
        {
            "city": "Matsudo",
            "state": "Chiba",
            "state_abbr": "Chiba",
            "postcode_prefix": "271",
            "lat_min": 35.78,
            "lat_max": 35.82,
            "lon_min": 139.88,
            "lon_max": 139.93
        },
        {
            "city": "Ichikawa",
            "state": "Chiba",
            "state_abbr": "Chiba",
            "postcode_prefix": "272",
            "lat_min": 35.72,
            "lat_max": 35.77,
            "lon_min": 139.9,
            "lon_max": 139.95
        },
        {
            "city": "Kashiwa",
            "state": "Chiba",
            "state_abbr": "Chiba",
            "postcode_prefix": "277",
            "lat_min": 35.85,
            "lat_max": 35.9,
            "lon_min": 139.97,
            "lon_max": 140.02
        },
        {
            "city": "Ichihara",
            "state": "Chiba",
            "state_abbr": "Chiba",
            "postcode_prefix": "290",
            "lat_min": 35.48,
            "lat_max": 35.53,
            "lon_min": 140.1,
            "lon_max": 140.15
        },
        {
            "city": "Urayasu",
            "state": "Chiba",
            "state_abbr": "Chiba",
            "postcode_prefix": "279",
            "lat_min": 35.65,
            "lat_max": 35.68,
            "lon_min": 139.9,
            "lon_max": 139.93
        },
        {
            "city": "Narashino",
            "state": "Chiba",
            "state_abbr": "Chiba",
            "postcode_prefix": "275",
            "lat_min": 35.67,
            "lat_max": 35.7,
            "lon_min": 140.02,
            "lon_max": 140.05
        },
        {
            "city": "Niigata",
            "state": "Niigata",
            "state_abbr": "Niigata",
            "postcode_prefix": "950",
            "lat_min": 37.88,
            "lat_max": 37.97,
            "lon_min": 139.0,
            "lon_max": 139.12
        },
        {
            "city": "Nagaoka",
            "state": "Niigata",
            "state_abbr": "Niigata",
            "postcode_prefix": "940",
            "lat_min": 37.43,
            "lat_max": 37.48,
            "lon_min": 138.83,
            "lon_max": 138.88
        },
        {
            "city": "Joetsu",
            "state": "Niigata",
            "state_abbr": "Niigata",
            "postcode_prefix": "943",
            "lat_min": 37.13,
            "lat_max": 37.18,
            "lon_min": 138.23,
            "lon_max": 138.28
        },
        {
            "city": "Sanjo",
            "state": "Niigata",
            "state_abbr": "Niigata",
            "postcode_prefix": "955",
            "lat_min": 37.62,
            "lat_max": 37.67,
            "lon_min": 138.95,
            "lon_max": 139.0
        },
        {
            "city": "Shibata",
            "state": "Niigata",
            "state_abbr": "Niigata",
            "postcode_prefix": "957",
            "lat_min": 37.93,
            "lat_max": 37.97,
            "lon_min": 139.32,
            "lon_max": 139.37
        },
        {
            "city": "Shizuoka",
            "state": "Shizuoka",
            "state_abbr": "Shizuoka",
            "postcode_prefix": "420",
            "lat_min": 34.95,
            "lat_max": 35.03,
            "lon_min": 138.35,
            "lon_max": 138.45
        },
        {
            "city": "Hamamatsu",
            "state": "Shizuoka",
            "state_abbr": "Shizuoka",
            "postcode_prefix": "430",
            "lat_min": 34.7,
            "lat_max": 34.8,
            "lon_min": 137.7,
            "lon_max": 137.82
        },
        {
            "city": "Numazu",
            "state": "Shizuoka",
            "state_abbr": "Shizuoka",
            "postcode_prefix": "410",
            "lat_min": 35.08,
            "lat_max": 35.12,
            "lon_min": 138.85,
            "lon_max": 138.9
        },
        {
            "city": "Fuji",
            "state": "Shizuoka",
            "state_abbr": "Shizuoka",
            "postcode_prefix": "416",
            "lat_min": 35.15,
            "lat_max": 35.2,
            "lon_min": 138.67,
            "lon_max": 138.72
        },
        {
            "city": "Iwata",
            "state": "Shizuoka",
            "state_abbr": "Shizuoka",
            "postcode_prefix": "438",
            "lat_min": 34.72,
            "lat_max": 34.77,
            "lon_min": 137.85,
            "lon_max": 137.9
        },
        {
            "city": "Yaizu",
            "state": "Shizuoka",
            "state_abbr": "Shizuoka",
            "postcode_prefix": "425",
            "lat_min": 34.86,
            "lat_max": 34.9,
            "lon_min": 138.3,
            "lon_max": 138.35
        },
        {
            "city": "Okayama",
            "state": "Okayama",
            "state_abbr": "Okayama",
            "postcode_prefix": "700",
            "lat_min": 34.63,
            "lat_max": 34.72,
            "lon_min": 133.88,
            "lon_max": 133.98
        },
        {
            "city": "Kurashiki",
            "state": "Okayama",
            "state_abbr": "Okayama",
            "postcode_prefix": "710",
            "lat_min": 34.58,
            "lat_max": 34.63,
            "lon_min": 133.75,
            "lon_max": 133.82
        },
        {
            "city": "Tsuyama",
            "state": "Okayama",
            "state_abbr": "Okayama",
            "postcode_prefix": "708",
            "lat_min": 35.05,
            "lat_max": 35.1,
            "lon_min": 134.0,
            "lon_max": 134.05
        },
        {
            "city": "Soja",
            "state": "Okayama",
            "state_abbr": "Okayama",
            "postcode_prefix": "719",
            "lat_min": 34.67,
            "lat_max": 34.7,
            "lon_min": 133.75,
            "lon_max": 133.78
        },
        {
            "city": "Naha",
            "state": "Okinawa",
            "state_abbr": "Okinawa",
            "postcode_prefix": "900",
            "lat_min": 26.18,
            "lat_max": 26.25,
            "lon_min": 127.65,
            "lon_max": 127.72
        },
        {
            "city": "Okinawa",
            "state": "Okinawa",
            "state_abbr": "Okinawa",
            "postcode_prefix": "904",
            "lat_min": 26.32,
            "lat_max": 26.38,
            "lon_min": 127.78,
            "lon_max": 127.83
        },
        {
            "city": "Uruma",
            "state": "Okinawa",
            "state_abbr": "Okinawa",
            "postcode_prefix": "904",
            "lat_min": 26.35,
            "lat_max": 26.42,
            "lon_min": 127.85,
            "lon_max": 127.92
        },
        {
            "city": "Urasoe",
            "state": "Okinawa",
            "state_abbr": "Okinawa",
            "postcode_prefix": "901",
            "lat_min": 26.23,
            "lat_max": 26.28,
            "lon_min": 127.7,
            "lon_max": 127.75
        },
        {
            "city": "Ginowan",
            "state": "Okinawa",
            "state_abbr": "Okinawa",
            "postcode_prefix": "901",
            "lat_min": 26.27,
            "lat_max": 26.3,
            "lon_min": 127.77,
            "lon_max": 127.8
        },
        {
            "city": "Kanazawa",
            "state": "Ishikawa",
            "state_abbr": "Ishikawa",
            "postcode_prefix": "920",
            "lat_min": 36.53,
            "lat_max": 36.6,
            "lon_min": 136.62,
            "lon_max": 136.7
        },
        {
            "city": "Komatsu",
            "state": "Ishikawa",
            "state_abbr": "Ishikawa",
            "postcode_prefix": "923",
            "lat_min": 36.4,
            "lat_max": 36.43,
            "lon_min": 136.43,
            "lon_max": 136.47
        },
        {
            "city": "Hakusan",
            "state": "Ishikawa",
            "state_abbr": "Ishikawa",
            "postcode_prefix": "924",
            "lat_min": 36.5,
            "lat_max": 36.55,
            "lon_min": 136.55,
            "lon_max": 136.6
        },
        {
            "city": "Nagano",
            "state": "Nagano",
            "state_abbr": "Nagano",
            "postcode_prefix": "380",
            "lat_min": 36.62,
            "lat_max": 36.68,
            "lon_min": 138.17,
            "lon_max": 138.23
        },
        {
            "city": "Matsumoto",
            "state": "Nagano",
            "state_abbr": "Nagano",
            "postcode_prefix": "390",
            "lat_min": 36.22,
            "lat_max": 36.28,
            "lon_min": 137.95,
            "lon_max": 138.02
        },
        {
            "city": "Ueda",
            "state": "Nagano",
            "state_abbr": "Nagano",
            "postcode_prefix": "386",
            "lat_min": 36.38,
            "lat_max": 36.43,
            "lon_min": 138.25,
            "lon_max": 138.3
        },
        {
            "city": "Iida",
            "state": "Nagano",
            "state_abbr": "Nagano",
            "postcode_prefix": "395",
            "lat_min": 35.5,
            "lat_max": 35.55,
            "lon_min": 137.82,
            "lon_max": 137.87
        },
        {
            "city": "Suwa",
            "state": "Nagano",
            "state_abbr": "Nagano",
            "postcode_prefix": "392",
            "lat_min": 36.03,
            "lat_max": 36.07,
            "lon_min": 138.1,
            "lon_max": 138.15
        }
    ],
    "streets_by_city": {
        "Tokyo": [
            "Marunouchi",
            "Otemachi",
            "Chiyoda",
            "Nagatacho",
            "Kasumigaseki",
            "Hibiya",
            "Yurakucho",
            "Nihonbashi",
            "Kyobashi",
            "Hatchobori",
            "Kanda",
            "Akihabara",
            "Jimbocho",
            "Suidobashi",
            "Honjo",
            "Ryogoku",
            "Kinshicho",
            "Oshiage",
            "Mukojima",
            "Hikifune",
            "Kameido",
            "Ojima",
            "Monzen-nakacho",
            "Kiba",
            "Toyosu",
            "Shinonome",
            "Ariake",
            "Odaiba",
            "Harumi",
            "Tsukishima",
            "Kachidoki",
            "Minami-senju",
            "Senju",
            "Arakawa",
            "Nishi-nippori",
            "Yanaka",
            "Ueno",
            "Okachimachi",
            "Asakusa",
            "Kuramae",
            "Iriya",
            "Mikawashima",
            "Machiya",
            "Tabata",
            "Komagome",
            "Sugamo",
            "Otsuka",
            "Ikebukuro",
            "Mejiro",
            "Takadanobaba",
            "Waseda",
            "Shimoochiai",
            "Nakai",
            "Higashinakano",
            "Nakano",
            "Koenji",
            "Asagaya",
            "Ogikubo",
            "Nishiogikubo",
            "Kichijoji",
            "Inokashira",
            "Mitaka",
            "Musashisakai",
            "Higashikoganei",
            "Meiji-dori",
            "Yasukuni-dori",
            "Sotobori-dori",
            "Uchibori-dori",
            "Chuo-dori",
            "Harumi-dori",
            "Showa-dori",
            "Kasuga-dori",
            "Hongo-dori",
            "Hakusan-dori",
            "Kototoi-dori",
            "Sumida-gawa-dori",
            "Keiyo-dori",
            "Eitai-dori",
            "Kiyosumi-dori",
            "Mitsume-dori",
            "Shin-Ohashi-dori",
            "Sunamachi-ginza-dori",
            "Kanpachi-dori",
            "Kannana-dori",
            "Meguro-dori",
            "Komazawa-dori",
            "Tamagawa-dori",
            "Sangenjaya-dori",
            "Inokashira-dori",
            "Koshu-kaido",
            "Ome-kaido",
            "Shin-Ome-kaido",
            "Itsukaichi-kaido",
            "Kawagoe-kaido",
            "Mejiro-dori",
            "Shin-Mejiro-dori",
            "Gaien-Higashi-dori",
            "Gaien-Nishi-dori",
            "Roppongi-dori",
            "Aoyama-dori"
        ],
        "Shinjuku": [
            "Nishi-Shinjuku",
            "Kabukicho",
            "Shinjuku-sanchome",
            "Hyakunincho",
            "Okubo",
            "Takadanobaba",
            "Toyama",
            "Naitomachi",
            "Yotsuya",
            "Ichigaya",
            "Kagurazaka",
            "Wakamatsucho",
            "Akebonobashi",
            "Haramachi",
            "Enokicho",
            "Shomyoji",
            "Daimachi",
            "Kitashinjuku",
            "Totsuka-machi",
            "Ochiai",
            "Shinjuku-dori",
            "Meiji-dori",
            "Yasukuni-dori",
            "Koshu-kaido",
            "Kabukicho-ichiban-gai",
            "Okubo-dori",
            "Totsuka-dori",
            "Nishi-Shinjuku-dori",
            "Kagurazaka-dori",
            "Shin-Okubo-dori"
        ],
        "Shibuya": [
            "Shibuya",
            "Dogenzaka",
            "Maruyamacho",
            "Udagawacho",
            "Jinnan",
            "Kamiyamacho",
            "Tomigaya",
            "Harajuku",
            "Jingumae",
            "Sendagaya",
            "Yoyogi",
            "Sasazuka",
            "Hatagaya",
            "Hatsudai",
            "Honmachi",
            "Shoto",
            "Nanpeidai",
            "Sakuragaokacho",
            "Hiroo",
            "Ebisu",
            "Ebisunishi",
            "Daikanyama",
            "Aobadai",
            "Kamimeguro",
            "Higashiyama",
            "Komaba",
            "Uehara",
            "Nishihara",
            "Dogenzaka-dori",
            "Miyamasuzaka-dori"
        ],
        "Shinagawa": [
            "Konan",
            "Higashishinagawa",
            "Minamishinagawa",
            "Kitashinagawa",
            "Nishishinagawa",
            "Osaki",
            "Higashioi",
            "Nishioi",
            "Hiromachi",
            "Futaba",
            "Togoshi",
            "Nakanobu",
            "Nishimagome",
            "Higashinakanobu",
            "Ebara",
            "Hatanodai",
            "Koyama",
            "Yashio",
            "Shinagawa Eki-mae-dori",
            "Kitashinagawa-dori",
            "Gotenyama-dori",
            "Togoshi-ginza-dori",
            "Musashi-Koyama-dori",
            "Oimachi-dori",
            "Hatanodai-dori",
            "Nishi-Oi-dori",
            "Higashi-Oi-dori",
            "Ebara-dori",
            "Shimo-Shinmei-dori",
            "Omori-dori"
        ],
        "Ikebukuro": [
            "Nishi-Ikebukuro",
            "Higashi-Ikebukuro",
            "Minami-Ikebukuro",
            "Ikebukuro",
            "Mejiro",
            "Zoshigaya",
            "Takada",
            "Otsuka",
            "Komagome",
            "Sugamo",
            "Nishisugamo",
            "Kamiikebukuro",
            "Ikebukurohoncho",
            "Kamitoshima",
            "Nagasaki",
            "Chihaya",
            "Minamisena",
            "Senkawa",
            "Sunshine-dori",
            "Nishi-guchi-dori",
            "Meiji-dori",
            "Kasuga-dori",
            "Otome-kaido",
            "Kaname-cho-dori",
            "Bunkyo-dori",
            "Zoushigaya-dori",
            "Shiinamachi-dori",
            "Mejiro-dori",
            "Higashi-Ikebukuro-dori",
            "Nishi-Ikebukuro-dori"
        ],
        "Ueno": [
            "Ueno",
            "Uenokoen",
            "Higashiueno",
            "Kitaueno",
            "Ikenohata",
            "Nezu",
            "Yanaka",
            "Sendagi",
            "Yushima",
            "Hongo",
            "Koishikawa",
            "Hakusan",
            "Sengoku",
            "Nishikata",
            "Mukougaoka",
            "Yayoi",
            "Bunkyo",
            "Mejirodai",
            "Sekiguchi",
            "Edogawabashi",
            "Shinobazu-dori",
            "Kasuga-dori",
            "Ueno-hirokoji-dori",
            "Kototoi-dori",
            "Iriya-dori",
            "Shitamachi-dori",
            "Yanaka-dori",
            "Nezu-dori",
            "Matsugaya-dori",
            "Asakusa-dori"
        ],
        "Ginza": [
            "Ginza",
            "Yurakucho",
            "Higashiginza",
            "Shinbashi",
            "Tsukiji",
            "Hamamatsucho",
            "Shiodome",
            "Takeshiba",
            "Shiba",
            "Azabudai",
            "Toranomon",
            "Akasaka",
            "Nagatacho",
            "Kokkai-gijidomae",
            "Tameike-sanno",
            "Roppongi-itchome",
            "Kamiyacho",
            "Ginza-dori",
            "Harumi-dori",
            "Sotobori-dori",
            "Suzuran-dori",
            "Nishi-Ginza-dori",
            "Miyuki-dori",
            "Matsuya-dori",
            "Namiki-dori",
            "Azuma-dori",
            "Kobiki-dori",
            "Shin-ohashi-dori",
            "Renga-dori",
            "Sakura-dori"
        ],
        "Akihabara": [
            "Sotokanda",
            "Kanda",
            "Awajicho",
            "Sudacho",
            "Tachikawa",
            "Iwamotocho",
            "Higashikanda",
            "Kajicho",
            "Kanda-nishikicho",
            "Kanda-sakumacho",
            "Misaki-cho",
            "Ogawamachi",
            "Jimbocho",
            "Surugadai",
            "Hitotsubashi",
            "Kitanomaru",
            "Kanda Sakuma-cho",
            "Kanda Hanaokacho",
            "Kanda Sudacho",
            "Kanda Neribeicho",
            "Soto-Kanda Itchome",
            "Soto-Kanda Sanchome",
            "Soto-Kanda Yonchome",
            "Iwamoto-cho",
            "Kanda Izumi-cho",
            "Kanda Matsunaga-cho",
            "Kuramae-bashi-dori",
            "Mansei-bashi-dori",
            "Suehirocho-dori",
            "Ueno-dori"
        ],
        "Roppongi": [
            "Roppongi",
            "Azabujuban",
            "Nishiazabu",
            "Motoazabu",
            "Minamiazabu",
            "Higashiazabu",
            "Azabudai",
            "Azabunagasakacho",
            "Minami-Aoyama",
            "Kita-Aoyama",
            "Nishimachida",
            "Akasaka",
            "Motomachi",
            "Roppongi-Hills",
            "Midtown",
            "Roppongi-itchome",
            "Roppongi-dori",
            "Gaien-higashi-dori",
            "Torii-zaka",
            "Imoarai-zaka",
            "Nogi-zaka",
            "Mikawadai-dori",
            "Toriizaka-dori",
            "Akasaka-dori",
            "Azabu-dori",
            "Azabu-Juban-dori",
            "Sendaizaka",
            "Reisuikei-dori",
            "Keyaki-zaka-dori",
            "Sakurada-dori"
        ],
        "Nakano": [
            "Nakano",
            "Araiyakushimae",
            "Numabukuro",
            "Nogata",
            "Saginomiya",
            "Fujimicho",
            "Arai",
            "Egota",
            "Kamitakada",
            "Wakamiya",
            "Yamato-cho",
            "Chuo",
            "Honcho",
            "Nakano Sun Mall-dori",
            "Nakano Broadway-dori",
            "Waseda-dori",
            "Ookubo-dori",
            "Momozono-dori",
            "Heiwa-dori",
            "Kita-dori",
            "Minami-dori",
            "Nishi-dori",
            "Arai-dori",
            "Numabukuro-dori",
            "Eifuku-dori",
            "Nogata-dori",
            "Egota-dori",
            "Kamiyasu-dori",
            "Sakura-dori",
            "Marunouchi-dori"
        ],
        "Kichijoji": [
            "Kichijoji-honcho",
            "Kichijoji-minamicho",
            "Kichijoji-kitamachi",
            "Kichijoji-higashicho",
            "Gotenyama",
            "Midoricho",
            "Sakuracho",
            "Nakacho",
            "Nishikubo",
            "Kyonancho",
            "Sekimae",
            "Musashino",
            "Sakai",
            "Inokashira",
            "Kichijoji Honmachi-dori",
            "Sun Road-dori",
            "Diamond-gai",
            "Gotenyama-dori",
            "Inokashira-dori",
            "Narukami-dori",
            "Nishi-guchi-dori",
            "Kita-machi-dori",
            "Daisan-dori",
            "Itsukaichi-kaido",
            "Coppice-dori",
            "Higashi-dori",
            "Midori-cho-dori",
            "Musashino-dori",
            "Saiwai-dori",
            "Tokiwa-dori"
        ],
        "Hachioji": [
            "Yokoyamacho",
            "Myojincho",
            "Asahicho",
            "Higashicho",
            "Honcho",
            "Nishi-Hachioji",
            "Katakura",
            "Minamino",
            "Horinouchi",
            "Takao",
            "Nagabusa",
            "Utsukushigaoka",
            "Minamiosawa",
            "Yuigaoka",
            "Matsugicho",
            "Nishihachioji",
            "Motohongocho",
            "Asahi-cho-dori",
            "Honcho-dori",
            "Meiji-dori",
            "Hachioji Eki-mae-dori",
            "Yokoyama-cho-dori",
            "Takao-dori",
            "Minamino-dori",
            "Kunugida-dori",
            "Motohongo-dori",
            "Nishi-Hachioji-dori",
            "Kita-Noda-dori",
            "Aihara-dori",
            "Miyako-cho-dori",
            "Narahara-dori",
            "Saiwai-cho-dori",
            "Motoyokoyama-dori",
            "Kosodate-dori",
            "Shiroyama-dori",
            "Higashi-Asakawa-dori",
            "Katakura-dori",
            "Uzumasa-dori"
        ],
        "Machida": [
            "Haramachida",
            "Nakamachi",
            "Morino",
            "Tsukushino",
            "Narusegaoka",
            "Tamagawa-gakuen",
            "Machida",
            "Asahi-cho",
            "Tsuruma",
            "Minamimachida",
            "Naruse",
            "Kanamori",
            "Machida Eki-mae-dori",
            "Hara-machida-dori",
            "Nakamachi-dori",
            "Joker-dori",
            "Asahi-dori",
            "Nishi-dori",
            "Higashi-dori",
            "Sakura-dori",
            "Tsurukawa-dori",
            "Naruse-dori",
            "Tamagawa-dori",
            "Sagamihara-dori",
            "Nansei-dori",
            "Morino-dori",
            "Obuchi-dori",
            "Oyamada-dori",
            "Togawa-dori",
            "Nokami-dori"
        ],
        "Tachikawa": [
            "Akebonocho",
            "Nishikicho",
            "Takamatsucho",
            "Shiokawacho",
            "Midoricho",
            "Shibasaki",
            "Nishisuna",
            "Sakae-cho",
            "Izumi-cho",
            "Fujimi-cho",
            "Tachikawa Eki-mae-dori",
            "Suwa-dori",
            "Midori-dori",
            "Honmachi-dori",
            "Chuo-dori",
            "Showa-dori",
            "Asahi-dori",
            "Sakura-dori",
            "Suehiro-dori",
            "Heiwa-dori",
            "Saiwai-dori",
            "Tokiwa-dori",
            "Nishi-dori",
            "Higashi-dori",
            "Kita-dori",
            "Minami-dori",
            "Tamagawa-dori",
            "Kunitachi-dori",
            "Musashino-dori",
            "Akebono-dori"
        ],
        "Yokohama": [
            "Minato-Mirai",
            "Sakuragicho",
            "Kannai",
            "Bashamichi",
            "Yamashitacho",
            "Chinatown",
            "Motomachi",
            "Ishikawacho",
            "Yamate",
            "Nogecho",
            "Isezakicho",
            "Yokohamabashi",
            "Hinodecho",
            "Koganecho",
            "Tsurumi",
            "Kawasaki-cho",
            "Naka-ku",
            "Nishi-ku",
            "Kanagawa-ku",
            "Hodogaya",
            "Totsuka",
            "Kohoku",
            "Midori-ku",
            "Aoba-ku",
            "Tsuzuki-ku",
            "Izumi-ku",
            "Sakae-ku",
            "Seya",
            "Asahi-ku",
            "Konan-ku"
        ],
        "Kawasaki": [
            "Kawasakieki-mae",
            "Ogawacho",
            "Sakuramoto",
            "Miyamachi",
            "Shukugawara",
            "Noborito",
            "Tama-ku",
            "Takatsu-ku",
            "Nakahara-ku",
            "Miyamae-ku",
            "Asao-ku",
            "Saiwai-ku",
            "Kawasaki Eki-mae-dori",
            "La Cittadella-dori",
            "Shinkawa-dori",
            "Musashi-Kosugi-dori",
            "Noborito-dori",
            "Shin-Yurigaoka-dori",
            "Daishi-dori",
            "Saginuma-dori",
            "Miyamae-dori",
            "Tama-dori",
            "Kajigaya-dori",
            "Nakanobu-dori",
            "Yako-dori",
            "Ikuta-dori",
            "Takatsu-dori",
            "Higashi-Toda-dori",
            "Okuboyama-dori",
            "Asao-dori",
            "Tsurumi-dori",
            "Todoroki-dori"
        ],
        "Sagamihara": [
            "Sagamiono",
            "Hashimoto",
            "Haramachida",
            "Fuchinobe",
            "Kamimizo",
            "Chuo-ku",
            "Midori-ku",
            "Minami-ku",
            "Sobudai",
            "Aihara",
            "Sagamidai",
            "Sagamihara Eki-mae-dori",
            "Hashimoto-dori",
            "Machida-dori",
            "Bono-dori",
            "Chuo-dori",
            "Asahi-dori",
            "Sakura-dori",
            "Midori-dori",
            "Suehiro-dori",
            "Heiwa-dori",
            "Saiwai-dori",
            "Nishi-dori",
            "Higashi-dori",
            "Tokiwa-dori",
            "Aoyama-dori",
            "Sobudai-mae-dori",
            "Fuchinobe-dori",
            "Kamimizo-dori",
            "Onodai-dori"
        ],
        "Fujisawa": [
            "Fujisawa",
            "Kugenuma",
            "Tsujido",
            "Katase",
            "Enoshima",
            "Shonan",
            "Honkugenuma",
            "Katasekaigan",
            "Kugenuma-kaigan",
            "Tsujido-nishikaigan",
            "Shonan-Fujisawa",
            "Fujisawa Eki-mae-dori",
            "Shonan Kaigan-dori",
            "Enoshima-dori",
            "Kugenuma Kaigan-dori",
            "Tsujido Eki-mae-dori",
            "Fujisawa Honmachi-dori",
            "Katase-dori",
            "Kaigan-dori",
            "Meiji-dori",
            "Daigaku-dori",
            "Mutsuai-dori",
            "Takakura-dori",
            "Shonandai Eki-mae",
            "Tennoji-dori",
            "Kandai-dori",
            "Zaimokuza-dori",
            "Kotoku-ji Mae",
            "Kamakurayama-dori",
            "Inamuragasaki-dori"
        ],
        "Yokosuka": [
            "Honcho",
            "Odakicho",
            "Wakamatsucho",
            "Ogawacho",
            "Kurihama",
            "Uraga",
            "Shioiri",
            "Kinugasa",
            "Nishi-Uraga",
            "Otsu-cho",
            "Funakoshi",
            "Yokosuka Eki-mae-dori",
            "Dobuita-dori",
            "Honmachi-dori",
            "Chuo-dori",
            "Asahi-dori",
            "Sakura-dori",
            "Midori-dori",
            "Suehiro-dori",
            "Heiwa-dori",
            "Saiwai-dori",
            "Tokiwa-dori",
            "Nishi-dori",
            "Higashi-dori",
            "Kinugasa-dori",
            "Oppama-dori",
            "Kurihama-dori",
            "Hayama-dori",
            "Miura-dori",
            "Jogashima-dori"
        ],
        "Hiratsuka": [
            "Meijimachi",
            "Akashi-cho",
            "Takaracho",
            "Miyamaecho",
            "Beniya-cho",
            "Nakaharakami",
            "Nakaharanaka",
            "Nakaharashimo",
            "Oiwake",
            "Kaigan",
            "Eki-mae Odori",
            "Hondori",
            "Shounan-dori",
            "Ninomiya-dori",
            "Meiji-dori",
            "Saiwai-cho-dori",
            "Sakura-dori",
            "Suwa-cho-dori",
            "Nishi-cho-dori",
            "Higashi-cho-dori",
            "Matsukaze-dori",
            "Hanamizu-dori",
            "Oiso-dori",
            "Asahi-dori",
            "Takarasugi-dori",
            "Kita-Kanagawa-dori",
            "Banyu-dori",
            "Okada-dori",
            "Nakata-dori",
            "Shonan Ginga-dori",
            "Kurumagi-dori"
        ],
        "Chigasaki": [
            "Chigasaki",
            "Higashikaigan",
            "Minami-koide",
            "Shonan",
            "Hamasuka",
            "Nakakaigan",
            "Tsurugamine",
            "Enzo",
            "Higashicho",
            "Nishicho",
            "Eki-mae-dori",
            "Shonan-dori",
            "Chigasaki Kaigan-dori",
            "Yanagishima-dori",
            "Matsunami-dori",
            "Hama-dori",
            "Matsubara-dori",
            "Tsutsumi-dori",
            "Nango-dori",
            "Murota-dori",
            "Hagisono-dori",
            "Akabane-dori",
            "Saiwai-dori",
            "Enza-dori",
            "Shimoterao-dori",
            "Tsurugamine-dori",
            "Minamiaoyama-dori",
            "Nakakaigan-dori",
            "Yanagi-dori",
            "Motomachi-dori"
        ],
        "Kamakura": [
            "Komachi",
            "Yuigahama",
            "Hase",
            "Inamuragasaki",
            "Shichirigahama",
            "Koshigoe",
            "Zaimokuza",
            "Onarimachi",
            "Yamanouchi",
            "Nishi-Kamakura",
            "Ofuna",
            "Komachi-dori",
            "Wakamiya Oji",
            "Yuigahama-dori",
            "Hase-dori",
            "Inamuragasaki-dori",
            "Ofuna Eki-mae-dori",
            "Yamanouchi-dori",
            "Zaimokuza-dori",
            "Nikaido-dori",
            "Kita-Kamakura-dori",
            "Tokiwa-dori",
            "Juniso-dori",
            "Omachi-dori",
            "Gokurakuji-dori",
            "Shichirigahama-dori",
            "Koshigoe-dori",
            "Tsurugaoka-dori",
            "Onari-dori",
            "Enoden-dori"
        ],
        "Osaka": [
            "Namba",
            "Shinsaibashi",
            "Dotonbori",
            "Americamura",
            "Hozenji",
            "Sennichimae",
            "Nipponbashi",
            "Denden-town",
            "Tennoji",
            "Shinsekai",
            "Tsutenkaku",
            "Abeno",
            "Umeda",
            "Kitashinchi",
            "Sonezaki",
            "Nakatsu",
            "Fukushima",
            "Nodahanshin",
            "Yodoyabashi",
            "Hommachi",
            "Shinsaibashi",
            "Nagahoribashi",
            "Tanimachi",
            "Sakaisuji",
            "Temma",
            "Ogimachi",
            "Nakanoshima",
            "Temmabashi",
            "Kyobashi",
            "Miyakojima",
            "Tsuruhashi",
            "Imazato",
            "Momodani",
            "Tennoji",
            "Uehommachi",
            "Midosuji",
            "Mido-suji",
            "Yotsubashi-suji",
            "Nishi-Yokobori-dori",
            "Sakai-suji",
            "Tanimachi-suji",
            "Matsuyamachi-suji",
            "Uemachi-suji",
            "Nagahori-dori",
            "Chuo-odori",
            "Sennichimae-dori",
            "Dotonbori-gawa-dori",
            "Soemoncho-dori",
            "Shinsaibashi-suji",
            "Tenjinbashi-suji",
            "Tenjimbashi-suji Shopping Street",
            "Sonezaki-dori",
            "Kitashinchi-dori",
            "Nakanoshima-dori",
            "Tosabori-dori",
            "Edobori-dori",
            "Utsubo-dori",
            "Shin-Midosuji",
            "Naniwa-suji",
            "Hanshin-Expressway",
            "Osaka-ekimae-dori",
            "Umeda-Shinmichi",
            "Ogimachi-dori",
            "Ikutama-mae-dori",
            "Tamatsukuri-dori",
            "Morinomiya-dori",
            "Tsuruhashi-dori",
            "Imazato-suji",
            "Nagai-dori",
            "Abeno-suji",
            "Hirano-dori",
            "Sumiyoshi-dori",
            "Nankai-dori",
            "Kishiwada-dori",
            "Sakai-Rinkai-dori",
            "Shinmachi-dori",
            "Kita-Kyuhoji-machi-dori",
            "Awaza-dori",
            "Hommachi-dori",
            "Bakuro-machi-dori",
            "Kawara-machi-dori",
            "Higashi-Yokobori-dori",
            "Kozu-dori",
            "Shimanouchi-dori",
            "Nipponbashi-suji",
            "Kuromon-dori",
            "Tennoji-dori",
            "Shitennoji-mae-dori",
            "Kitahama-dori",
            "Dojima-dori",
            "Nakanoshima-Nishi-dori",
            "Fukushima-dori",
            "Noda-dori",
            "Konohana-dori",
            "Sakurajima-dori",
            "Nanko-Kita-dori",
            "Nanko-Minami-dori",
            "Cosmosquare-dori",
            "Bentencho-dori",
            "Taisho-dori"
        ],
        "Umeda": [
            "Umeda",
            "Sonezaki",
            "Doyamacho",
            "Shibata",
            "Chayamachi",
            "Kakudacho",
            "Nakazakinishi",
            "Nakazaki",
            "Komatsubara-cho",
            "Tsurunocho",
            "Kitashinchi",
            "Umeda Eki-mae-dori",
            "Sonezaki-dori",
            "Shin-Midosuji-dori",
            "Doyamacho-dori",
            "Tenjinbashi-suji",
            "Nakazakicho-dori",
            "Ohatsu Tenjin-dori",
            "Sakurabashi-dori",
            "Nishi-Umeda-dori",
            "Higashi-Umeda-dori",
            "Kitashinchi-dori",
            "Fukushima-dori",
            "Nakanoshima-dori",
            "Tenmabashi-dori",
            "Chayamachi-dori",
            "Oyodo-dori",
            "Kita-dori",
            "Minami-dori",
            "Dojima-dori"
        ],
        "Namba": [
            "Namba",
            "Nanba-naka",
            "Shinsaibashisuji",
            "Sennichimae",
            "Dotonbori",
            "Soemoncho",
            "Nipponbashi",
            "Shimanouchi",
            "Higashishinsaibashi",
            "Namba Eki-mae-dori",
            "Sennichimae-dori",
            "Dotonbori-dori",
            "Ebisuhashi-suji",
            "Hozenji-yokocho",
            "Sakai-suji",
            "Mido-suji",
            "Sakura-dori",
            "Nanba Nanka-dori",
            "Shiomachi-suji",
            "Nipponbashi-suji",
            "Kuromon-dori",
            "Nankai-dori",
            "Takashimaya-dori",
            "Shin-Kabukicho-dori",
            "Soemoncho-dori",
            "Aizenbashi-dori",
            "Nanba Parks-dori",
            "Ochiai-dori",
            "Yasaka-dori",
            "Imamiya-dori"
        ],
        "Shinsaibashi": [
            "Shinsaibashi",
            "Shinsaibashisuji",
            "Minamisenba",
            "Bakuro-cho",
            "Kyutaro-machi",
            "Kawaramachi",
            "Higashishinsaibashi",
            "Nishishinsaibashi",
            "Americamura",
            "Shinsaibashi-suji",
            "Midosuji-dori",
            "Nagahori-dori",
            "Amemura-dori",
            "Soemoncho-dori",
            "Ebisubashi-dori",
            "Sennichimae-dori",
            "Nanba-dori",
            "Shinmachi-dori",
            "Sakuragawa-dori",
            "Nishi-Shinsaibashi-dori",
            "Higashi-Shinsaibashi-dori",
            "Dotombori-dori",
            "Hommachi-dori",
            "Sakai-suji",
            "Sumiyoshi-dori",
            "Kitahama-dori",
            "Minami-Semba-dori",
            "Shimanouchi-dori",
            "Tsukimachi-dori",
            "Kuromon-dori"
        ],
        "Tennoji": [
            "Tennoji",
            "Uehommachi",
            "Shitennoji",
            "Tamatsukirimae",
            "Momodani",
            "Ikutamachuo",
            "Hoshinogaoka",
            "Yuhigaoka",
            "Chausuyama",
            "Tennoji Eki-mae-dori",
            "Tanimachi-suji",
            "Uemachi-suji",
            "Abenobashi-dori",
            "Shinsekai-dori",
            "Tsutenkaku-dori",
            "Kintetsu-dori",
            "Shitennoji-dori",
            "Haginochaya-dori",
            "Kitabatake-dori",
            "Teradamachi-dori",
            "Tennoji-michi",
            "Ikuno-dori",
            "Tsuruhashi-dori",
            "JR Tennoji-dori",
            "Sakagawa-dori",
            "Showa-dori",
            "Horikoshi-dori",
            "Nishi-Tennoji-dori",
            "Kujo-dori",
            "Momodani-dori"
        ],
        "Sakai": [
            "Sakai-higashi",
            "Sakai-nishi",
            "Sakai-kita",
            "Sakai-minami",
            "Sakai-mihara",
            "Naka-ku",
            "Higashi-ku",
            "Nishi-ku",
            "Minami-ku",
            "Kita-ku",
            "Sakai Eki-mae-dori",
            "Honmachi-dori",
            "Chuo-dori",
            "Showa-dori",
            "Asahi-dori",
            "Sakura-dori",
            "Suehiro-dori",
            "Heiwa-dori",
            "Saiwai-dori",
            "Midori-dori",
            "Tokiwa-dori",
            "Nishi-dori",
            "Higashi-dori",
            "Ike-dori",
            "Mozu-dori",
            "Hamadera-dori",
            "Mikunigaoka-dori",
            "Nakamozu-dori",
            "Fukai-dori",
            "Kita-Sakai-dori"
        ],
        "Higashiosaka": [
            "Fuse",
            "Nagata",
            "Yao",
            "Kawachi-Hanazono",
            "Wakae",
            "Kintetsu-Yao",
            "Shin-Ishikiri",
            "Nunose",
            "Yoshida",
            "Mitsujima",
            "Fuse Eki-mae-dori",
            "Nagata-dori",
            "Hanazono-dori",
            "Kintetsu Eikokuji-dori",
            "Ishikiri-dori",
            "Yao-dori",
            "Kawachi Eiguchi-dori",
            "Ikuno-dori",
            "Shinomiya-dori",
            "Wakae-dori",
            "Kawata-dori",
            "Nishiiwata-dori",
            "Mikuriya-dori",
            "Taisha-dori",
            "Enoki-dori",
            "Chuo-odori",
            "Sumiyoshi-dori",
            "Konoike-dori",
            "Senba-dori",
            "Ogura-dori"
        ],
        "Hirakata": [
            "Hirakatashi",
            "Kuzuhaekimae",
            "Okamotocho",
            "Okacho",
            "Hirakata-koen",
            "Makino",
            "Nagao",
            "Tsuda",
            "Fujisaka",
            "Hirakata Eki-mae-dori",
            "Kori-dori",
            "Makino-dori",
            "Nagao-dori",
            "Otemae-dori",
            "Kuzuha-dori",
            "Kinsei-dori",
            "Minami-dori",
            "Naka-dori",
            "Hirakata Koen-dori",
            "Sugawara-dori",
            "Tsutsumi-dori",
            "Higashi-dori",
            "Fujisaka-dori",
            "Kataoka-dori",
            "Hoshigaoka-dori",
            "Kozu-dori",
            "Aoyama-dori",
            "Kayashima-dori",
            "Oyamanishi-dori",
            "Hirakata-shinmachi-dori"
        ],
        "Toyonaka": [
            "Shibahara",
            "Okamachi",
            "Minami-Sakurazuka",
            "Toyonaka-ekimae",
            "Shonai",
            "Hattori",
            "Midorigaoka",
            "Shin-Senri",
            "Toyonaka Eki-mae-dori",
            "Honmachi-dori",
            "Chuo-dori",
            "Showa-dori",
            "Asahi-dori",
            "Sakura-dori",
            "Midori-dori",
            "Suehiro-dori",
            "Heiwa-dori",
            "Saiwai-dori",
            "Tokiwa-dori",
            "Nishi-dori",
            "Higashi-dori",
            "Kita-dori",
            "Minami-dori",
            "Okamachi-dori",
            "Shonai-dori",
            "Hotarugaike-dori",
            "Senri-dori",
            "Hattori-dori",
            "Sakura-no-machi-dori",
            "Ibaraki-dori"
        ],
        "Suita": [
            "Esaka",
            "Suita-shi",
            "Senrioka",
            "Senri-Chuo",
            "Momoyamadai",
            "Yamadanishi",
            "Konoike",
            "Kishibe",
            "Toyotsu",
            "Suita Eki-mae-dori",
            "Honmachi-dori",
            "Chuo-dori",
            "Asahi-dori",
            "Sakura-dori",
            "Midori-dori",
            "Suehiro-dori",
            "Heiwa-dori",
            "Saiwai-dori",
            "Tokiwa-dori",
            "Expo Park-dori",
            "Senri-dori",
            "Chisato-dori",
            "Kishibe-dori",
            "Momoyama-dori",
            "Nishi-no-sho-dori",
            "Yamada-dori",
            "Esaka-dori",
            "Shinsenri-dori",
            "Aoyama-dori",
            "Takatsuki-dori"
        ],
        "Takatsuki": [
            "Takatsuki-shi",
            "Tondabayashi",
            "Toneyama",
            "Hiyoshidai",
            "Nishinomiya",
            "Nishimachi",
            "Akutagawa-cho",
            "Imashiro-cho",
            "Takatsuki Eki-mae-dori",
            "Honmachi-dori",
            "Chuo-dori",
            "Showa-dori",
            "Asahi-dori",
            "Sakura-dori",
            "Midori-dori",
            "Suehiro-dori",
            "Heiwa-dori",
            "Saiwai-dori",
            "Tokiwa-dori",
            "Nishi-dori",
            "Higashi-dori",
            "Kita-dori",
            "Minami-dori",
            "Akutagawa-dori",
            "Ibaraki-dori",
            "Hirakata-dori",
            "Tondalinmae-dori",
            "Settsu-dori",
            "Awaji-dori",
            "Shimamoto-dori"
        ],
        "Nagoya": [
            "Sakae",
            "Fushimi",
            "Marunouchi",
            "Osu",
            "Kanayama",
            "Nagoya-eki",
            "Meieki",
            "Nishiki",
            "Tsurumai",
            "Chikusa",
            "Higashiyama",
            "Motoyama",
            "Kakuozan",
            "Imaike",
            "Ikeshita",
            "Fujigaoka",
            "Hoshigaoka",
            "Nagakute",
            "Meito",
            "Tempaku",
            "Naka-ku",
            "Higashi-ku",
            "Kita-ku",
            "Nishi-ku",
            "Nakamura-ku",
            "Showa-ku",
            "Mizuho-ku",
            "Atsuta-ku",
            "Minami-ku",
            "Moriyama-ku",
            "Hirokoji-dori",
            "Sakura-dori",
            "Nishiki-dori",
            "Otsu-dori",
            "Hisaya-odori",
            "Fushimi-dori",
            "Meieki-dori",
            "Taikodori",
            "Atsuta-dori",
            "Horita-dori",
            "Wakamiya-odori",
            "Marunouchi-dori",
            "Izumi-dori",
            "Osu-dori",
            "Kamimaezu-dori",
            "Tsurumai-dori",
            "Shin-Sakae-dori",
            "Imaike-dori",
            "Kakuozan-dori",
            "Hondori",
            "Chiyoda-dori",
            "Meiko-dori",
            "Kita-Nagoya-dori",
            "Shimizu-dori",
            "Nagono-dori",
            "Noseki-dori",
            "Kurokawa-dori",
            "Ozone-dori",
            "Tokugawa-dori",
            "Shumoku-dori",
            "Higashiyama-dori",
            "Motoyama-dori",
            "Fujigaoka-dori",
            "Meito-dori",
            "Hoshigaoka-dori",
            "Kamiyashiro-dori",
            "Takabari-dori",
            "Yagoto-dori",
            "Irinaka-dori",
            "Aratama-dori",
            "Mizuho-dori",
            "Kanayama-dori",
            "Shin-Mizuho-dori",
            "Tempaku-dori",
            "Shiogama-dori",
            "Odaka-Ryokuchi-dori",
            "Narumi-dori",
            "Midori-dori",
            "Aioiyama-dori",
            "Yanagibashi-dori",
            "Marunouchi-cho-dori",
            "Nagoya-Kosoku-dori",
            "Sasashima-dori",
            "Komei-dori",
            "Naka-dori",
            "Tsukiji-dori",
            "Minato-dori",
            "Tokai-dori",
            "Inari-dori",
            "Nakamura-dori",
            "Toyokunimachi-dori",
            "Kami-Iida-dori",
            "Meitetsu-dori",
            "Kamejima-dori",
            "Joshin-dori",
            "Shonai-dori",
            "Nishi-Hatchobari-dori",
            "Moriyama-dori",
            "Shidami-dori",
            "Kasadera-dori"
        ],
        "Sakae": [
            "Sakae",
            "Nishiki",
            "Marunouchi",
            "Izumi",
            "Osu",
            "Kamimaezu",
            "Yabacho",
            "Higashisakura",
            "Shin-Sakae",
            "Shirakawa-koen",
            "Sakae-dori",
            "Hisaya-odori",
            "Nishiki-dori",
            "Otsu-dori",
            "Fushimi-dori",
            "Hirokoji-dori",
            "Marunouchi-dori",
            "Osu-dori",
            "Wakamiya-odori",
            "Shinsakae-dori",
            "Chikusa-dori",
            "Kanayama-dori",
            "Meieki-dori",
            "Meijo-dori",
            "Izumi-dori",
            "Takabata-dori",
            "Atsuta-dori",
            "Kamimaezu-dori",
            "Imaike-dori",
            "Tsurumai-dori"
        ],
        "Toyota": [
            "Toyota-shi",
            "Shin-Toyota",
            "Toyota-shiyakusho-mae",
            "Matsuzakamachi",
            "Inocho",
            "Koromo-cho",
            "Honmachi",
            "Nishimachi",
            "Toyota Eki-mae-dori",
            "Honmachi-dori",
            "Chuo-dori",
            "Showa-dori",
            "Asahi-dori",
            "Sakura-dori",
            "Midori-dori",
            "Suehiro-dori",
            "Heiwa-dori",
            "Saiwai-dori",
            "Tokiwa-dori",
            "Nishi-dori",
            "Higashi-dori",
            "Kita-dori",
            "Minami-dori",
            "Okazaki-dori",
            "Mikawa-dori",
            "Koromo-dori",
            "Meitetsu Toyota-dori",
            "Matsudaira-dori",
            "Sanage-dori",
            "Obara-dori"
        ],
        "Okazaki": [
            "Okazaki-koen-mae",
            "Higashiokazaki",
            "Okazaki",
            "Honcho",
            "Aoi-cho",
            "Sakura-cho",
            "Myodaiji-cho",
            "Yahagi-cho",
            "Okazaki Eki-mae-dori",
            "Honmachi-dori",
            "Chuo-dori",
            "Showa-dori",
            "Asahi-dori",
            "Sakura-dori",
            "Suehiro-dori",
            "Heiwa-dori",
            "Saiwai-dori",
            "Midori-dori",
            "Tokiwa-dori",
            "Nishi-dori",
            "Higashi-dori",
            "Otogawa-dori",
            "Iga-dori",
            "Mikawa-dori",
            "Toyota-dori",
            "Nukata-dori",
            "Yahagi-dori",
            "Kodara-dori",
            "Iwazu-dori",
            "Tenma-dori"
        ],
        "Ichinomiya": [
            "Ichinomiya",
            "Shin-Ichinomiya",
            "Owari-Ichinomiya",
            "Bisai",
            "Kisogawa-cho",
            "Asahi-cho",
            "Midori-cho",
            "Imaise-cho",
            "Ichinomiya Eki-mae-dori",
            "Honmachi-dori",
            "Showa-dori",
            "Owari-dori",
            "Suikan-dori",
            "Heiwa-dori",
            "Asahi-dori",
            "Sakura-dori",
            "Meiji-dori",
            "Sakaemachi-dori",
            "Nishi-dori",
            "Higashi-dori",
            "Minami-dori",
            "Kita-dori",
            "Inazawa-dori",
            "Morisaki-dori",
            "Tokiwa-dori",
            "Tanabata-dori",
            "Koganemachi-dori",
            "Imaise-dori",
            "Kisogawa-dori",
            "Bisai-dori"
        ],
        "Toyohashi": [
            "Toyohashi-eki",
            "Ekimae-odori",
            "Hirokoji",
            "Matsuba-cho",
            "Hana-cho",
            "Ekimae-dori",
            "Nishi-Shinmachi",
            "Shimoji-cho",
            "Toyohashi Eki-mae-dori",
            "Honmachi-dori",
            "Chuo-dori",
            "Showa-dori",
            "Asahi-dori",
            "Sakura-dori",
            "Midori-dori",
            "Suehiro-dori",
            "Heiwa-dori",
            "Saiwai-dori",
            "Tokiwa-dori",
            "Nishi-dori",
            "Higashi-dori",
            "Kita-dori",
            "Minami-dori",
            "Densha-dori",
            "Matsuba-dori",
            "Marunouchi-dori",
            "Yoshida-dori",
            "Gamagori-dori",
            "Shinshiro-dori",
            "Tahara-dori"
        ],
        "Kasugai": [
            "Kasugai",
            "Kachigawa",
            "Ajiyoshi-cho",
            "Kozoji-cho",
            "Sakashita-cho",
            "Tashiro-cho",
            "Matsukawado-cho",
            "Nishiyama-cho",
            "Kasugai Eki-mae-dori",
            "Toriimatsu-dori",
            "Honmachi-dori",
            "Kozoji-dori",
            "Shinnippon-dori",
            "Kachigawa-dori",
            "Ajiyoshi-dori",
            "Nishi-dori",
            "Higashi-dori",
            "Showa-dori",
            "Asahi-dori",
            "Suehiro-dori",
            "Heiwa-dori",
            "Midori-dori",
            "Sakae-dori",
            "Kami-jogo-dori",
            "Shimo-jogo-dori",
            "Owari-dori",
            "Morisaki-dori",
            "Tokiwa-dori",
            "Matsubara-dori",
            "Fujiyama-dori"
        ],
        "Anjo": [
            "Anjo",
            "Shin-Anjo",
            "Kitaanjo",
            "Minamianjo",
            "Furuikawa-cho",
            "Sakurai-cho",
            "Akematsu-cho",
            "Higashisakai-cho",
            "Miyuki Honmachi",
            "Mikawa Anjo Eki-mae",
            "Sakura-cho",
            "Higashi Sakura-cho",
            "Nishiki-cho",
            "Sumiyoshi-cho",
            "Kitayama-cho",
            "Imahon-cho",
            "Fuji-cho",
            "Shinmei-cho",
            "Terabe-cho",
            "Asahi-cho",
            "Furukawa-cho",
            "Yokoyama-cho",
            "Hikisaka-cho",
            "Haigasaki-cho",
            "Minami-cho",
            "Nishi-cho",
            "Higashi-cho",
            "Midori-cho",
            "Sakae-cho",
            "Kitayama-cho-dori"
        ],
        "Sapporo": [
            "Odori",
            "Susukino",
            "Tanukikoji",
            "Sapporo-eki",
            "Kita-ku",
            "Higashi-ku",
            "Shiroishi-ku",
            "Toyohira-ku",
            "Minami-ku",
            "Nishi-ku",
            "Atsubetsu-ku",
            "Teine-ku",
            "Kiyota-ku",
            "Chuo-ku",
            "Maruyama",
            "Kotoni",
            "Hassamu",
            "Sumikawa",
            "Makomanai",
            "Miyanosawa",
            "Nijuyonken",
            "Nango",
            "Tanukikoji-dori",
            "Ekimae-dori",
            "Sosei-dori",
            "Nishi-Yonchome-dori",
            "Hokkaido-dori",
            "Atsubetsu-dori",
            "Teine-dori",
            "Higashi-Sapporo-dori"
        ],
        "Susukino": [
            "Susukino",
            "Minami-4-jo",
            "Minami-5-jo",
            "Minami-6-jo",
            "Minami-7-jo",
            "Nakajima-koen",
            "Horohira-bashi",
            "Gakuen-mae",
            "Susukino Eki-mae-dori",
            "Minami Sanjou-dori",
            "Minami Yonjou-dori",
            "Minami Gojou-dori",
            "Minami Rokujou-dori",
            "Tanuki Koji",
            "Nishi Nijou-dori",
            "Nishi Sanjou-dori",
            "Kita Ichijou-dori",
            "Nishi Gojou-dori",
            "Nishi Rokujou-dori",
            "Kita-dori",
            "Minami-dori",
            "Showa-dori",
            "Asahi-dori",
            "Sakura-dori",
            "Suehiro-dori",
            "Heiwa-dori",
            "Saiwai-dori",
            "Tokiwa-dori",
            "Izakaya-yokocho",
            "Ramen-yokocho"
        ],
        "Hakodate": [
            "Motomachi",
            "Suehirocho",
            "Goryokaku",
            "Yunokawa",
            "Hakodate-eki",
            "Matsukaze-cho",
            "Wakamatsu-cho",
            "Omoricho",
            "Kaigan-cho",
            "Tokura-cho",
            "Honcho-dori",
            "Suehiro-cho-dori",
            "Goryokaku-dori",
            "Omori-dori",
            "Motomachi-dori",
            "Yachigashira-dori",
            "Benten-dori",
            "Daisan-zaka",
            "Hachimanzaka",
            "Nijukkenzaka",
            "Aoyagi-cho-dori",
            "Yunokawa-dori",
            "Tokura-dori",
            "Kaigan-dori",
            "Shinonome-cho-dori",
            "Shikabe-dori",
            "Nishi-Hoshigaura-dori",
            "Takasago-dori",
            "Miharashi-dori",
            "Kameda-dori",
            "Otemachi-dori",
            "Showa-dori"
        ],
        "Asahikawa": [
            "Asahikawa-eki",
            "Kaimono-koen",
            "Miyashita-dori",
            "San-jo-dori",
            "Shunkodai",
            "Nagayama",
            "Midorigaoka",
            "Kamisorachidai",
            "Suehiro",
            "Gojo-dori",
            "Rokujyou-dori",
            "Shijyou-dori",
            "Heiwa-dori",
            "Ichjyou-dori",
            "Nijyou-dori",
            "Sanjyou-dori",
            "Showa-dori",
            "Kaimono Koen-dori",
            "Furarano-dori",
            "Hachijyou-dori",
            "Midorigaoka-dori",
            "Tokiwa-dori",
            "Nagayama-dori",
            "Asahi-dori",
            "Kagura-dori",
            "Taisetsu-dori",
            "Kinsei-cho",
            "Kotobuki-dori",
            "Kuranuma-dori",
            "Kita-Asahikawa-dori"
        ],
        "Obihiro": [
            "Obihiro-eki",
            "Nishi-2-jo",
            "Nishi-3-jo",
            "Odori",
            "Higashiobihiro",
            "Inada-cho",
            "Nishi-Obihiro",
            "Otofuke",
            "Obihiro Eki-mae-dori",
            "Nishi-dori",
            "Higashi-dori",
            "Honmachi-dori",
            "Showa-dori",
            "Asahi-dori",
            "Sakura-dori",
            "Midori-dori",
            "Suehiro-dori",
            "Heiwa-dori",
            "Saiwai-dori",
            "Tokiwa-dori",
            "Chuo-dori",
            "Kita-dori",
            "Minami-dori",
            "Taisetsu-dori",
            "Makubetsu-dori",
            "Otofuke-dori",
            "Memuro-dori",
            "Kamishihoro-dori",
            "Shihoro-dori",
            "Toyokoro-dori"
        ],
        "Kushiro": [
            "Kushiro-eki",
            "Kitaodori",
            "Saiwai-cho",
            "Sakae-machi",
            "Nusamai",
            "Shunkodai",
            "Aikokunishi",
            "Toridori",
            "Kushiro Eki-mae-dori",
            "Kitaguchi-dori",
            "Saiwai-dori",
            "Nusamai-dori",
            "Honcho-dori",
            "Suehiro-dori",
            "Showa-dori",
            "Asahi-dori",
            "Sakura-dori",
            "Midori-dori",
            "Heiwa-dori",
            "Nishi-dori",
            "Higashi-dori",
            "Tokiwa-dori",
            "Chuo-dori",
            "Shibecha-dori",
            "Teshikaga-dori",
            "Akan-dori",
            "Otanoshike-dori",
            "Washoukai-dori",
            "Akanko-dori",
            "Shirono-dori"
        ],
        "Otaru": [
            "Otaru-eki",
            "Ironai",
            "Sakaimachi",
            "Irifune",
            "Inaho",
            "Hanazono",
            "Shiomidai",
            "Sumiyoshi",
            "Chuo-dori",
            "Otaru Eki-mae-dori",
            "Sakaimachi-dori",
            "Ironai-dori",
            "Honmachi-dori",
            "Asahi-dori",
            "Sakura-dori",
            "Suehiro-dori",
            "Heiwa-dori",
            "Saiwai-dori",
            "Midori-dori",
            "Tokiwa-dori",
            "Nishi-dori",
            "Higashi-dori",
            "Showa-dori",
            "Tengu-yama-dori",
            "Kaigan-dori",
            "Unga-dori",
            "Temiya-dori",
            "Asarigawa-dori",
            "Shioya-dori",
            "Myoken-dori"
        ],
        "Kitami": [
            "Kitami-eki",
            "Kita-2-jo",
            "Kita-3-jo",
            "Nishi-3-chome",
            "Nishi-4-chome",
            "Minami-cho",
            "Koryodai",
            "Tokoro",
            "Kitami Eki-mae-dori",
            "Honmachi-dori",
            "Nishi-dori",
            "Higashi-dori",
            "Showa-dori",
            "Asahi-dori",
            "Midori-dori",
            "Sakura-dori",
            "Suehiro-dori",
            "Heiwa-dori",
            "Saiwai-dori",
            "Tokiwa-dori",
            "Jinsei-dori",
            "Tokoroten-dori",
            "Chuo-dori",
            "Engaru-dori",
            "Rubeshibe-dori",
            "Okhotsk-dori",
            "Kita-dori",
            "Minami-dori",
            "Tanno-dori",
            "Onneyu-dori"
        ],
        "Tomakomai": [
            "Tomakomai-eki",
            "Omotemachi",
            "Nishimachi",
            "Wakakusa-cho",
            "Sumiyoshi-cho",
            "Kogane-cho",
            "Futaba-cho",
            "Shiraoi",
            "Tomakomai Eki-mae-dori",
            "Honmachi-dori",
            "Chuo-dori",
            "Showa-dori",
            "Asahi-dori",
            "Sakura-dori",
            "Midori-dori",
            "Suehiro-dori",
            "Heiwa-dori",
            "Saiwai-dori",
            "Tokiwa-dori",
            "Nishi-dori",
            "Higashi-dori",
            "Kita-dori",
            "Minami-dori",
            "Noshappu-dori",
            "Shiraoi-dori",
            "Chitose-dori",
            "Minato-dori",
            "Izumi-dori",
            "Taisei-dori",
            "Sawara-dori"
        ],
        "Fukuoka": [
            "Tenjin",
            "Nakasu",
            "Hakata",
            "Daimyo",
            "Imaizumi",
            "Yakuin",
            "Ropponmatsu",
            "Nishijin",
            "Momochi",
            "Hakozaki",
            "Kashii",
            "Chihaya",
            "Meinohama",
            "Nishishin",
            "Watanabe-dori",
            "Gofuku-machi",
            "Kawabata",
            "Canal-City",
            "Meiji-dori",
            "Showa-dori",
            "Taihaku-dori",
            "Hakozaki-dori",
            "Kokutai-dori",
            "Gokusho-dori",
            "Yakuin Odori",
            "Nishijin-dori",
            "Hakata Eki-mae-dori",
            "Kashii-dori",
            "Tenji-dori",
            "Momochihama-dori",
            "Meiji-dori Fukuoka",
            "Showa-dori Fukuoka",
            "Kokutai-doro",
            "Gofuku-machi-dori",
            "Kawabata-dori",
            "Nakasu-dori",
            "Sumiyoshi-dori Fukuoka",
            "Tenjin-Nishi-dori",
            "Oyafuko-dori",
            "Kego-dori",
            "Daimyo-dori",
            "Imaizumi-dori",
            "Yakuin-dori",
            "Hirao-dori",
            "Ropponmatsu-dori",
            "Momochi-dori",
            "Jigyohama-dori",
            "Seaside-dori",
            "Ohori-koen-dori",
            "Arato-dori",
            "Hakata-ekimae-dori",
            "Chikushi-dori",
            "Hakataeki-Minami-dori",
            "Sumiyoshi-dori Hakata",
            "Gion-dori",
            "Reisen-dori",
            "Tsukushi-dori",
            "Takeshita-dori Fukuoka",
            "Minoshima-dori",
            "Hakataeki-Higashi-dori",
            "Kami-Kawabata-dori",
            "Yanagibashi-dori Fukuoka",
            "Tenyamachi-dori",
            "Sannomaru-dori",
            "Akasaka-dori Fukuoka",
            "Otemon-dori",
            "Maizuru-dori",
            "Haruyoshi-dori",
            "Kiyokawa-dori",
            "Hii-dori",
            "Najima-dori",
            "Hakozaki-kyudaimae-dori",
            "Kaizuka-dori",
            "Tajima-dori",
            "Yoshizuka-dori",
            "Higashi-dori",
            "Takamiya-dori",
            "Shiobaru-dori",
            "Kasuga-dori Fukuoka",
            "Onojo-dori",
            "Dazaifu-dori",
            "Fukuoka-Kuko-dori",
            "Hakata-Minami-dori",
            "Itoshima-dori",
            "Noke-dori",
            "Sawara-dori",
            "Nishijin-odori",
            "Muromi-dori",
            "Atago-dori",
            "Imaizu-dori",
            "Jonan-dori",
            "Nanakuma-dori",
            "Befu-dori",
            "Kamo-dori",
            "Chihaya-dori",
            "Tojinmachi-dori",
            "Nishikoen-dori",
            "Hakataeki-Chuo-dori",
            "Meinohama-dori",
            "Imajuku-dori"
        ],
        "Tenjin": [
            "Tenjin",
            "Tenjin-minami",
            "Watanabe-dori",
            "Yakuin-odori",
            "Kego",
            "Daimyo",
            "Imaizumi",
            "Akasaka",
            "Ohoribata",
            "Tenjin Eki-mae-dori",
            "Meiji-dori",
            "Showa-dori",
            "Kokutai-dori",
            "Oyafuko-dori",
            "Sakura-zaka",
            "Kego-dori",
            "Akasaka-dori",
            "Hakata-dori",
            "Daimyo-dori",
            "Imaizumi-dori",
            "Yakuin-dori",
            "Ropponmatsu-dori",
            "Chuo-dori",
            "Nishi-dori",
            "Minami-dori",
            "Kita-dori",
            "Harahara-dori",
            "Tenjin-kita-dori",
            "Sumiyoshi-dori",
            "Tenjin Nishi-dori"
        ],
        "Hakata": [
            "Hakata-eki",
            "Hakata-ekimae",
            "Gion-machi",
            "Sumiyoshi",
            "Okada",
            "Hakatakuko",
            "Chiyo",
            "Yoshizuka",
            "Hakataekihigashi",
            "Hakata Eki-mae-dori",
            "Gion-dori",
            "Sumiyoshi-dori",
            "Tochoji-dori",
            "Reisen-dori",
            "Hakozaki-dori",
            "Meiji-dori",
            "Showa-dori",
            "Kokutai-dori",
            "Chikushi-dori",
            "Naka-dori",
            "Kushida Mae-dori",
            "Kamikawabata-dori",
            "Shimokawabata-dori",
            "Gofukumachi-dori",
            "Watanabe-dori",
            "Taihaku-dori",
            "Hakata Odori",
            "Higashi-machi-dori",
            "Mikasa-dori",
            "Minami-dori"
        ],
        "Kitakyushu": [
            "Kokura",
            "Kokura-kita",
            "Kokura-minami",
            "Moji",
            "Tobata",
            "Wakamatsu",
            "Yahata-nishi",
            "Yahata-higashi",
            "Tanga",
            "Uomachi",
            "Kyomachi",
            "Kokura Eki-mae-dori",
            "Uomachi-dori",
            "Tanga-dori",
            "Katsuyama-dori",
            "Tobata-dori",
            "Yahata-dori",
            "Kurosaki Eki-mae-dori",
            "Wakamatsu-dori",
            "Moji-dori",
            "Shin-Wakamatsu-dori",
            "Asakano-dori",
            "Sakuragaoka-dori",
            "Hiagari-dori",
            "Shiroyama-dori",
            "Kitagata-dori",
            "Sandaime-dori",
            "Mutsumi-dori",
            "Asano-dori",
            "Shin-Kokura-dori",
            "Chidori-dori",
            "Kagamigawa-dori"
        ],
        "Kurume": [
            "Kurume-eki",
            "Higashi-machi",
            "Rokkaku-do",
            "Hisamitsu",
            "Nishi-machi",
            "Chuo-machi",
            "Tenjin-cho",
            "Meiji-dori",
            "Rokugomon-dori",
            "Nishi-Tetsu Kurume Eki-mae",
            "Honcho-dori",
            "Chuo-dori",
            "Tenjin-dori",
            "Ekimae-dori",
            "Showa-dori",
            "Ootemon-dori",
            "Shinsakaemachi-dori",
            "Higashi-dori",
            "Kiyama-dori",
            "Mitsuse-dori",
            "Asakura-dori",
            "Chikugo-dori",
            "Setaka-dori",
            "Tanushimaru-dori",
            "Mii-dori",
            "Nishi-dori",
            "Saiwai-dori",
            "Honjin-dori",
            "Machida-dori",
            "Shinzan-dori"
        ],
        "Iizuka": [
            "Iizuka-eki",
            "Yoshio-machi",
            "Shin-iizuka",
            "Honmachi",
            "Kawashima",
            "Yokota",
            "Shimaizumi",
            "Nagai",
            "Iizuka Eki-mae-dori",
            "Honmachi-dori",
            "Chuo-dori",
            "Showa-dori",
            "Meiji-dori",
            "Nishi-dori",
            "Higashi-dori",
            "Sakae-dori",
            "Tagawa-dori",
            "Nogata-dori",
            "Kaho-dori",
            "Honami-dori",
            "Aso-dori",
            "Saiwai-dori",
            "Suehiro-dori",
            "Asahi-dori",
            "Omachi-dori",
            "Tsukimachi-dori",
            "Matsubara-dori",
            "Wakamiya-dori",
            "Kokura-dori",
            "Kurate-dori"
        ],
        "Omuta": [
            "Omuta-eki",
            "Asahi-machi",
            "Takaramachi",
            "Fuji-machi",
            "Shiratsuru-cho",
            "Shin-Omuta",
            "Nagato-machi",
            "Temmangu",
            "Omuta Eki-mae-dori",
            "Honmachi-dori",
            "Chuo-dori",
            "Showa-dori",
            "Asahi-dori",
            "Sakura-dori",
            "Midori-dori",
            "Suehiro-dori",
            "Heiwa-dori",
            "Saiwai-dori",
            "Tokiwa-dori",
            "Shinsakae-dori",
            "Nishi-dori",
            "Higashi-dori",
            "Miike-dori",
            "Takuma-dori",
            "Arao-dori",
            "Nankan-dori",
            "Sumiyoshi-dori",
            "Matsubara-dori",
            "Yamakawa-dori",
            "Yoshino-dori"
        ],
        "Kasuga": [
            "Kasuga",
            "Kasugabaru",
            "Harumachieki",
            "Onojo",
            "Shirane",
            "Suwara",
            "Hikarigaoka",
            "Hakataeki-minami",
            "Kasuga Eki-mae-dori",
            "Kasuga-Koen-dori",
            "Fukuoka-dori",
            "Honmachi-dori",
            "Showa-dori",
            "Heiwa-dori",
            "Asahi-dori",
            "Sakura-dori",
            "Suehiro-dori",
            "Nishi-dori",
            "Higashi-dori",
            "Dazaifu-dori",
            "Onojo-dori",
            "Nakagawa-dori",
            "Futsukaichi-dori",
            "Chikushino-dori",
            "Saiwai-dori",
            "Midori-dori",
            "Takeo-dori",
            "Minamigatani-dori",
            "Kamikasuga-dori",
            "Shimokasuga-dori"
        ],
        "Kyoto": [
            "Kawaramachi",
            "Shijo",
            "Gion",
            "Higashiyama",
            "Pontocho",
            "Sanjo",
            "Teramachi",
            "Nishiki",
            "Shinkyogoku",
            "Karasuma",
            "Oike",
            "Marutamachi",
            "Kitaoji",
            "Kinkakuji",
            "Arashiyama",
            "Fushimi",
            "Yamashina",
            "Daigo",
            "Kiyomizu",
            "Maruyama",
            "Nanzenji",
            "Heian",
            "Okazaki",
            "Shimogamo",
            "Kamigamo",
            "Kinkaku",
            "Ryoanji",
            "Nijo",
            "Uzumasa",
            "Saga"
        ],
        "Gion": [
            "Gion",
            "Hanamikoji",
            "Shijo-dori",
            "Yasaka",
            "Shinbashi-dori",
            "Nawate-dori",
            "Higashioji-dori",
            "Kiyomizu",
            "Sannen-zaka",
            "Ninen-zaka",
            "Hanamikoji-dori",
            "Yamato Oji-dori",
            "Furumonzen-dori",
            "Shinmonzen-dori",
            "Sanjo-dori",
            "Miyagawa-cho-dori",
            "Gojo-dori",
            "Matsubara-dori",
            "Maruyama-dori",
            "Kiyomizu-zaka",
            "Shimokawara-dori",
            "Tofukuji-dori",
            "Yasaka-dori",
            "Kodai-ji Mae",
            "Kenninji-dori",
            "Chawan-zaka",
            "Kamo-gawa-dori",
            "Rokuhara-dori",
            "Tofukuji-mae-dori",
            "Ishibei-koji"
        ],
        "Arashiyama": [
            "Arashiyama",
            "Saga",
            "Tenryuji",
            "Togetsukyo",
            "Okochi-sanso",
            "Nonomiya",
            "Sagano",
            "Daikakuji",
            "Adashino",
            "Otagi",
            "Sagano Tenryuji",
            "Togetsukyo-dori",
            "Randen Arashiyama Eki-mae",
            "Ogurayama-dori",
            "Susukinobaba-cho",
            "Kameyama-dori",
            "Nakanoshima-dori",
            "Saga Tenryuji Tsukurimichi-cho",
            "Nison'in-dori",
            "Kitasaga Naginobaba-cho",
            "Saga Shakado-cho",
            "Arashiyama Nishiitcho",
            "Sagano Kamino",
            "Rakusai Shinmachi",
            "Saga Oniishi-cho",
            "Kamikatsura-dori",
            "Ukyoku Sagano",
            "Matsuo Suetsugu-cho",
            "Saga Toriimoto-dori",
            "Horin-ji Mae"
        ],
        "Uji": [
            "Uji",
            "Byodoin",
            "Ise-cho",
            "Obaku",
            "Momoyama",
            "Kohata",
            "Mimurodo",
            "Ogura",
            "Iseda",
            "Yawata",
            "Uji-bashi-dori",
            "Byodoin Omotesando",
            "Chuo-dori",
            "Showa-dori",
            "Asahi-dori",
            "Sakura-dori",
            "Midori-dori",
            "Suehiro-dori",
            "Heiwa-dori",
            "Saiwai-dori",
            "Tokiwa-dori",
            "Nishi-dori",
            "Higashi-dori",
            "Obaku-dori",
            "Kohata-dori",
            "Ogura-dori",
            "Okubo-dori",
            "Joyo-dori",
            "Kumiyama-dori",
            "Makishima-dori"
        ],
        "Kameoka": [
            "Kameoka-eki",
            "Nantan",
            "Umemachi",
            "Chitose-cho",
            "Hozu",
            "Shinmachi",
            "Ekimae-cho",
            "Miya-machi",
            "Kameoka Eki-mae-dori",
            "Honmachi-dori",
            "Nanatani-dori",
            "Shino-cho-dori",
            "Higashiyama-dori",
            "Nishi-dori",
            "Higashi-dori",
            "Minami-dori",
            "Kita-dori",
            "Chiyokawamachi-dori",
            "Umeda-dori",
            "Shino-dori",
            "Hassetsu-dori",
            "Oigawa-dori",
            "Miyamae-dori",
            "Sakura-dori",
            "Suehiro-dori",
            "Saiwai-dori",
            "Asahi-dori",
            "Eki-mae-dori",
            "Hozu-dori",
            "Yagi-dori"
        ],
        "Maizuru": [
            "Maizuru-eki",
            "Higashimaizuru",
            "Nishimaizuru",
            "Kitamaizuru",
            "Minamikojo-machi",
            "Kamaya",
            "Asahi",
            "Hamacho",
            "Nishi-Maizuru Eki-mae-dori",
            "Higashi-Maizuru Eki-mae-dori",
            "Honmachi-dori",
            "Saiwai-dori",
            "Showa-dori",
            "Asahi-dori",
            "Sakura-dori",
            "Nishi-dori",
            "Higashi-dori",
            "Minato-dori",
            "Chuo-dori",
            "Midori-dori",
            "Heiwa-dori",
            "Suehiro-dori",
            "Tokiwa-dori",
            "Yokaren-dori",
            "Gorou-dori",
            "Akarendai-dori",
            "Kamikura-dori",
            "Yoizaka-dori",
            "Taisei-dori",
            "Yamabuki-dori"
        ],
        "Fukuchiyama": [
            "Fukuchiyama-eki",
            "Nishi-machi",
            "Nakanotsucho",
            "Ekimae-cho",
            "Hirono",
            "Nagata",
            "Miyuki-cho",
            "Kawakita",
            "Eki-mae-dori",
            "Honmachi-dori",
            "Hirono-dori",
            "Naiki-dori",
            "Uchiki-dori",
            "Oomachi-dori",
            "Shin-cho-dori",
            "Saiwai-dori",
            "Nishi-cho-dori",
            "Aoyagi-dori",
            "Naka-no-dori",
            "Tenjin-dori",
            "Goryo-dori",
            "Hinomaru-dori",
            "Jurakumaru-dori",
            "Shimoyamasaki-dori",
            "Kawakita-dori",
            "Kyotan-dori",
            "Sanbongi-dori",
            "Kameyama-dori",
            "Rokutan-cho-dori",
            "Omori-dori"
        ],
        "Kobe": [
            "Sannomiya",
            "Motomachi",
            "Meriken-Park",
            "Harborland",
            "Kobe-eki",
            "Nankinmachi",
            "Kitano",
            "Ijinkan",
            "Tor-Road",
            "Ikuta",
            "Shin-Kobe",
            "Nunobiki",
            "Maya",
            "Rokko",
            "Mikage",
            "Okamoto",
            "Sumiyoshi",
            "Ashiya",
            "Nishinomiya",
            "Higashinada",
            "Nada",
            "Chuo-ku",
            "Hyogo-ku",
            "Nagata-ku",
