{
  "locations": [
    {"city": "İstanbul", "exonym": "Istanbul", "state": "İstanbul", "state_abbr": "34", "postcode_prefix": "34", "lat_min": 40.98, "lat_max": 41.10, "lon_min": 28.85, "lon_max": 29.15},
    {"city": "Ankara", "state": "Ankara", "state_abbr": "06", "postcode_prefix": "06", "lat_min": 39.90, "lat_max": 39.98, "lon_min": 32.82, "lon_max": 32.92},
    {"city": "İzmir", "exonym": "Izmir", "state": "İzmir", "state_abbr": "35", "postcode_prefix": "35", "lat_min": 38.40, "lat_max": 38.46, "lon_min": 27.10, "lon_max": 27.18},
    {"city": "Bursa", "state": "Bursa", "state_abbr": "16", "postcode_prefix": "16", "lat_min": 40.18, "lat_max": 40.22, "lon_min": 28.98, "lon_max": 29.08},
    {"city": "Antalya", "state": "Antalya", "state_abbr": "07", "postcode_prefix": "07", "lat_min": 36.88, "lat_max": 36.92, "lon_min": 30.68, "lon_max": 30.74},
    {"city": "Adana", "state": "Adana", "state_abbr": "01", "postcode_prefix": "01", "lat_min": 36.98, "lat_max": 37.02, "lon_min": 35.30, "lon_max": 35.36},
    {"city": "Konya", "state": "Konya", "state_abbr": "42", "postcode_prefix": "42", "lat_min": 37.86, "lat_max": 37.90, "lon_min": 32.48, "lon_max": 32.52},
    {"city": "Gaziantep", "state": "Gaziantep", "state_abbr": "27", "postcode_prefix": "27", "lat_min": 37.05, "lat_max": 37.09, "lon_min": 37.36, "lon_max": 37.40},
    {"city": "Şanlıurfa", "state": "Şanlıurfa", "state_abbr": "63", "postcode_prefix": "63", "lat_min": 37.15, "lat_max": 37.18, "lon_min": 38.78, "lon_max": 38.82},
    {"city": "Mersin", "state": "Mersin", "state_abbr": "33", "postcode_prefix": "33", "lat_min": 36.78, "lat_max": 36.82, "lon_min": 34.62, "lon_max": 34.66},
    {"city": "Diyarbakır", "state": "Diyarbakır", "state_abbr": "21", "postcode_prefix": "21", "lat_min": 37.91, "lat_max": 37.94, "lon_min": 40.20, "lon_max": 40.24},
    {"city": "Kayseri", "state": "Kayseri", "state_abbr": "38", "postcode_prefix": "38", "lat_min": 38.72, "lat_max": 38.76, "lon_min": 35.48, "lon_max": 35.52},
    {"city": "Eskişehir", "state": "Eskişehir", "state_abbr": "26", "postcode_prefix": "26", "lat_min": 39.76, "lat_max": 39.80, "lon_min": 30.50, "lon_max": 30.54},
    {"city": "Samsun", "state": "Samsun", "state_abbr": "55", "postcode_prefix": "55", "lat_min": 41.28, "lat_max": 41.32, "lon_min": 36.32, "lon_max": 36.36},
    {"city": "Denizli", "state": "Denizli", "state_abbr": "20", "postcode_prefix": "20", "lat_min": 37.77, "lat_max": 37.80, "lon_min": 29.08, "lon_max": 29.12},
    {"city": "Malatya", "state": "Malatya", "state_abbr": "44", "postcode_prefix": "44", "lat_min": 38.35, "lat_max": 38.38, "lon_min": 38.30, "lon_max": 38.34},
    {"city": "Kahramanmaraş", "state": "Kahramanmaraş", "state_abbr": "46", "postcode_prefix": "46", "lat_min": 37.58, "lat_max": 37.62, "lon_min": 36.92, "lon_max": 36.96},
    {"city": "Erzurum", "state": "Erzurum", "state_abbr": "25", "postcode_prefix": "25", "lat_min": 39.90, "lat_max": 39.93, "lon_min": 41.26, "lon_max": 41.30},
    {"city": "Van", "state": "Van", "state_abbr": "65", "postcode_prefix": "65", "lat_min": 38.49, "lat_max": 38.52, "lon_min": 43.36, "lon_max": 43.40},
    {"city": "Batman", "state": "Batman", "state_abbr": "72", "postcode_prefix": "72", "lat_min": 37.88, "lat_max": 37.90, "lon_min": 41.12, "lon_max": 41.16},
    {"city": "Elazığ", "state": "Elazığ", "state_abbr": "23", "postcode_prefix": "23", "lat_min": 38.67, "lat_max": 38.70, "lon_min": 39.22, "lon_max": 39.26},
    {"city": "Trabzon", "state": "Trabzon", "state_abbr": "61", "postcode_prefix": "61", "lat_min": 41.00, "lat_max": 41.03, "lon_min": 39.72, "lon_max": 39.76},
    {"city": "Manisa", "state": "Manisa", "state_abbr": "45", "postcode_prefix": "45", "lat_min": 38.61, "lat_max": 38.64, "lon_min": 27.42, "lon_max": 27.46},
    {"city": "Kocaeli", "state": "Kocaeli", "state_abbr": "41", "postcode_prefix": "41", "lat_min": 40.76, "lat_max": 40.80, "lon_min": 29.92, "lon_max": 29.98},
    {"city": "Sakarya", "state": "Sakarya", "state_abbr": "54", "postcode_prefix": "54", "lat_min": 40.74, "lat_max": 40.77, "lon_min": 30.40, "lon_max": 30.44},
    {"city": "Balıkesir", "state": "Balıkesir", "state_abbr": "10", "postcode_prefix": "10", "lat_min": 39.64, "lat_max": 39.67, "lon_min": 27.88, "lon_max": 27.92},
    {"city": "Tekirdağ", "state": "Tekirdağ", "state_abbr": "59", "postcode_prefix": "59", "lat_min": 40.97, "lat_max": 41.00, "lon_min": 27.50, "lon_max": 27.54},
    {"city": "Aydın", "state": "Aydın", "state_abbr": "09", "postcode_prefix": "09", "lat_min": 37.84, "lat_max": 37.87, "lon_min": 27.84, "lon_max": 27.88},
    {"city": "Muğla", "state": "Muğla", "state_abbr": "48", "postcode_prefix": "48", "lat_min": 37.21, "lat_max": 37.24, "lon_min": 28.36, "lon_max": 28.40},
    {"city": "Hatay", "state": "Hatay", "state_abbr": "31", "postcode_prefix": "31", "lat_min": 36.20, "lat_max": 36.24, "lon_min": 36.15, "lon_max": 36.19}
  ],
  "streets_by_city": {
    "İstanbul": ["İstiklal Caddesi", "Bağdat Caddesi", "Abdi İpekçi Caddesi", "Cumhuriyet Caddesi", "Halaskargazi Caddesi", "Nispetiye Caddesi", "Valikonağı Caddesi", "Rumeli Caddesi", "Teşvikiye Caddesi", "Barbaros Bulvarı"],
    "Ankara": ["Atatürk Bulvarı", "Tunalı Hilmi Caddesi", "Kızılay Caddesi", "Necatibey Caddesi", "Gazi Mustafa Kemal Bulvarı", "Ceyhun Atuf Kansu Caddesi", "İnönü Bulvarı", "Hoşdere Caddesi", "Eskişehir Yolu", "Dumlupınar Bulvarı"],
    "İzmir": ["Kordon Boyu", "Alsancak Caddesi", "Cumhuriyet Bulvarı", "Gazi Bulvarı", "Mustafa Kemal Sahil Bulvarı", "Fevzipaşa Bulvarı", "Şehit Nevres Bulvarı", "Mithatpaşa Caddesi", "Vasıf Çınar Bulvarı", "Cemal Gürsel Caddesi"],
    "Bursa": ["Atatürk Caddesi", "Cemal Nadir Caddesi", "Altıparmak Caddesi", "Fevzi Çakmak Caddesi", "Mudanya Caddesi", "Santral Garaj Caddesi", "İnönü Caddesi", "Yıldırım Caddesi", "Çekirge Caddesi", "Gazcılar Caddesi"],
    "Antalya": ["Atatürk Caddesi", "Işıklar Caddesi", "Cumhuriyet Caddesi", "Ali Çetinkaya Caddesi", "Güllük Caddesi", "Konyaaltı Caddesi", "Aspendos Bulvarı", "Dumlupınar Bulvarı", "Akdeniz Bulvarı", "Lara Caddesi"],
    "Adana": ["Atatürk Caddesi", "Turhan Cemal Beriker Bulvarı", "Turgut Özal Bulvarı", "Ziyapaşa Bulvarı", "İnönü Caddesi", "Fuzuli Caddesi", "Kurtuluş Caddesi", "Abidinpaşa Caddesi", "Özler Caddesi", "Çakmak Caddesi"],
    "Konya": ["Alaaddin Bulvarı", "Mevlana Caddesi", "Nalçacı Caddesi", "Ankara Caddesi", "İstanbul Caddesi", "Yeni Meram Caddesi", "Feritpaşa Caddesi", "Akabe Caddesi", "Vatan Caddesi", "Musalla Bağları Caddesi"],
    "Gaziantep": ["Suburcu Caddesi", "Atatürk Bulvarı", "İstasyon Caddesi", "İnönü Caddesi", "Gaziler Caddesi", "Hürriyet Caddesi", "Fevzipaşa Bulvarı", "Gazimuhtarpaşa Bulvarı", "Karagöz Caddesi", "Kahramanlar Caddesi"],
    "Şanlıurfa": ["Atatürk Bulvarı", "Karaköprü Yolu", "Divan Caddesi", "Sarayönü Caddesi", "Vali Fuat Bey Caddesi", "Kışla Caddesi", "Köprübaşı Caddesi", "Bahçelievler Caddesi", "Haşimiye Meydanı", "Balıklıgöl Caddesi"],
    "Mersin": ["İstiklal Caddesi", "Gazi Mustafa Kemal Bulvarı", "Atatürk Caddesi", "İsmet İnönü Bulvarı", "Silifke Caddesi", "Adnan Menderes Bulvarı", "Limonluk Caddesi", "Hal Caddesi", "Kuvai Milliye Caddesi", "Çankaya Caddesi"],
    "Diyarbakır": ["Gazi Caddesi", "İnönü Caddesi", "Lise Caddesi", "Elazığ Caddesi", "Urfa Yolu", "Ekinciler Caddesi", "Yeniköy Caddesi", "Ofis Caddesi", "Şanlıurfa Bulvarı", "Mardin Caddesi"],
    "Kayseri": ["Sivas Caddesi", "Atatürk Bulvarı", "İstasyon Caddesi", "Osman Kavuncu Bulvarı", "Talas Caddesi", "Mimar Sinan Bulvarı", "Kocasinan Bulvarı", "Park Caddesi", "Cumhuriyet Meydanı", "Gevher Nesibe Caddesi"],
    "Eskişehir": ["İsmet İnönü Caddesi", "Atatürk Bulvarı", "Taşbaşı Caddesi", "Cengiz Topel Caddesi", "Yunusemre Caddesi", "Porsuk Bulvarı", "Sivrihisar Caddesi", "Osmangazi Caddesi", "Şehir Caddesi", "Çarşı Caddesi"],
    "Samsun": ["Atatürk Bulvarı", "Gazi Caddesi", "Cumhuriyet Caddesi", "İstiklal Caddesi", "Necipbey Caddesi", "Kale Mahallesi Caddesi", "Liman Caddesi", "Çiftlik Caddesi", "19 Mayıs Bulvarı", "Sahil Caddesi"],
    "Denizli": ["İstasyon Caddesi", "Atatürk Bulvarı", "2 Nolu Caddesi", "Delikliçınar Meydanı", "Gazi Mustafa Kemal Bulvarı", "Saraylar Caddesi", "Lise Caddesi", "Hürriyet Caddesi", "1562 Sokak", "Emniyet Caddesi"],
    "Malatya": ["İnönü Caddesi", "Atatürk Caddesi", "Fuzuli Caddesi", "Kanalboyu Caddesi", "Turgut Özal Bulvarı", "Karakavak Caddesi", "İstasyon Caddesi", "Özalper Caddesi", "Kernek Meydanı", "Cevatpaşa Caddesi"],
    "Kahramanmaraş": ["Trabzon Caddesi", "İstasyon Caddesi", "Kurtuluş Caddesi", "Azerbaycan Bulvarı", "Atatürk Bulvarı", "Şehit Evliya Caddesi", "Yörükselim Caddesi", "Göksun Caddesi", "Vatan Caddesi", "5100 Evler Caddesi"],
    "Erzurum": ["Cumhuriyet Caddesi", "Atatürk Bulvarı", "Kars Kapı Caddesi", "Cemal Gürsel Caddesi", "Kazım Karabekir Caddesi", "Terminal Caddesi", "Murat Paşa Caddesi", "Havuzbaşı Caddesi", "Lala Paşa Caddesi", "Menderes Caddesi"],
    "Van": ["Cumhuriyet Caddesi", "İskele Caddesi", "Kazım Karabekir Caddesi", "Maraş Caddesi", "Hastane Caddesi", "İpekyolu Caddesi", "PTT Caddesi", "Zübeyde Hanım Caddesi", "Fevzi Çakmak Caddesi", "Beşyol Caddesi"],
    "Batman": ["Atatürk Bulvarı", "Cumhuriyet Caddesi", "Turgut Özal Bulvarı", "Diyarbakır Caddesi", "Raman Caddesi", "Gültepe Caddesi", "İluh Caddesi", "Sanayi Caddesi", "Petrolkent Caddesi", "GAP Caddesi"],
    "Elazığ": ["Gazi Caddesi", "Hürriyet Caddesi", "Atatürk Bulvarı", "Malatya Caddesi", "Korgeneral Hulusi Sayın Caddesi", "İstasyon Caddesi", "İzzetpaşa Caddesi", "Cumhuriyet Caddesi", "Vali Fahri Bey Caddesi", "Sürsürü Caddesi"],
    "Trabzon": ["Uzun Sokak", "Maraş Caddesi", "Kunduracılar Caddesi", "Gazipaşa Caddesi", "Kahramanmaraş Caddesi", "İskenderpaşa Caddesi", "Tanjant Yolu", "Devlet Sahil Yolu", "Fatih Caddesi", "Pazarkapı Caddesi"],
    "Manisa": ["Atatürk Bulvarı", "Cumhuriyet Caddesi", "Anafartalar Caddesi", "İzmir Caddesi", "Doğu Caddesi", "Yarhasanlar Caddesi", "Şehitler Caddesi", "İstasyon Caddesi", "Mimar Sinan Caddesi", "Laleli Caddesi"],
    "Kocaeli": ["İstanbul Caddesi", "Ankara Caddesi", "D-100 Karayolu", "Yahya Kaptan Caddesi", "Kozlu Caddesi", "Alemdar Caddesi", "Cumhuriyet Caddesi", "İnönü Caddesi", "Tavşantepe Caddesi", "Fatih Sultan Mehmet Bulvarı"],
    "Sakarya": ["Uzunçarşı Caddesi", "Atatürk Bulvarı", "Çark Caddesi", "Orhan Caddesi", "İstanbul Caddesi", "Ankara Caddesi", "Kavaklar Caddesi", "Sakarya Caddesi", "Fabrika Caddesi", "Güneşler Caddesi"],
    "Balıkesir": ["Anafartalar Caddesi", "Atatürk Bulvarı", "Milli Kuvvetler Caddesi", "Karesi Caddesi", "Dumlupınar Caddesi", "Hacı İlbey Caddesi", "Soma Caddesi", "İzmir Caddesi", "Zağnos Paşa Caddesi", "Kasaplar Caddesi"],
    "Tekirdağ": ["Atatürk Bulvarı", "Hükümet Caddesi", "Muratlı Caddesi", "İstanbul Caddesi", "Namık Kemal Caddesi", "Çorlu Caddesi", "Yavuz Sultan Selim Caddesi", "Sahil Caddesi", "Rakoczi Caddesi", "Ertuğrul Caddesi"],
    "Aydın": ["Adnan Menderes Bulvarı", "Atatürk Bulvarı", "Gazi Bulvarı", "Hasan Efendi Caddesi", "Ramazanpaşa Caddesi", "Doğu Gazi Bulvarı", "Denizli Caddesi", "İstasyon Caddesi", "Köprülü Caddesi", "Efeler Caddesi"],
    "Muğla": ["Atatürk Caddesi", "Cumhuriyet Caddesi", "Kötekli Caddesi", "Karamehmet Caddesi", "Kurşunlu Caddesi", "Konakaltı Caddesi", "Saburhane Caddesi", "Emirbeyazıt Caddesi", "Tabakhane Caddesi", "Yağcılar Caddesi"],
    "Hatay": ["Kurtuluş Caddesi", "İstiklal Caddesi", "Atatürk Caddesi", "Şehit Pamir Caddesi", "Cebrail Caddesi", "Cumhuriyet Caddesi", "Fevzipaşa Caddesi", "23 Temmuz Caddesi", "General Şükrü Kanatlı Caddesi", "Saray Caddesi"]
  },
  "postcode_format": "#####",
  "address_formats": [
    "{street} No:{building_number}, {postcode} {city}",
    "{street} No:{building_number} Daire:{unit}, {postcode} {city}"
  ],
  "country": "Türkiye",
  "country_code": "TR",
  "phone_area_codes": {
    "İstanbul": ["212", "216"],
    "Ankara": ["312"],
    "İzmir": ["232"],
    "Bursa": ["224"],
    "Antalya": ["242"],
    "Adana": ["322"],
    "Konya": ["332"],
    "Gaziantep": ["342"],
    "Şanlıurfa": ["414"],
    "Mersin": ["324"],
    "Diyarbakır": ["412"],
    "Kayseri": ["352"],
    "Eskişehir": ["222"],
    "Samsun": ["362"],
    "Denizli": ["258"],
    "Malatya": ["422"],
    "Kahramanmaraş": ["344"],
    "Erzurum": ["442"],
    "Van": ["432"],
    "Batman": ["488"],
    "Elazığ": ["424"],
    "Trabzon": ["462"],
    "Manisa": ["236"],
    "Kocaeli": ["262"],
    "Sakarya": ["264"],
    "Balıkesir": ["266"],
    "Tekirdağ": ["282"],
    "Aydın": ["256"],
    "Muğla": ["252"],
    "Hatay": ["326"]
  }
}
