{
  "locations": [
    {"city": "Praha 1", "state": "Hlavni mesto Praha", "state_abbr": "PHA", "postcode_prefix": "110", "lat_min": 50.08, "lat_max": 50.10, "lon_min": 14.41, "lon_max": 14.44},
    {"city": "Praha 2", "state": "Hlavni mesto Praha", "state_abbr": "PHA", "postcode_prefix": "120", "lat_min": 50.07, "lat_max": 50.08, "lon_min": 14.42, "lon_max": 14.45},
    {"city": "Praha 3", "state": "Hlavni mesto Praha", "state_abbr": "PHA", "postcode_prefix": "130", "lat_min": 50.08, "lat_max": 50.10, "lon_min": 14.45, "lon_max": 14.48},
    {"city": "Praha 4", "state": "Hlavni mesto Praha", "state_abbr": "PHA", "postcode_prefix": "140", "lat_min": 50.03, "lat_max": 50.06, "lon_min": 14.42, "lon_max": 14.48},
    {"city": "Praha 5", "state": "Hlavni mesto Praha", "state_abbr": "PHA", "postcode_prefix": "150", "lat_min": 50.05, "lat_max": 50.08, "lon_min": 14.38, "lon_max": 14.42},
    {"city": "Brno", "state": "Jihomoravsky kraj", "state_abbr": "JHM", "postcode_prefix": "602", "lat_min": 49.18, "lat_max": 49.22, "lon_min": 16.58, "lon_max": 16.64},
    {"city": "Ostrava", "state": "Moravskoslezsky kraj", "state_abbr": "MSK", "postcode_prefix": "702", "lat_min": 49.82, "lat_max": 49.86, "lon_min": 18.26, "lon_max": 18.32},
    {"city": "Plzen", "state": "Plzensky kraj", "state_abbr": "PLK", "postcode_prefix": "301", "lat_min": 49.73, "lat_max": 49.76, "lon_min": 13.36, "lon_max": 13.40},
    {"city": "Liberec", "state": "Liberecky kraj", "state_abbr": "LBK", "postcode_prefix": "460", "lat_min": 50.76, "lat_max": 50.78, "lon_min": 15.04, "lon_max": 15.08},
    {"city": "Olomouc", "state": "Olomoucky kraj", "state_abbr": "OLK", "postcode_prefix": "779", "lat_min": 49.59, "lat_max": 49.61, "lon_min": 17.24, "lon_max": 17.28},
    {"city": "Ceske Budejovice", "state": "Jihocesky kraj", "state_abbr": "JHC", "postcode_prefix": "370", "lat_min": 48.97, "lat_max": 48.99, "lon_min": 14.46, "lon_max": 14.50},
    {"city": "Hradec Kralove", "state": "Kralovehradecky kraj", "state_abbr": "HKK", "postcode_prefix": "500", "lat_min": 50.20, "lat_max": 50.22, "lon_min": 15.82, "lon_max": 15.86},
    {"city": "Usti nad Labem", "state": "Ustecky kraj", "state_abbr": "ULK", "postcode_prefix": "400", "lat_min": 50.65, "lat_max": 50.67, "lon_min": 14.02, "lon_max": 14.06},
    {"city": "Pardubice", "state": "Pardubicky kraj", "state_abbr": "PAK", "postcode_prefix": "530", "lat_min": 50.03, "lat_max": 50.05, "lon_min": 15.76, "lon_max": 15.80},
    {"city": "Zlin", "state": "Zlinsky kraj", "state_abbr": "ZLK", "postcode_prefix": "760", "lat_min": 49.22, "lat_max": 49.24, "lon_min": 17.66, "lon_max": 17.70},
    {"city": "Havirov", "state": "Moravskoslezsky kraj", "state_abbr": "MSK", "postcode_prefix": "736", "lat_min": 49.77, "lat_max": 49.79, "lon_min": 18.42, "lon_max": 18.46},
    {"city": "Kladno", "state": "Stredocesky kraj", "state_abbr": "STK", "postcode_prefix": "272", "lat_min": 50.14, "lat_max": 50.16, "lon_min": 14.10, "lon_max": 14.14},
    {"city": "Most", "state": "Ustecky kraj", "state_abbr": "ULK", "postcode_prefix": "434", "lat_min": 50.50, "lat_max": 50.52, "lon_min": 13.62, "lon_max": 13.66},
    {"city": "Karlovy Vary", "state": "Karlovarsky kraj", "state_abbr": "KVK", "postcode_prefix": "360", "lat_min": 50.22, "lat_max": 50.24, "lon_min": 12.86, "lon_max": 12.90},
    {"city": "Jihlava", "state": "Kraj Vysocina", "state_abbr": "VYS", "postcode_prefix": "586", "lat_min": 49.39, "lat_max": 49.41, "lon_min": 15.58, "lon_max": 15.62}
  ],
  "streets_by_city": {
    "Praha 1": ["Vaclavske namesti", "Na Prikope", "Narodni trida", "Celetna", "Karlova", "Parizska", "Dlouha", "Staromestske namesti", "Mostecka", "Mala Strana", "Nerudova", "Trziste", "Thunovska", "Valdstejnska", "Letenska", "Kralovska zahrada", "Hradcanske namesti", "Loretanska", "Pohořelec", "Uvoz"],
    "Praha 2": ["Vinohradska", "Jugoslavska", "Anglicka", "Americka", "Korunni", "Namesti Miru", "Slovenska", "Francouzska", "Italska", "Belgicka", "Rumunska", "Londynska", "Manesova", "Jaromirova", "Jicinska", "Balbinova", "Sokolska", "Jecna", "Lazarska", "Vodickova"],
    "Praha 3": ["Seifertova", "Konevova", "Husitska", "Prokopova", "Rokycanova", "Jiriho z Podebrad", "Namesti Jiriho z Podebrad", "Slezska", "Sudoměřska", "Chlumova", "Tachovske namesti", "Biskupcova", "Ondrickova", "Jagellonska", "Lucemburska", "Lipanska", "Jeseniova", "Olšanska", "Kubelikova", "Havlickovo namesti"],
    "Praha 4": ["Budejovicka", "Pankrac", "Nuselska", "Jeremenkova", "Na Pankraci", "Hvezdova", "Ohradni", "Podolska", "Vrsovicka", "Michle", "Krc", "Branik", "Modřany", "Libuš", "Kunratice", "Chodov", "Haje", "Opatov", "Na Strzi", "Vyskocilova"],
    "Praha 5": ["Plzenska", "Smichovske nabrezi", "Nadrazni", "Stroupeznickeho", "Radlicka", "Jinonická", "Barrandov", "Hlubocepy", "Zlichov", "Kosire", "Motol", "Andel", "Kinského zahrada", "Petřínska", "Újezd", "Kartouzska", "Holeckova", "Matoušova", "Stefanikova", "Vltavska"],
    "Brno": ["Masarykova", "Namesti Svobody", "Ceska", "Kobližná", "Orlí", "Besední", "Husova", "Josefska", "Dominikanske namesti", "Zelny trh", "Petrov", "Mendlovo namesti", "Hybešova", "Lidická", "Kounicova", "Botanická", "Veveří", "Smetanova", "Jezuitská", "Minoritská"],
    "Ostrava": ["Namesti Republiky", "Stodolni", "Nadrazi", "Porubska", "Hlavní třída", "28. října", "Nádražní", "Sokolská třída", "Českobratrská", "Poděbradova", "Smetanovo namesti", "Prívoz", "Vítkovice", "Marianske Hory", "Poruba", "Hrabuvka", "Dubina", "Zabreh", "Bartovice", "Slezska Ostrava"],
    "Plzen": ["Namesti Republiky", "Americka", "Klatovska", "Sady Petatřicátniku", "Bedřicha Smetany", "Presslova", "Borska", "Slovany", "Lochotin", "Doubravka", "Skvrňany", "Bory", "Doudlevce", "Vinice", "Bolevec", "Cernice", "Radcice", "Litice", "Valcha", "Křimice"],
    "Liberec": ["Namesti Dr. E. Benese", "Moskevska", "Prazska", "Jablonecka", "Hanychovska", "Tržní náměstí", "Sokolska", "Felberova", "Rumunska", "Masarykova", "Fügnerova", "Gutenbergova", "5. května", "1. máje", "Zhořelecká", "Nitranská", "Zeyerova", "Jeronýmova", "Husova", "Riegrova"],
    "Olomouc": ["Horni namesti", "Dolni namesti", "8. května", "Trida Svobody", "Denisova", "Palackeho", "Krapkova", "Ztracena", "Zamecnicka", "Ostružnická", "Slovenská", "Hynaisova", "Sokolská", "Univerzitni", "Biskupske namesti", "Marianska", "Kostelni", "Žerotínovo náměstí", "Wurmova", "Dobrovského"],
    "Ceske Budejovice": ["Namesti Premysla Otakara II", "Krajinska", "Piaristicka", "Hroznova", "Kanovnicka", "Ceska", "Biskupska", "Panenska", "U Cerne veze", "Karla IV", "Lannova", "Zizkova", "Na Sadech", "Dukelska", "Pražská třída", "Strakonická", "Mánesova", "Husova třída", "Rudolfovská třída", "Litvínovická"],
    "Hradec Kralove": ["Velke namesti", "Male namesti", "Trida Ceskoslovenske armady", "Gočárova třída", "Resslova", "Palackeho", "Brněnská", "Pražská třída", "Pilnáčkova", "Fortna", "Rokitanského", "Mostecká", "Buzulucká", "Riegrovo náměstí", "Sukovy sady", "Tylovo nábreží", "Labská kotlina", "Moravské Předměstí", "Slezské Předměstí", "Nový Hradec Králové"],
    "Usti nad Labem": ["Mirove namesti", "Masarykova", "Bílinská", "Pařížská", "Dlouhá", "Velká hradební", "Hrnčířská", "Revoluční", "Klíšská", "Střekov", "Krásné Březno", "Severní terasa", "Všebořice", "Bukov", "Neštěmice", "Mojžíř", "Skorotice", "Dobětice", "Předlice", "Vaňov"],
    "Pardubice": ["Pernstynske namesti", "Třída Míru", "Sladkovského", "Smilova", "Zelenobranská", "Bartolomějská", "Kostelní", "Hradební", "Svaté Anežky České", "17. listopadu", "Jiráskova", "Palackého třída", "Jana Palacha", "Pardubičky", "Polabiny", "Cihelna", "Dukla", "Popkovice", "Studánka", "Trnová"],
    "Zlin": ["Namesti Miru", "Třída Tomáše Bati", "Gahurova", "Sokolská", "Bartošova", "Štefánikova", "Mostní", "Osvoboditelů", "Kvítková", "Zarámí", "Moravská", "Dlouhá", "Slovanské náměstí", "Jižní Svahy", "Malenovice", "Kudlov", "Prštné", "Příluky", "Louky", "Lužkovice"],
    "Havirov": ["Dlouhá třída", "Hlavní třída", "Národní třída", "U Lesa", "Mírová", "Školní", "Palackého", "Žákovská", "17. listopadu", "Moskevská", "Šumbark", "Podlesí", "Bludovice", "Dolní Suchá", "Dolní Datyně", "Město", "Životice", "Prostřední Suchá", "Horní Suchá", "Těrlicko"],
    "Kladno": ["Namesti Starosty Pavla", "T. G. Masaryka", "Kročehlavská", "Cyrila Boudy", "Italská", "Slánská", "Štěpánka", "Americká", "Švédská", "Dánská", "Norská", "Finská", "Sportovců", "Vodárenská", "Dubí", "Kročehlavy", "Rozdělov", "Švermov", "Vrapice", "Hnidousy"],
    "Most": ["Namesti 1. máje", "Tržní", "Čsl. armády", "Moskevská", "Pionýrů", "Budovatelů", "1. máje", "Albrechtická", "Javorová", "Lipová", "Zahradní", "Velebudice", "Souš", "Skyřice", "Kopisty", "Komořany", "Čepirohy", "Rudolice", "Pařidla", "Vtelno"],
    "Karlovy Vary": ["T. G. Masaryka", "Lázeňská", "Vřídelní", "Divadelní náměstí", "Zámecký vrch", "Mlýnská", "Tržní", "Stará louka", "Nová louka", "Zahradní", "Moravská", "Sadová", "Dr. Davida Bechera", "Krále Jiřího", "Varšavská", "Slovenská", "Kolmá", "Bulharská", "Rybáře", "Drahovice"],
    "Jihlava": ["Masarykovo namesti", "Benešova", "Brtnická", "Havlíčkova", "Hluboká", "Husova", "Kosmákova", "Křížová", "Palackého", "Tyršova", "Žižkova", "Znojemská", "Hradební", "Matky Boží", "Věžní", "Minoritské náměstí", "Horní", "Dolní", "Fritzova", "Mlýnská"]
  },
  "postcode_format": "### ##",
  "address_formats": [
    "{street} {building_number}, {postcode} {city}",
    "{street} {building_number}, {city} {postcode}",
    "{city}, {street} {building_number}"
  ],
  "country": "Czech Republic",
  "country_code": "CZ",
  "phone_area_codes": {
    "Hlavni mesto Praha": ["2"],
    "Jihomoravsky kraj": ["5"],
    "Moravskoslezsky kraj": ["59"],
    "Plzensky kraj": ["37"],
    "Liberecky kraj": ["48"],
    "Olomoucky kraj": ["58"],
    "Jihocesky kraj": ["38"],
    "Kralovehradecky kraj": ["49"],
    "Ustecky kraj": ["47"],
    "Pardubicky kraj": ["46"],
    "Zlinsky kraj": ["57"],
    "Stredocesky kraj": ["31"],
    "Karlovarsky kraj": ["35"],
    "Kraj Vysocina": ["56"]
  }
}
