{
  "locations": {
    "very_common": [
      {
        "city": "San Jose",
        "state": "San Jose",
        "state_abbr": "SJ",
        "postcode_prefix": "10101",
        "lat_min": 9.92,
        "lat_max": 9.96,
        "lon_min": -84.10,
        "lon_max": -84.06
      },
      {
        "city": "Alajuela",
        "state": "Alajuela",
        "state_abbr": "AL",
        "postcode_prefix": "20101",
        "lat_min": 10.01,
        "lat_max": 10.04,
        "lon_min": -84.23,
        "lon_max": -84.20
      },
      {
        "city": "Heredia",
        "state": "Heredia",
        "state_abbr": "HE",
        "postcode_prefix": "40101",
        "lat_min": 9.99,
        "lat_max": 10.02,
        "lon_min": -84.12,
        "lon_max": -84.10
      }
    ],
    "common": [
      {
        "city": "Cartago",
        "state": "Cartago",
        "state_abbr": "CA",
        "postcode_prefix": "30101",
        "lat_min": 9.85,
        "lat_max": 9.88,
        "lon_min": -83.93,
        "lon_max": -83.90
      },
      {
        "city": "Liberia",
        "state": "Guanacaste",
        "state_abbr": "GU",
        "postcode_prefix": "50101",
        "lat_min": 10.63,
        "lat_max": 10.65,
        "lon_min": -85.45,
        "lon_max": -85.43
      },
      {
        "city": "Puntarenas",
        "state": "Puntarenas",
        "state_abbr": "PU",
        "postcode_prefix": "60101",
        "lat_min": 9.97,
        "lat_max": 9.99,
        "lon_min": -84.84,
        "lon_max": -84.82
      },
      {
        "city": "Limon",
        "state": "Limon",
        "state_abbr": "LI",
        "postcode_prefix": "70101",
        "lat_min": 9.99,
        "lat_max": 10.01,
        "lon_min": -83.04,
        "lon_max": -83.02
      },
      {
        "city": "Desamparados",
        "state": "San Jose",
        "state_abbr": "SJ",
        "postcode_prefix": "10301",
        "lat_min": 9.89,
        "lat_max": 9.91,
        "lon_min": -84.07,
        "lon_max": -84.05
      },
      {
        "city": "San Carlos",
        "state": "Alajuela",
        "state_abbr": "AL",
        "postcode_prefix": "21001",
        "lat_min": 10.33,
        "lat_max": 10.36,
        "lon_min": -84.43,
        "lon_max": -84.40
      }
    ],
    "uncommon": [
      {
        "city": "Escazu",
        "state": "San Jose",
        "state_abbr": "SJ",
        "postcode_prefix": "10201",
        "lat_min": 9.92,
        "lat_max": 9.94,
        "lon_min": -84.14,
        "lon_max": -84.12
      },
      {
        "city": "Santa Ana",
        "state": "San Jose",
        "state_abbr": "SJ",
        "postcode_prefix": "10901",
        "lat_min": 9.93,
        "lat_max": 9.95,
        "lon_min": -84.19,
        "lon_max": -84.17
      },
      {
        "city": "Curridabat",
        "state": "San Jose",
        "state_abbr": "SJ",
        "postcode_prefix": "11801",
        "lat_min": 9.91,
        "lat_max": 9.93,
        "lon_min": -84.04,
        "lon_max": -84.02
      },
      {
        "city": "San Ramon",
        "state": "Alajuela",
        "state_abbr": "AL",
        "postcode_prefix": "20201",
        "lat_min": 10.08,
        "lat_max": 10.10,
        "lon_min": -84.48,
        "lon_max": -84.46
      },
      {
        "city": "Nicoya",
        "state": "Guanacaste",
        "state_abbr": "GU",
        "postcode_prefix": "50201",
        "lat_min": 10.14,
        "lat_max": 10.16,
        "lon_min": -85.46,
        "lon_max": -85.44
      },
      {
        "city": "Perez Zeledon",
        "state": "San Jose",
        "state_abbr": "SJ",
        "postcode_prefix": "11901",
        "lat_min": 9.35,
        "lat_max": 9.37,
        "lon_min": -83.70,
        "lon_max": -83.68
      },
      {
        "city": "Turrialba",
        "state": "Cartago",
        "state_abbr": "CA",
        "postcode_prefix": "30501",
        "lat_min": 9.90,
        "lat_max": 9.92,
        "lon_min": -83.69,
        "lon_max": -83.67
      },
      {
        "city": "Grecia",
        "state": "Alajuela",
        "state_abbr": "AL",
        "postcode_prefix": "20301",
        "lat_min": 10.07,
        "lat_max": 10.09,
        "lon_min": -84.31,
        "lon_max": -84.29
      },
      {
        "city": "Santa Cruz",
        "state": "Guanacaste",
        "state_abbr": "GU",
        "postcode_prefix": "50301",
        "lat_min": 10.26,
        "lat_max": 10.28,
        "lon_min": -85.59,
        "lon_max": -85.57
      }
    ],
    "rare": [
      {
        "city": "Quepos",
        "state": "Puntarenas",
        "state_abbr": "PU",
        "postcode_prefix": "60601",
        "lat_min": 9.43,
        "lat_max": 9.45,
        "lon_min": -84.16,
        "lon_max": -84.14
      },
      {
        "city": "Tilaran",
        "state": "Guanacaste",
        "state_abbr": "GU",
        "postcode_prefix": "50601",
        "lat_min": 10.46,
        "lat_max": 10.48,
        "lon_min": -84.97,
        "lon_max": -84.95
      },
      {
        "city": "La Fortuna",
        "state": "Alajuela",
        "state_abbr": "AL",
        "postcode_prefix": "21007",
        "lat_min": 10.46,
        "lat_max": 10.48,
        "lon_min": -84.65,
        "lon_max": -84.63
      },
      {
        "city": "Tamarindo",
        "state": "Guanacaste",
        "state_abbr": "GU",
        "postcode_prefix": "50309",
        "lat_min": 10.29,
        "lat_max": 10.31,
        "lon_min": -85.84,
        "lon_max": -85.82
      },
      {
        "city": "Jaco",
        "state": "Puntarenas",
        "state_abbr": "PU",
        "postcode_prefix": "61101",
        "lat_min": 9.61,
        "lat_max": 9.63,
        "lon_min": -84.63,
        "lon_max": -84.61
      },
      {
        "city": "Puerto Viejo",
        "state": "Limon",
        "state_abbr": "LI",
        "postcode_prefix": "70301",
        "lat_min": 9.65,
        "lat_max": 9.67,
        "lon_min": -82.76,
        "lon_max": -82.74
      },
      {
        "city": "Nosara",
        "state": "Guanacaste",
        "state_abbr": "GU",
        "postcode_prefix": "50206",
        "lat_min": 9.97,
        "lat_max": 9.99,
        "lon_min": -85.66,
        "lon_max": -85.64
      },
      {
        "city": "Monteverde",
        "state": "Puntarenas",
        "state_abbr": "PU",
        "postcode_prefix": "60109",
        "lat_min": 10.30,
        "lat_max": 10.32,
        "lon_min": -84.83,
        "lon_max": -84.81
      },
      {
        "city": "Cahuita",
        "state": "Limon",
        "state_abbr": "LI",
        "postcode_prefix": "70401",
        "lat_min": 9.74,
        "lat_max": 9.76,
        "lon_min": -82.84,
        "lon_max": -82.82
      },
      {
        "city": "Guapiles",
        "state": "Limon",
        "state_abbr": "LI",
        "postcode_prefix": "70201",
        "lat_min": 10.21,
        "lat_max": 10.23,
        "lon_min": -83.79,
        "lon_max": -83.77
      },
      {
        "city": "Siquirres",
        "state": "Limon",
        "state_abbr": "LI",
        "postcode_prefix": "70301",
        "lat_min": 10.09,
        "lat_max": 10.11,
        "lon_min": -83.51,
        "lon_max": -83.49
      },
      {
        "city": "Atenas",
        "state": "Alajuela",
        "state_abbr": "AL",
        "postcode_prefix": "20501",
        "lat_min": 9.97,
        "lat_max": 9.99,
        "lon_min": -84.39,
        "lon_max": -84.37
      }
    ]
  },
  "streets_by_city": {
    "San Jose": [
      "Avenida Central", "Avenida Segunda", "Calle Central", "Paseo Colon",
      "Boulevard de los Heroes", "Avenida Primera", "Calle 1", "Calle 3",
      "Avenida 10", "Calle 7", "Avenida de las Americas",
      "Boulevard Juan Pablo II", "Calle 11", "Avenida 4", "Calle 15",
      "Avenida 8", "Calle 21", "Avenida 12", "Boulevard Dent",
      "Calle de la Amargura", "Avenida Escazu", "Calle Blancos",
      "Carretera Interamericana", "Autopista General Cañas",
      "Ruta 2", "Calle 42", "Avenida 14", "Boulevard Los Yoses",
      "Calle 33", "Avenida 6", "Calle 25", "Avenida 16",
      "Boulevard de Rohrmoser", "Calle Moravia", "Avenida 18"
    ],
    "Alajuela": [
      "Avenida Central", "Calle Ancha", "Avenida 1", "Calle 2",
      "Calle Central", "Avenida 3", "Boulevard del Aeropuerto",
      "Calle 4", "Avenida 5", "Ruta Nacional 1",
      "Calle 6", "Carretera a Grecia", "Avenida 7", "Calle 8",
      "Boulevard de Alajuela", "Calle 10", "Avenida 9",
      "Ruta a San Ramón", "Calle del Mercado", "Avenida de los Mangos",
      "Calle 12", "Boulevard Juan Santamaría", "Avenida del Estadio",
      "Calle de la Catedral", "Ruta a Poás"
    ],
    "Heredia": [
      "Avenida Central", "Calle Central", "Avenida 1", "Calle 2",
      "Avenida de las Flores", "Calle 4", "Avenida 3",
      "Calle 7", "Boulevard de Heredia", "Calle 9",
      "Avenida 14", "Carretera a Barva", "Avenida 5", "Calle 11",
      "Boulevard de la Universidad", "Calle del Fortín", "Avenida 7",
      "Ruta a San José", "Calle de la Inmaculada", "Avenida de las Banderas",
      "Calle 13", "Boulevard Alfredo González Flores", "Avenida 9",
      "Calle del Mercado", "Ruta a Santo Domingo"
    ],
    "Cartago": [
      "Avenida Central", "Calle Central", "Avenida 1", "Calle 1",
      "Avenida de la Basilica", "Calle 4", "Avenida 3",
      "Calle 8", "Boulevard de Cartago", "Calle 15",
      "Ruta a Paraiso", "Ruta a Turrialba", "Avenida 5", "Calle 17",
      "Boulevard de los Ángeles", "Calle del Mercado", "Avenida 7",
      "Ruta a Orosí", "Calle de las Ruinas", "Avenida de la Negrita",
      "Calle 19", "Boulevard Jorge Volio", "Avenida 9",
      "Calle de la Catedral", "Ruta al Volcán Irazú"
    ],
    "Liberia": [
      "Calle Real", "Avenida Central", "Calle Central", "Avenida 1",
      "Calle 25 de Julio", "Boulevard de Liberia", "Ruta Interamericana",
      "Calle 4", "Avenida 3", "Carretera al Aeropuerto",
      "Calle 6", "Avenida 5", "Boulevard del Sabanero",
      "Calle 8", "Ruta a Playas del Coco", "Avenida 7",
      "Calle del Mercado", "Boulevard Bernabela Ramos",
      "Calle de la Ermita", "Avenida 9", "Ruta a Rincón de la Vieja",
      "Calle 10", "Boulevard del Sol", "Avenida de la Independencia", "Ruta a Nicoya"
    ],
    "Puntarenas": [
      "Paseo de los Turistas", "Avenida Central", "Calle Central",
      "Avenida 1", "Calle del Puerto", "Boulevard de Puntarenas",
      "Carretera Costanera", "Calle 3", "Avenida 3", "Ruta al Ferry",
      "Calle 5", "Avenida 5", "Boulevard del Pacífico",
      "Calle del Mercado", "Avenida del Mar", "Calle 7",
      "Ruta a Quepos", "Boulevard de los Pescadores",
      "Calle de la Catedral", "Avenida 7", "Ruta a San José",
      "Calle 9", "Boulevard Cocal", "Avenida de la Playa", "Calle del Faro"
    ],
    "Limon": [
      "Avenida Central", "Calle Central", "Avenida 1", "Calle del Mercado",
      "Boulevard de Limón", "Calle 3", "Avenida 3", "Ruta al Muelle",
      "Calle 5", "Avenida 5", "Boulevard del Caribe",
      "Calle del Puerto", "Avenida de los Caribes", "Calle 7",
      "Ruta a Moín", "Boulevard de la Amistad",
      "Calle de la Catedral", "Avenida 7", "Ruta a Cahuita",
      "Calle 9", "Boulevard Marcus Garvey", "Avenida del Mar",
      "Calle del Parque Vargas", "Ruta a Puerto Viejo", "Calle de los Tajalines"
    ],
    "Desamparados": [
      "Avenida Central", "Calle Central", "Calle 1", "Avenida 1",
      "Boulevard de Desamparados", "Calle 3", "Carretera a Aserri", "Ruta 209",
      "Calle 5", "Avenida 3", "Boulevard de los Ángeles",
      "Calle del Mercado", "Avenida de la Municipalidad", "Calle 7",
      "Ruta a San Antonio", "Boulevard de Patarra",
      "Calle de la Iglesia", "Avenida 5", "Ruta a San Rafael",
      "Calle 9", "Boulevard del Sur", "Avenida de los Pinos",
      "Calle de la Estación", "Ruta a Aserri", "Calle 11"
    ],
    "San Carlos": [
      "Calle Central", "Avenida Central", "Boulevard Ciudad Quesada",
      "Calle 1", "Avenida 1", "Ruta a La Fortuna",
      "Calle del Mercado", "Carretera a Arenal",
      "Calle 3", "Avenida 3", "Boulevard del Ganadero",
      "Calle del Parque", "Avenida de la Feria", "Calle 5",
      "Ruta a San Ramón", "Boulevard del Norte",
      "Calle de la Catedral", "Avenida 5", "Ruta a Upala",
      "Calle 7", "Boulevard de las Aguas Termales", "Avenida del Volcán",
      "Calle de la Estación", "Ruta a Aguas Zarcas", "Calle 9"
    ],
    "Escazu": [
      "Calle de la Paco", "Avenida Escazu", "Boulevard Multiplaza",
      "Calle Vieja", "Avenida Central", "Ruta a Santa Ana",
      "Calle Real", "Boulevard de Escazu",
      "Calle de León Cortés", "Avenida de las Palmas", "Boulevard Plaza Colonial",
      "Calle del Higuerón", "Avenida de los Laureles", "Calle de Bello Horizonte",
      "Ruta a San Rafael", "Boulevard de Guachipelín",
      "Calle de Trejos Montealegre", "Avenida de San Rafael", "Ruta a San Antonio",
      "Calle de la Trinidad", "Boulevard Jaboncillo", "Avenida de los Anonos",
      "Calle de San Miguel", "Ruta a Piedades", "Calle del Centro"
    ],
    "Santa Ana": [
      "Calle Real", "Avenida Central", "Boulevard Lindora",
      "Calle del Forum", "Avenida 1", "Ruta a Escazu",
      "Boulevard de Santa Ana", "Calle del Mercado",
      "Calle de Pozos", "Avenida de Ciudad Colón", "Boulevard del Valle",
      "Calle del Alto de las Palomas", "Avenida de Piedades", "Calle de Brasil",
      "Ruta a Belén", "Boulevard Terracampus",
      "Calle de Uruca", "Avenida 3", "Ruta a Ciudad Colón",
      "Calle de la Fábrica", "Boulevard de los Comercios", "Avenida del Centro",
      "Calle de Salitral", "Ruta del Río Uruca", "Calle del Parque"
    ],
    "Curridabat": [
      "Calle de la Carpintera", "Avenida Central", "Boulevard de Curridabat",
      "Calle Pista", "Avenida 1", "Ruta a Tres Rios",
      "Calle del Mercado", "Boulevard de las Américas",
      "Calle de Pinares", "Avenida 3", "Boulevard Plaza del Sol",
      "Calle de Granadilla", "Avenida de Lomas de Ayarco", "Calle de Tirrases",
      "Ruta a Desamparados", "Boulevard del Este",
      "Calle de la Galera", "Avenida 5", "Ruta a Zapote",
      "Calle de Cipreses", "Boulevard de Freses", "Avenida de Sánchez",
      "Calle del Higuerón", "Ruta a San Pedro", "Calle del Centro"
    ],
    "San Ramon": [
      "Avenida Central", "Calle Central", "Calle 1", "Avenida 1",
      "Boulevard de San Ramón", "Ruta a Palmares",
      "Calle del Mercado", "Avenida 3",
      "Calle 3", "Boulevard de los Poetas", "Calle de la Catedral",
      "Avenida 5", "Ruta a Zarcero", "Calle del Parque",
      "Boulevard Julio Acosta García", "Calle 5",
      "Avenida de las Musas", "Ruta a Grecia", "Calle del Estadio",
      "Boulevard de los Santos", "Avenida 7", "Calle de la Estación",
      "Ruta a San Isidro", "Calle 7", "Boulevard del Occidente"
    ],
    "Nicoya": [
      "Calle Central", "Avenida Central", "Calle del Parque",
      "Avenida 1", "Ruta a Samara", "Boulevard de Nicoya",
      "Calle del Mercado", "Avenida 3",
      "Calle 1", "Boulevard de la Anexión", "Calle de la Iglesia Colonial",
      "Avenida 5", "Ruta a Nosara", "Calle del Hospital",
      "Boulevard Chorotega", "Calle 3",
      "Avenida de la Municipalidad", "Ruta a Santa Cruz", "Calle del Cementerio",
      "Boulevard de las Tradiciones", "Avenida 7", "Calle de la Cultura",
      "Ruta a Hojancha", "Calle 5", "Boulevard del Guanacaste"
    ],
    "Perez Zeledon": [
      "Calle Central", "Avenida Central", "Calle del Mercado",
      "Avenida 1", "Ruta Interamericana", "Boulevard Municipal",
      "Calle del Parque", "Avenida 3",
      "Calle 1", "Boulevard de San Isidro", "Calle de la Catedral",
      "Avenida 5", "Ruta a Dominical", "Calle del Hospital",
      "Boulevard del General", "Calle 3",
      "Avenida de los Comercios", "Ruta al Chirripó", "Calle del Estadio",
      "Boulevard de los Agricultores", "Avenida 7", "Calle de la Estación",
      "Ruta a Buenos Aires", "Calle 5", "Boulevard del Sur"
    ],
    "Turrialba": [
      "Avenida Central", "Calle Central", "Avenida 1",
      "Ruta a Siquirres", "Calle del Mercado", "Boulevard de Turrialba",
      "Calle del Parque", "Avenida 3",
      "Calle 1", "Boulevard del CATIE", "Calle de la Estación",
      "Avenida 5", "Ruta al Volcán Turrialba", "Calle del Hospital",
      "Boulevard de los Agricultores", "Calle 3",
      "Avenida de la Municipalidad", "Ruta a Pacayas", "Calle del Monumento",
      "Boulevard del Valle", "Avenida 7", "Calle de la Catedral",
      "Ruta a Santa Cruz", "Calle 5", "Boulevard del Este"
    ],
    "Grecia": [
      "Avenida Central", "Calle Central", "Avenida 1",
      "Calle del Mercado", "Ruta a Sarchi", "Boulevard de Grecia",
      "Calle del Parque", "Avenida 3",
      "Calle 1", "Boulevard de los Artesanos", "Calle de la Iglesia",
      "Avenida 5", "Ruta a Naranjo", "Calle del Hospital",
      "Boulevard de las Cañas", "Calle 3",
      "Avenida de la Municipalidad", "Ruta a Alajuela", "Calle del Cementerio",
      "Boulevard del Atlético", "Avenida 7", "Calle de la Estación",
      "Ruta a Tacares", "Calle 5", "Boulevard del Centro"
    ],
    "Santa Cruz": [
      "Calle Central", "Avenida Central", "Calle del Parque",
      "Avenida 1", "Ruta a Tamarindo", "Boulevard de Santa Cruz",
      "Calle del Mercado", "Avenida 3",
      "Calle 1", "Boulevard de las Fiestas", "Calle de la Plaza de Toros",
      "Avenida 5", "Ruta a Flamingo", "Calle del Hospital",
      "Boulevard de la Marimba", "Calle 3",
      "Avenida de la Municipalidad", "Ruta a Nicoya", "Calle del Cementerio",
      "Boulevard Guanacasteco", "Avenida 7", "Calle de la Cultura",
      "Ruta a Playa Grande", "Calle 5", "Boulevard del Sol"
    ],
    "Quepos": [
      "Avenida Central", "Calle del Mercado", "Ruta al Manuel Antonio",
      "Boulevard de Quepos", "Calle del Puerto", "Avenida 1",
      "Calle del Parque", "Avenida 3",
      "Calle 1", "Boulevard del Pacífico", "Calle de la Marina",
      "Avenida 5", "Ruta a Dominical", "Calle del Hospital",
      "Boulevard de los Pescadores", "Calle 3",
      "Avenida del Malecón", "Ruta a Londres", "Calle del Muelle",
      "Boulevard de la Biodiversidad", "Avenida 7", "Calle de la Estación",
      "Ruta a Savegre", "Calle 5", "Boulevard del Parque Nacional"
    ],
    "Tilaran": [
      "Calle Central", "Avenida Central", "Ruta al Arenal",
      "Calle del Parque", "Avenida 1", "Boulevard de Tilarán",
      "Calle del Mercado", "Avenida 3",
      "Calle 1", "Boulevard del Lago", "Calle de la Iglesia",
      "Avenida 5", "Ruta a Cañas", "Calle del Hospital",
      "Boulevard de los Vientos", "Calle 3",
      "Avenida de la Municipalidad", "Ruta a Monteverde", "Calle del Cementerio",
      "Boulevard del Arenal", "Avenida 7", "Calle de la Estación",
      "Ruta a Nuevo Arenal", "Calle 5", "Boulevard del Centro"
    ],
    "La Fortuna": [
      "Calle Central", "Avenida del Volcán", "Ruta al Arenal",
      "Calle de las Aguas Termales", "Avenida 1", "Boulevard Turístico",
      "Calle del Parque", "Avenida 3",
      "Calle 1", "Boulevard de la Aventura", "Calle del Volcán",
      "Avenida 5", "Ruta a Tabacón", "Calle del Hotel",
      "Boulevard de los Termales", "Calle 3",
      "Avenida de las Cataratas", "Ruta al Lago", "Calle del Mercado",
      "Boulevard del Ecoturismo", "Avenida 7", "Calle del Canopy",
      "Ruta a San Carlos", "Calle 5", "Boulevard del Arenal"
    ],
    "Tamarindo": [
      "Calle Central", "Avenida de la Playa", "Boulevard de Tamarindo",
      "Calle del Surf", "Ruta a Santa Cruz", "Avenida 1",
      "Calle del Mercado", "Avenida 3",
      "Calle 1", "Boulevard del Pacífico", "Calle de Langosta",
      "Avenida 5", "Ruta a Villarreal", "Calle del Hotel",
      "Boulevard de los Surfistas", "Calle 3",
      "Avenida del Atardecer", "Ruta a Playa Grande", "Calle del Parque",
      "Boulevard del Mar", "Avenida 7", "Calle de las Tortugas",
      "Ruta a Huacas", "Calle 5", "Boulevard del Sol"
    ],
    "Jaco": [
      "Calle del Pastor Díaz", "Avenida de la Playa", "Boulevard de Jacó",
      "Calle del Bohio", "Ruta a Herradura", "Avenida 1",
      "Calle del Mercado", "Avenida 3",
      "Calle 1", "Boulevard del Pacífico", "Calle del Centro",
      "Avenida 5", "Ruta a Quepos", "Calle del Hotel",
      "Boulevard de los Surfistas", "Calle 3",
      "Avenida del Mar", "Ruta a Playa Hermosa", "Calle del Parque",
      "Boulevard del Sol", "Avenida 7", "Calle de la Arena",
      "Ruta a Puntarenas", "Calle 5", "Boulevard del Cocodrilo"
    ],
    "Puerto Viejo": [
      "Calle Principal", "Avenida de la Playa", "Calle del Muelle",
      "Boulevard Caribeño", "Ruta a Manzanillo", "Calle del Mercado",
      "Calle de Cocles", "Avenida 1",
      "Calle 1", "Boulevard de los Reggae", "Calle de Playa Negra",
      "Avenida 3", "Ruta a Cahuita", "Calle del Hotel",
      "Boulevard del Caribe Sur", "Calle 3",
      "Avenida de la Biodiversidad", "Ruta a Bribrí", "Calle del Parque",
      "Boulevard del Sol Caribeño", "Avenida 5", "Calle de la Cultura",
      "Ruta a Punta Uva", "Calle 5", "Boulevard de los Corales"
    ],
    "Nosara": [
      "Calle del Surf", "Avenida de la Playa", "Ruta a Guiones",
      "Boulevard de Nosara", "Calle de Pelada", "Calle Principal",
      "Calle de Garza", "Avenida 1",
      "Calle 1", "Boulevard del Yoga", "Calle de Ostional",
      "Avenida 3", "Ruta a Nicoya", "Calle del Hotel",
      "Boulevard de las Olas", "Calle 3",
      "Avenida del Bienestar", "Ruta a Samara", "Calle del Parque",
      "Boulevard del Pacífico", "Avenida 5", "Calle de las Tortugas",
      "Ruta a Santa Cruz", "Calle 5", "Boulevard Ecológico"
    ],
    "Monteverde": [
      "Calle de la Reserva", "Avenida Central", "Ruta a Santa Elena",
      "Calle del Bosque Nuboso", "Boulevard Ecológico", "Calle Principal",
      "Calle del Quetzal", "Avenida 1",
      "Calle 1", "Boulevard de la Naturaleza", "Calle del Colibrí",
      "Avenida 3", "Ruta a Tilarán", "Calle del Hotel",
      "Boulevard de las Orquídeas", "Calle 3",
      "Avenida de la Biodiversidad", "Ruta al Trapiche", "Calle del Parque",
      "Boulevard del Canopy", "Avenida 5", "Calle de la Neblina",
      "Ruta a Cerro Plano", "Calle 5", "Boulevard de los Cuáqueros"
    ],
    "Cahuita": [
      "Calle Principal", "Avenida de la Playa", "Ruta al Parque Nacional",
      "Calle del Muelle", "Boulevard Caribeño", "Calle del Mercado",
      "Calle de Playa Negra", "Avenida 1",
      "Calle 1", "Boulevard del Reggae", "Calle del Arrecife",
      "Avenida 3", "Ruta a Puerto Viejo", "Calle del Hotel",
      "Boulevard del Caribe", "Calle 3",
      "Avenida de los Corales", "Ruta a Limón", "Calle del Parque",
      "Boulevard de la Naturaleza", "Avenida 5", "Calle de las Palmeras",
      "Ruta a Hone Creek", "Calle 5", "Boulevard del Perezoso"
    ],
    "Guapiles": [
      "Calle Central", "Avenida Central", "Ruta a Siquirres",
      "Calle del Mercado", "Boulevard de Guápiles", "Avenida 1",
      "Calle del Parque", "Avenida 3",
      "Calle 1", "Boulevard del Caribe", "Calle del Hospital",
      "Avenida 5", "Ruta a Río Frío", "Calle del Banano",
      "Boulevard de la Agricultura", "Calle 3",
      "Avenida de la Municipalidad", "Ruta a Cariari", "Calle del Cementerio",
      "Boulevard de Pococí", "Avenida 7", "Calle de la Estación",
      "Ruta a Limón", "Calle 5", "Boulevard del Centro"
    ],
    "Siquirres": [
      "Calle Central", "Avenida Central", "Ruta a Limón",
      "Calle del Mercado", "Boulevard de Siquirres", "Avenida 1",
      "Calle del Parque", "Avenida 3",
      "Calle 1", "Boulevard del Ferrocarril", "Calle del Hospital",
      "Avenida 5", "Ruta a Turrialba", "Calle del Banano",
      "Boulevard de la Historia", "Calle 3",
      "Avenida de la Municipalidad", "Ruta a Guápiles", "Calle del Cementerio",
      "Boulevard del Caribe", "Avenida 7", "Calle de la Estación",
      "Ruta a Pacuare", "Calle 5", "Boulevard del Centro"
    ],
    "Atenas": [
      "Calle Central", "Avenida Central", "Ruta a San José",
      "Calle del Mercado", "Boulevard de Atenas", "Avenida 1",
      "Calle del Parque", "Avenida 3",
      "Calle 1", "Boulevard del Mejor Clima del Mundo", "Calle de la Iglesia",
      "Avenida 5", "Ruta a Alajuela", "Calle del Hospital",
      "Boulevard de las Frutas", "Calle 3",
      "Avenida de la Municipalidad", "Ruta a Palmares", "Calle del Cementerio",
      "Boulevard del Central", "Avenida 7", "Calle de la Estación",
      "Ruta a Orotina", "Calle 5", "Boulevard del Valle Central"
    ]
  },
  "postcode_format": "#####",
  "address_formats": [
    "{street}, {city}, {state}",
    "Apartado ####-####, {city}"
  ],
  "country": "Costa Rica",
  "country_code": "CR",
  "phone_area_codes": {
    "San Jose": "2",
    "Alajuela": "2",
    "Heredia": "2",
    "Cartago": "2",
    "Guanacaste": "2",
    "Puntarenas": "2",
    "Limon": "2"
  },
  "phone_format": "+506 {area_code}### ####"
}
